     2.11           OBSERVATION DATA    M (MIXED)           RINEX VERSION / TYPE
CONVBIN 2.4.3                           20160828 162208 UTC PGM / RUN BY / DATE 
log: Base.ubx                                               COMMENT             
format: u-blox                                              COMMENT             
                                                            MARKER NAME         
                                                            MARKER NUMBER       
                                                            OBSERVER / AGENCY   
                                                            REC # / TYPE / VERS 
                                                            ANT # / TYPE        
  4658487.7898    96908.6012  4341533.0800                  APPROX POSITION XYZ 
        0.0000        0.0000        0.0000                  ANTENNA: DELTA H/E/N
     1     1                                                WAVELENGTH FACT L1/2
     4    C1    L1    C2    L2                              # / TYPES OF OBSERV 
  2016     8    27     8    48   16.0000000     GPS         TIME OF FIRST OBS   
  2016     8    27     9    26    3.0010000     GPS         TIME OF LAST OBS    
                                                            END OF HEADER       
 16  8 27  8 48 16.0000000  0 20G12R13R14R17R15G 2G23G14R 6G31G25G26
                                G16R24G 5G20G 4G29R23G21
  25225369.143   132560147.854                                  
  20651869.600   110279716.230                                  
  19278086.412   102763105.708                                  
  21939746.512   117404095.878                                  
  21913452.707   117098787.778                                  
  25762588.441                                                  
  25638361.457                                                  
  24727952.885   129946268.790                                  
  24645047.006   131510671.763                                  
  20921901.669   109945231.915                                  
  22129343.031   116290454.225                                  
  22471010.512   118085947.719                                  
  24608498.956   129318559.0802                                 
  19290022.432   103152466.719                                  
  24901400.721   130857768.738                                  
  24769185.342   130162963.183                                  
  21060512.343   110673770.632                                  
  20833293.372   109479716.319                                  
  21022988.830   112458807.951                                  
  22036815.241   115804265.006                                  
 16  8 27  8 48 17.0000000  0 20G12R13R14R17R15G 2G23G14R 6G31G25G26
                                G16R24G 5G20G 4G29R23G21
  25226021.991   132563576.776                                  
  20652492.712   110283045.191                                  
  19277914.248   102762189.426                                  
  21939162.314   117400970.912                                  
  21912824.813   117095431.606                                  
  25763235.390                                                  
  25638261.084                                                  
  24728555.267   129949433.472                                  
  24645341.356   131512243.881                                  
  20922006.231   109945782.920                                  
  22129849.053   116293112.897                                  
  22470578.479   118083677.971                                  
  24607965.851   129315753.8402                                 
  19290059.985   103152669.276                                  
  24901253.825   130856996.930                                  
  24768741.897   130160631.590                                  
  21060235.897   110672321.172                                  
  20833701.114   109481859.943                                  
  21023651.799   112462354.516                                  
  22036482.814   115802517.312                                  
 16  8 27  8 48 18.0000000  0 20G12R13R14R17R15G 2G23G14R 6G31G25G26
                                G16R24G 5G20G 4G29R23G21
  25226674.804   132567005.691                                  
  20653115.301   110286374.634                                  
  19277742.119   102761273.822                                  
  21938578.360   117397846.259                                  
  21912196.884   117092075.646                                  
  25763882.235                                                  
  25638161.687                                                  
  24729157.369   129952598.150                                  
  24645635.951   131513816.571                                  
  20922111.072   109946334.491                                  
  22130355.144   116295771.771                                  
  22470146.412   118081408.323                                  
  24607430.897   129312948.5682                                 
  19290097.747   103152872.548                                  
  24901107.313   130856225.559                                  
  24768298.417   130158300.063                                  
  21059959.695   110670871.954                                  
  20834108.961   109484003.835                                  
  21024314.977   112465901.356                                  
  22036150.143   115800769.983                                  
 16  8 27  8 48 19.0000000  0 20G12R13R14R17R15G 2G23G14R 6G31G25G26
                                G16R24G 5G20G 4G29R23G21
  25227327.372   132570434.640                                  
  20653738.274   110289704.583                                  
  19277570.060   102760358.887                                  
  21937994.510   117394721.964                                  
  21911568.851   117088719.916                                  
  25764527.648                                                  
  25638058.661                                                  
  24729759.576   129955762.855                                  
  24645930.789   131515389.993                                  
  20922216.087   109946886.629                                  
  22130861.165   116298430.880                                  
  22469714.554   118079138.786                                  
  24606898.387   129310143.223                                  
  19290135.858   103153076.468                                  
  24900961.254   130855454.617                                  
  24767854.379   130155968.574                                  
  21059683.737   110669422.999                                  
  20834516.947   109486147.985                                  
  21024978.330   112469448.503                                  
  22035817.507   115799023.036                                  
 16  8 27  8 48 20.0000000  0 20G12R13R14R17R15G 2G23G14R 6G31G25G26
                                G16R24G 5G20G 4G29R23G21
  25227980.045   132573863.800                                  
  20654361.491   110293035.278                                  
  19277398.350   102759444.819                                  
  21937410.905   117391598.210                                  
  21910940.957   117085364.612                                  
  25765174.074                                                  
  25637958.811                                                  
  24730361.609   129958927.761                                  
  24646224.686   131516964.263                                  
  20922321.382   109947439.538                                  
  22131367.536   116301090.401                                  
  22469282.766   118076869.553                                  
  24606366.713   129307338.059                                  
  19290173.935   103153281.264                                  
  24900815.161   130854684.300                                  
  24767410.690   130153637.366                                  
  21059407.640   110667974.480                                  
  20834925.003   109488292.604                                  
  21025641.578   112472996.110                                  
  22035485.465   115797276.645                                  
 16  8 27  8 48 21.0000000  0 20G12R13R14R17R15G 2G23G14R 6G31G25G26
                                G16R24G 5G20G 4G29R23G21
  25228633.137   132577292.952                                  
  20654984.882   110296366.472                                  
  19277226.814   102758531.377                                  
  21936827.370   117388474.766                                  
  21910313.587   117082009.426                                  
  25765819.453                                                  
  25637860.147                                                  
  24730963.886   129962092.666                                  
  24646519.909   131518539.080                                  
  20922426.746   109947992.964                                  
  22131874.046   116303750.105                                  
  22468850.908   118074600.380                                  
  24605831.829   129304532.777                                  
  19290212.290   103153486.706                                  
  24900668.789   130853914.433                                  
  24766967.140   130151306.164                                  
  21059132.136   110666526.187                                  
  20835332.954   109490437.453                                  
  21026304.826   112476543.987                                  
  22035153.212   115795530.585                                  
 16  8 27  8 48 22.0000000  0 19G12R13R14R17R15G 2G14R 6G31G25G26G16
                                R24G 5G20G 4G29R23G21
  25229286.089   132580722.243                                  
  20655608.274   110299698.235                                  
  19277055.662   102757618.723                                  
  21936243.800   117385351.776                                  
  21909686.007   117078654.591                                  
  25766466.333                                                  
  24731566.093   129965257.685                                  
  24646816.179   131520114.802                                  
  20922531.831   109948547.091                                  
  22132380.207   116306410.157                                  
  22468419.015   118072331.449                                  
  24605296.422   129301727.732                                  
  19290250.855   103153692.900                                  
  24900522.486   130853145.067                                  
  24766523.451   130148975.153                                  
  21058856.841   110665078.252                                  
  20835741.394   109492582.674                                  
  21026968.108   112480092.232                                  
  22034820.786   115793785.012                                  
 16  8 27  8 48 23.0000000  0 19G12R13R14R17R15G 2G14R 6G31G25G26G16
                                R24G 5G20G 4G29R23G21
  25229938.971   132584151.626                                  
  20656231.770   110303030.664                                  
  19276884.336   102756706.854                                  
  21935660.265   117382229.217                                  
  21909058.358   117075300.071                                  
  25767113.142                                                  
  24732168.404   129968422.835                                  
  24647109.133   131521691.241                                  
  20922637.754   109949101.891                                  
  22132886.263   116309070.529                                  
  22467987.227   118070062.720                                  
  24604761.398   129298922.628                                  
  19290289.595   103153899.883                                  
  24900376.567   130852376.300                                  
  24766079.901   130146644.338                                  
  21058581.023   110663630.706                                  
  20836149.554   109494728.289                                  
  21027631.670   112483640.904                                  
  22034488.708   115792039.934                                  
 16  8 27  8 48 24.0000000  0 19G12R13R14R17R15G 2G14R 6G31G25G26G16
                                R24G 5G20G 4G29R23G21
  25230591.784   132587581.254                                  
  20656855.581   110306363.809                                  
  19276713.394   102755795.879                                  
  21935076.660   117379107.205                                  
  21908430.639   117071945.962                                  
  25767761.244                                                  
  24732770.856   129971588.191                                  
  24647405.054   131523268.503                                  
  20922743.223   109949657.468                                  
  22133392.284   116311731.339                                  
  22467555.543   118067794.307                                  
  24604226.549   129296117.600                                  
  19290328.439   103154107.769                                  
  24900230.474   130851608.192                                  
  24765636.351   130144313.769                                  
  21058305.763   110662183.574                                  
  20836558.134   109496874.361                                  
  21028295.232   112487190.020                                  
  22034156.491   115790295.421                                  
 16  8 27  8 48 25.0000000  0 19G12R13R14R17R15G 2G14R 6G31G25G26G16
                                R24G 5G20G 4G29R23G21
  25231244.911   132591010.951                                  
  20657479.461   110309697.514                                  
  19276542.277   102754885.651                                  
  21934493.229   117375985.606                                  
  21907803.024   117068592.143                                  
  25768409.868                                                  
  24733373.132   129974753.626                                  
  24647701.149   131524846.535                                  
  20922849.076   109950213.672                                  
  22133898.794   116314392.418                                  
  22467123.720   118065526.079                                  
  24603693.445   129293312.731                                  
  19290367.667   103154316.373                                  
  24900084.625   130850840.554                                  
  24765192.907   130141983.348                                  
  21058030.783   110660736.778                                  
  20836966.539   109499020.769                                  
  21028958.620   112490739.505                                  
  22033824.867   115788551.347                                  
 16  8 27  8 48 26.0000000  0 19G12R13R14R17R15G 2G14R 6G31G25G26G16
                                R24G 5G20G 4G29R23G21
  25231897.305   132594440.633                                  
  20658103.411   110313031.727                                  
  19276371.474   102753976.055                                  
  21933910.078   117372864.300                                  
  21907175.759   117065238.541                                  
  25769057.271                                                  
  24733975.409   129977919.041                                  
  24647996.372   131526425.147                                  
  20922954.790   109950770.403                                  
  22134405.374   116317053.686                                  
  22466691.932   118063257.908                                  
  24603161.423   129290507.742                                  
  19290406.790   103154525.582                                  
  24899938.741   130850073.320                                  
  24764749.427   130139652.967                                  
  21057755.488   110659290.203                                  
  20837375.188   109501167.405                                  
  21029622.601   112494289.199                                  
  22033493.034   115786807.591                                  
 16  8 27  8 48 27.0000000  0 19G12R13R14R17R15G 2G14R 6G31G25G26G16
                                R24G 5G20G 4G29R23G21
  25232550.187   132597870.420                                  
  20658727.535   110316366.507                                  
  19276201.055   102753067.224                                  
  21933326.856   117369743.361                                  
  21906548.319   117061885.199                                  
  25769703.174                                                  
  24734577.861   129981084.539                                  
  24648290.931   131528004.543                                  
  20923060.608   109951327.771                                  
  22134911.745   116319715.256                                  
  22466260.213   118060989.902                                  
  24602627.865   129287702.755                                  
  19290446.053   103154735.484                                  
  24899792.927   130849306.626                                  
  24764306.017   130137322.694                                  
  21057480.543   110657843.955                                  
  20837783.593   109503314.379                                  
  21030286.442   112497839.208                                  
  22033161.026   115785064.287                                  
 16  8 27  8 48 28.0000000  0 19G12R13R14R17R15G 2G14R 6G31G25G26G16
                                R24G 5G20G 4G29R23G21
  25233202.825   132601300.028                                  
  20659351.555   110319701.637                                  
  19276030.253   102752158.888                                  
  21932743.845   117366622.615                                  
  21905921.123   117058531.929                                  
  25770350.577                                                  
  24735180.486   129984249.903                                  
  24648583.606   131529564.8491                                 
  20923166.496   109951885.560                                  
  22135418.394   116322376.893                                  
  22465828.390   118058721.880                                  
  24602093.399   129284897.536                                  
  19290485.491   103154945.920                                  
  24899646.904   130848540.234                                  
  24763862.781   130134992.353                                  
  21057205.457   110656397.798                                  
  20838192.626   109505461.466                                  
  21030950.423   112501389.307                                  
  22032829.507   115783321.209                                  
 16  8 27  8 48 29.0000000  0 19G12R13R14R17R15G 2G14R 6G31G25G26G16
                                R24G 5G20G 4G29R23G21
  25233855.603   132604729.966                                  
  20659976.377   110323037.614                                  
  19275859.938   102751251.545                                  
  21932160.798   117363502.514                                  
  21905293.857   117055179.145                                  
  25770997.596                                                  
  24735782.973   129987415.562                                  
  24648880.993   131531145.682                                  
  20923272.803   109952444.209                                  
  22135925.079   116325039.037                                  
  22465397.021   118056454.245                                  
  24601558.760   129282092.683                                  
  19290525.347   103155157.265                                  
  24899501.230   130847774.513                                  
  24763419.301   130132662.372                                  
  21056930.477   110654952.188                                  
  20838601.519   109507609.109                                  
  21031614.543   112504939.999                                  
  22032497.778   115781578.798                                  
 16  8 27  8 48 30.0000000  0 19G12R13R14R17R15G 2G14R 6G31G25G26G16
                                R24G 5G20G 4G29R23G21
  25234508.520   132608160.009                                  
  20660601.025   110326374.185                                  
  19275689.589   102750344.969                                  
  21931577.716   117360382.825                                  
  21904666.452   117051826.646                                  
  25771643.428                                                  
  24736385.215   129990581.318                                  
  24649177.123   131532727.1782                                 
  20923379.284   109953003.502                                  
  22136432.008   116327701.484                                  
  22464965.617   118054186.804                                  
  24601025.411   129279287.814                                  
  19290565.099   103155369.350                                  
  24899355.799   130847009.381                                  
  24762975.856   130130332.524                                  
  21056655.531   110653506.910                                  
  20839010.413   109509757.097                                  
  21032278.628   112508491.066                                  
  22032166.259   115779836.835                                  
 16  8 27  8 48 31.0000000  0 19G12R13R14R17R15G 2G14R 6G31G25G26G16
                                R24G 5G20G 4G29R23G21
  25235161.263   132611590.245                                  
  20661226.022   110329711.435                                  
  19275519.694   102749439.257                                  
  21930994.740   117357263.688                                  
  21904039.117   117048474.550                                  
  25772290.413                                                  
  24736987.387   129993747.269                                  
  24649473.393   131534309.4902                                 
  20923485.625   109953563.558                                  
  22136938.657   116330364.331                                  
  22464534.212   118051919.648                                  
  24600491.120                                                  
  19290604.885   103155582.322                                  
  24899210.474   130846244.892                                  
  24762532.481   130128002.922                                  
  21056380.516   110652062.066                                  
  20839419.167   109511905.538                                  
  21032942.819   112512042.589                                  
  22031834.809   115778095.419                                  
 16  8 27  8 48 32.0000000  0 19G12R13R14R17R15G 2G14R 6G31G25G26G16
                                R24G 5G20G 4G29R23G21
  25235813.901   132615020.438                                  
  20661850.950   110333049.171                                  
  19275349.729   102748534.179                                  
  21930412.077   117354144.850                                  
  21903411.432   117045122.617                                  
  25772937.187                                                  
  24737589.419   129996913.169                                  
  24649767.708   131535892.4612                                 
  20923592.211   109954124.112                                  
  22137445.202   116333027.355                                  
  22464102.878   118049652.534                                  
  24599959.691                                                  
  19290645.091   103155795.895                                  
  24899065.114   130845480.726                                  
  24762089.455   130125673.347                                  
  21056105.745   110650617.434                                  
  20839828.479   109514054.180                                  
  21033606.730   112515594.353                                  
  22031503.360   115776354.328                                  
 16  8 27  8 48 33.0000000  0 19G12R13R14R17R15G 2G14R 6G31G25G26G16
                                R24G 5G20G 4G29R23G21
  25236466.574   132618450.753                                  
  20662475.702   110336387.527                                  
  19275179.799   102747629.850                                  
  21929829.414   117351026.409                                  
  21902784.272   117041770.982                                  
  25773585.219                                                  
  24738192.080   130000079.180                                  
  24650064.327   131537476.1812                                 
  20923699.007   109954685.338                                  
  22137951.503   116335690.668                                  
  22463671.020   118047385.627                                  
  24599426.378                                                  
  19290685.052   103156010.178                                  
  24898919.753   130844717.130                                  
  24761646.464   130123343.926                                  
  21055830.939   110649173.100                                  
  20840237.582   109516203.171                                  
  21034270.955   112519146.473                                  
  22031172.259   115774613.690                                  
 16  8 27  8 48 34.0000000  0 19G12R13R14R17R15G 2G14R 6G31G25G26G16
                                R24G 5G20G 4G29R23G21
  25237119.806   132621881.132                                  
  20663100.839   110339726.434                                  
  19275010.357   102746726.234                                  
  21929246.716   117347908.346                                  
  21902156.971   117038419.644                                  
  25774233.599                                                  
  24738794.566   130003245.272                                  
  24650361.784   131539060.6482                                 
  20923805.802   109955247.186                                  
  22138458.362   116338354.273                                  
  22463239.895   118045118.891                                  
  24598893.902                                                  
  19290725.536   103156225.226                                  
  24898774.742   130843954.032                                  
  24761203.368   130121014.627                                  
  21055556.412   110647729.114                                  
  20840646.789   109518352.494                                  
  21034935.250   112522698.900                                  
  22030840.810   115772873.479                                  
 16  8 27  8 48 35.0000000  0 18G12R13R14R17R15G 2G14R 6G31G25G26R24
                                G 5G20G 4G29R23G21
  25237772.898   132625311.706                                  
  20663726.150   110343065.977                                  
  19274840.741   102745823.465                                  
  21928664.158   117344790.779                                  
  21901529.706   117035068.679                                  
  25774882.119                                                  
  24739397.506   130006411.492                                  
  24650655.820   131540645.9312                                 
  20923912.632   109955809.758                                  
  22138965.256   116341018.266                                  
  22462808.386   118042852.414                                  
  19290765.986   103156441.105                                  
  24898629.521   130843191.510                                  
  24760760.516   130118685.550                                  
  21055281.885   110646285.537                                  
  20841055.997   109520502.236                                  
  21035599.649   112526251.761                                  
  22030509.640   115771133.807                                  
 16  8 27  8 48 36.0000000  0 18G12R13R14R17R15G 2G14R 6G31G25G26R24
                                G 5G20G 4G29R23G21
  25238426.129   132628742.355                                  
  20664351.705   110346406.205                                  
  19274671.509   102744921.458                                  
  21928081.670   117341673.679                                  
  21900902.301   117031718.027                                  
  25775530.011                                                  
  24740000.446   130009577.852                                  
  24650952.648   131542231.5471                                 
  20924019.742   109956372.990                                  
  22139472.359   116343682.557                                  
  22462377.156   118040586.132                                  
  19290806.540   103156657.747                                  
  24898483.987   130842429.541                                  
  24760317.525   130116356.620                                  
  21055007.463   110644842.301                                  
  20841465.240   109522652.342                                  
  21036264.084   112529804.968                                  
  22030178.644   115769394.600                                  
 16  8 27  8 48 37.0000000  0 18G12R13R14R17R15G 2G14R 6G31G25G26R24
                                G 5G20G 4G29R23G21
  25239079.221   132632173.029                                  
  20664977.435   110349746.885                                  
  19274502.172   102744020.120                                  
  21927499.391   117338556.949                                  
  21900275.628   117028367.592                                  
  25776179.368                                                  
  24740603.246   130012744.204                                  
  24651259.632   131543818.169                                  
  20924127.130   109956936.796                                  
  22139979.497   116346347.081                                  
  22461945.228   118038319.968                                  
  19290847.164   103156875.016                                  
  24898338.766   130841668.065                                  
  24759874.639   130114027.763                                  
  21054732.866   110643399.308                                  
  20841874.622   109524802.713                                  
  21036928.518   112533358.430                                  
  22029847.718   115767655.774                                  
 16  8 27  8 48 38.0000000  0 18G12R13R14R17R15G 2G14R 6G31G25G26R24
                                G 5G20G 4G29R23G21
  25239732.069   132635603.800                                  
  20665603.479   110353088.190                                  
  19274333.009   102743119.558                                  
  21926917.182   117335440.675                                  
  21899648.886   117025017.458                                  
  25776828.202                                                  
  24741205.628   130015910.709                                  
  24651556.670   131545405.551                                  
  20924234.100   109957501.276                                  
  22140486.426   116349011.918                                  
  22461513.894   118036054.017                                  
  19290887.928   103157093.067                                  
  24898193.859   130840907.097                                  
  24759431.822   130111699.112                                  
  21054458.444   110641956.667                                  
  20842283.655   109526953.449                                  
  21037593.127   112536912.298                                  
  22029516.932   115765917.414                                  
 16  8 27  8 48 39.0000000  0 18G12R13R14R17R15G 2G14R 6G31G25G26R24
                                G 5G20G 4G29R23G21
  25240385.230   132639034.670                                  
  20666229.488   110356430.069                                  
  19274164.196   102742219.706                                  
  21926334.833   117332324.773                                  
  21899021.551   117021667.561                                  
  25777478.781                                                  
  24741808.114   130019077.229                                  
  24651859.955   131546993.679                                  
  20924341.384   109958066.360                                  
  22140993.599   116351677.046                                  
  22461082.699   118033788.211                                  
  19290929.180   103157311.806                                  
  24898048.883   130840146.655                                  
  24758989.389   130109370.537                                  
  21054184.371   110640514.335                                  
  20842693.002   109529104.498                                  
  21038257.736   112540466.502                                  
  22029186.459   115764179.469                                  
 16  8 27  8 48 40.0000000  0 18G12R13R14R17R15G 2G14R 6G31G25G26R24
                                G 5G20G 4G29R23G21
  25241038.148   132642465.623                                  
  20666855.323   110359772.547                                  
  19273995.348   102741320.610                                  
  21925752.555   117329209.241                                  
  21898394.669   117018318.025                                  
  25778128.872                                                  
  24742410.461   130022243.898                                  
  24652153.363   131548582.498                                  
  20924449.017   109958632.115                                  
  22141500.912   116354342.492                                  
  22460651.295   118031522.620                                  
  19290970.328   103157531.286                                  
  24897903.941   130839386.707                                  
  24758546.677   130107042.170                                  
  21053909.914   110639072.369                                  
  20843102.384   109531255.913                                  
  21038922.240   112544021.067                                  
  22028855.813   115762442.001                                  
 16  8 27  8 48 41.0000000  0 18G12R13R14R17R15G 2G14R 6G31G25G26R24
                                G 5G20G 4G29R23G21
  25241691.554   132645896.670                                  
  20667481.856   110363115.624                                  
  19273826.848   102740422.269                                  
  21925170.415   117326094.068                                  
  21897767.858   117014968.732                                  
  25778778.264                                                  
  24743013.052   130025410.611                                  
  24652452.250   131550172.063                                  
  20924556.825   109959198.500                                  
  22142008.120   116357008.192                                  
  22460220.170   118029257.191                                  
  19291011.580   103157751.509                                  
  24897759.244   130838627.254                                  
  24758103.895   130104713.882                                  
  21053636.155   110637630.685                                  
  20843511.731   109533407.635                                  
  21039586.954   112547575.935                                  
  22028525.550   115760704.943                                  
 16  8 27  8 48 42.0000000  0 18G12R13R14R17R15G 2G14R 6G31G25G26R24
                                G 5G20G 4G29R23G21
  25242344.890   132649327.863                                  
  20668108.388   110366459.382                                  
  19273658.663   102739524.742                                  
  21924588.416   117322979.397                                  
  21897141.569   117011619.791                                  
  25779425.423                                                  
  24743615.398   130028577.480                                  
  24652754.174   131551762.388                                  
  20924664.213   109959765.595                                  
  22142515.642   116359674.263                                  
  22459789.324   118026992.019                                  
  19291052.902   103157972.528                                  
  24897614.477   130837868.401                                  
  24757661.288   130102385.827                                  
  21053362.082   110636189.415                                  
  20843921.358   109535559.777                                  
  21040251.947   112551131.230                                  
  22028195.008   115758968.424                                  
 16  8 27  8 48 43.0000000  0 17G12R13R14R17R15G14R 6G31G25G26R24G 5
                                G20G 4G29R23G21
  25242997.702   132652759.196                                  
  20668735.165   110369803.780                                  
  19273490.478   102738628.030                                  
  21924006.800   117319865.269                                  
  21896515.141   117008271.232                                  
  24744217.815   130031744.496                                  
  24653049.955   131553353.551                                  
  20924772.090   109960333.387                                  
  22143022.885   116362340.698                                  
  22459358.199   118024727.089                                  
  19291094.224   103158194.322                                  
  24897470.059   130837110.166                                  
  24757218.960   130100057.973                                  
  21053088.113   110634748.533                                  
  20844330.810   109537712.318                                  
  21040916.591   112554686.956                                  
  22027864.920   115757232.410                                  
 16  8 27  8 48 44.0000000  0 17G12R13R14R17R15G14R 6G31G25G26R24G 5
                                G20G 4G29R23G21
  25243651.004   132656190.620                                  
  20669362.012   110373148.746                                  
  19273322.537   102737732.070                                  
  21923425.044   117316751.537                                  
  21895888.504   117004922.937                                  
  24744820.685   130034911.570                                  
  24653351.704   131554945.404                                  
  20924880.212   109960901.810                                  
  22143530.547   116365007.414                                  
  22458926.794   118022462.313                                  
  19291135.860   103158416.891                                  
  24897325.536   130836352.380                                  
  24756776.387   130097730.241                                  
  21052814.110   110633307.954                                  
  20844740.227   109539865.176                                  
  21041581.409   112558243.001                                  
  22027534.761   115755496.825                                  
 16  8 27  8 48 45.0000000  0 17G12R13R14R17R15G14R 6G31G25G26R24G 5
                                G20G 4G29R23G21
  25244303.781   132659622.038                                  
  20669988.684   110376494.196                                  
  19273154.806   102736836.711                                  
  21922843.429   117313638.123                                  
  21895261.902   117001574.845                                  
  24745423.241   130038078.659                                  
  24653647.171   131556537.947                                  
  20924988.438   109961470.787                                  
  22144038.139   116367674.315                                  
  22458495.844   118020197.647                                  
  19291177.706   103158640.006                                  
  24897181.258   130835595.080                                  
  24756333.675   130095402.566                                  
  21052540.072   110631867.599                                  
  20845150.167   109542018.284                                  
  21042246.193   112561799.280                                  
  22027204.778   115753761.606                                  
 16  8 27  8 48 46.0000000  0 17G12R13R14R17R15G14R 6G31G25G26R24G 5
                                G20G 4G29R23G21
  25244956.873   132663053.516                                  
  20670615.496   110379840.194                                  
  19272987.284   102735942.120                                  
  21922261.604   117310525.043                                  
  21894635.474   116998226.998                                  
  24746025.762   130041245.785                                  
  24653938.869   131558131.117                                  
  20925096.560   109962040.363                                  
  22144545.591   116370341.488                                  
  22458064.684   118017933.108                                  
  19291219.622   103158863.879                                  
  24897036.840   130834838.199                                  
  24755891.138   130093074.983                                  
  21052265.999   110630427.551                                  
  20845559.863   109544171.691                                  
  21042911.290   112565355.842                                  
  22026874.794   115752026.786                                  
 16  8 27  8 48 47.0000000  0 17G12R13R14R17R15G14R 6G31G25G26R24G 5
                                G20G 4G29R23G21
  25245610.174   132666485.031                                  
  20671242.692   110383186.757                                  
  19272819.796   102735048.184                                  
  21921679.778   117307412.304                                  
  21894008.941   116994879.374                                  
  24746628.562   130044412.949                                  
  24654241.700   131559725.054                                  
  20925205.310   109962610.533                                  
  22145053.148   116373008.905                                  
  22457633.524   118015668.705                                  
  19291261.816   103159088.398                                  
  24896892.771   130834081.792                                  
  24755448.426   130090747.493                                  
  21051991.995   110628987.762                                  
  20845969.629   109546325.379                                  
  21043576.144   112568912.712                                  
  22026544.636   115750292.357                                  
 16  8 27  8 48 48.0000000  0 17G12R13R14R17R15G14R 6G31G25G26R24G 5
                                G20G 4G29R23G21
  25246263.301   132669916.621                                  
  20671869.643   110386533.914                                  
  19272652.135   102734155.024                                  
  21921098.232   117304299.990                                  
  21893382.757   116991532.090                                  
  24747231.293   130047580.220                                  
  24654543.658   131561319.648                                  
  20925314.199   109963181.354                                  
  22145561.089   116375676.630                                  
  22457202.887   118013404.497                                  
  19291303.766   103159313.676                                  
  24896748.911   130833325.921                                  
  24755005.574   130088420.153                                  
  21051717.713   110627548.311                                  
  20846379.570   109548479.418                                  
  21044241.346   112572469.931                                  
  22026214.862   115748558.393                                  
 16  8 27  8 48 49.0000000  0 17G12R13R14R17R15G14R 6G31G25G26R24G 5
                                G20G 4G29R23G21
  25246916.568   132673348.410                                  
  20672496.874   110389881.691                                  
  19272485.031   102733262.676                                  
  21920516.861   117301188.184                                  
  21892756.364   116988185.130                                  
  24747834.407   130050747.604                                  
  24654838.148   131562915.151                                  
  20925422.704   109963752.878                                  
  22146068.681   116378344.698                                  
  22456772.146   118011140.534                                  
  19291346.031   103159539.763                                  
  24896605.645   130832570.642                                  
  24754562.827   130086093.011                                  
  21051443.849   110626109.244                                  
  20846789.266   109550633.862                                  
  21044906.444   112576027.570                                  
  22025885.541   115746824.927                                  
 16  8 27  8 48 50.0000000  0 17G12R13R14R17R15G14R 6G31G25G26R24G 5
                                G20G 4G29R23G21
  25247569.485   132676780.178                                  
  20673124.139   110393229.985                                  
  19272317.998   102732370.976                                  
  21919935.350   117298076.731                                  
  21892129.832   116984838.388                                  
  24748437.417   130053915.018                                  
  24655140.840   131564511.127                                  
  20925531.803   109964324.966                                  
  22146576.482   116381012.993                                  
  22456340.986   118008876.677                                  
  19291388.260   103159766.454                                  
  24896462.309   130831815.801                                  
  24754119.976   130083765.958                                  
  21051169.846   110624670.420                                  
  20847199.346   109552788.553                                  
  21045571.646   112579585.480                                  
  22025556.046   115745091.821                                  
 16  8 27  8 48 51.0000000  0 17G12R13R14R17R15G14R 6G31G25G26R24G 5
                                G20G 4G29R23G21
  25248222.472   132680212.101                                  
  20673751.649   110396578.959                                  
  19272151.139   102731480.128                                  
  21919353.839   117294965.735                                  
  21891503.788   116981491.968                                  
  24749040.636   130057082.571                                  
  24655437.843   131566107.980                                  
  20925641.076   109964897.754                                  
  22147084.353   116383681.640                                  
  22455910.385   118006613.047                                  
  19291430.664   103159993.988                                  
  24896318.833   130831061.474                                  
  24753676.880   130081439.096                                  
  21050896.052   110623231.981                                  
  20847609.531   109554943.652                                  
  21046237.023   112583143.825                                  
  22025226.377   115743359.227                                  
 16  8 27  8 48 52.0000000  0 17G12R13R14R17R15G14R 6G31G25G26R24G 5
                                G20G 4G29R23G21
  25248875.564   132683644.212                                  
  20674378.915   110399928.599                                  
  19271984.140   102730590.089                                  
  21918772.572   117291855.271                                  
  21890877.953   116978145.931                                  
  24749643.401   130060250.284                                  
  24655730.029   131567705.602                                  
  20925750.175   109965471.287                                  
  22147592.329   116386350.676                                  
  22455479.504   118004349.706                                  
  19291473.592   103160222.330                                  
  24896175.358   130830307.853                                  
  24753234.028   130079112.464                                  
  21050622.502   110621793.967                                  
  20848019.716   109557099.180                                  
  21046902.330   112586702.585                                  
  22024896.812   115741627.174                                  
 16  8 27  8 48 53.0000000  0 17G12R13R14R17R15G14R 6G31G25G26R24G 5
                                G20G 4G29R23G21
  25249528.586   132687076.570                                  
  20675006.250   110403278.970                                  
  19271817.142   102729700.970                                  
  21918191.270   117288745.355                                  
  21890252.153   116974800.406                                  
  24750246.237   130063418.256                                  
  24656031.185   131569304.166                                  
  20925859.518   109966045.624                                  
  22148100.340   116389020.169                                  
  22455048.693   118002086.718                                  
  19291516.485   103160451.606                                  
  24896031.847   130829554.898                                  
  24752791.386   130076786.152                                  
  21050348.988   110620356.449                                  
  20848430.145   109559255.222                                  
  21047567.672   112590261.839                                  
  22024567.317   115739895.748                                  
 16  8 27  8 48 54.0000000  0 17G12R13R14R17R15G14R 6G31G25G26R24G 5
                                G20G 4G29R23G21
  25250181.538   132690509.116                                  
  20675633.934   110406630.052                                  
  19271650.667   102728812.744                                  
  21917610.143   117285635.971                                  
  21889626.389   116971455.267                                  
  24750848.897   130066586.422                                  
  24656327.629   131570888.0331                                 
  20925969.280   109966620.715                                  
  22148608.211   116391690.075                                  
  22454618.056   117999824.018                                  
  19291559.238   103160681.725                                  
  24895888.371   130828802.572                                  
  24752349.058   130074460.095                                  
  21050075.682   110618919.384                                  
  20848840.434   109561411.706                                  
  21048232.734   112593821.523                                  
  22024237.717   115738164.865                                  
 16  8 27  8 48 55.0000000  0 18G12R13R14R17R15G14R 6G31G25G26G16R24
                                G 5G20G 4G29R23G21
  25250834.456   132693941.675                                  
  20676261.758   110409981.602                                  
  19271484.227   102727925.119                                  
  21917029.121   117282526.885                                  
  21889000.345   116968110.297                                  
  24751451.488   130069754.562                                  
  24656627.808   131572487.984                                  
  20926078.867   109967196.322                                  
  22149116.257   116394360.169                                  
  22454187.664   117997561.389                                  
  24587717.840                                                  
  19291602.270   103160912.488                                  
  24895744.861   130828050.638                                  
  24751906.415   130072134.027                                  
  21049802.691   110617482.512                                  
  20849250.794   109563568.415                                  
  21048897.867   112597381.434                                  
  22023908.536   115736434.323                                  
 16  8 27  8 48 56.0000000  0 19G12R13R14R17R15G23G14R 6G31G25G26G16
                                R24G 5G20G 4G29R23G21
  25251487.408   132697374.176                                  
  20676889.512   110413333.610                                  
  19271317.856   102727038.156                                  
  21916448.064   117279418.084                                  
  21888374.021   116964765.515                                  
  25634432.994                                                  
  24752054.184   130072922.657                                  
  24656929.906   131574088.6052                                 
  20926188.734   109967772.463                                  
  22149624.407   116397030.409                                  
  22453757.028   117995298.812                                  
  24587183.026   129206518.7323                                 
  19291645.756   103161143.787                                  
  24895602.013   130827299.109                                  
  24751463.948   130069808.016                                  
  21049529.142   110616045.831                                  
  20849661.188   109565725.319                                  
  21049563.348   112600941.551                                  
  22023579.251   115734704.089                                  
 16  8 27  8 48 57.0000000  0 19G12R13R14R17R15G23G14R 6G31G25G26G16
                                R24G 5G20G 4G29R23G21
  25252140.395   132700806.816                                  
  20677516.952   110416686.245                                  
  19271151.695   102726151.985                                  
  21915867.006   117276309.746                                  
  21887747.943   116961421.068                                  
  25634342.951                                                  
  24752656.914   130076090.873                                  
  24657228.095   131575690.0362                                 
  20926298.775   109968349.286                                  
  22150132.872   116399701.011                                  
  22453326.496   117993036.470                                  
  24586651.283   129203714.7402                                 
  19291689.137   103161375.872                                  
  24895459.026   130826548.183                                  
  24751021.480   130067482.202                                  
  21049255.976   110614609.548                                  
  20850071.896   109567882.621                                  
  21050228.516   112604502.065                                  
  22023250.279   115732974.350                                  
 16  8 27  8 48 58.0000000  0 19G12R13R14R17R15G23G14R 6G31G25G26G16
                                R24G 5G20G 4G29R23G21
  25252793.208   132704239.547                                  
  20678144.183   110420039.450                                  
  19270985.883   102725266.552                                  
  21915285.949   117273201.837                                  
  21887122.108   116958076.901                                  
  25634252.664                                                  
  24753260.168   130079259.170                                  
  24657528.204   131577292.2542                                 
  20926408.781   109968926.751                                  
  22150641.511   116402371.913                                  
  22452896.104   117990774.306                                  
  24586118.702   129200910.9422                                 
  19291732.763   103161608.732                                  
  24895316.179   130825797.740                                  
  24750578.663   130065156.512                                  
  21048982.775   110613173.577                                  
  20850482.395   109570040.255                                  
  21050894.032   112608062.959                                  
  22022921.308   115731245.072                                  
 16  8 27  8 48 59.0000000  0 19G12R13R14R17R15G23G14R 6G31G25G26G16
                                R24G 5G20G 4G29R23G21
  25253445.881   132707672.408                                  
  20678772.286   110423393.320                                  
  19270819.897   102724381.947                                  
  21914705.345   117270094.397                                  
  21886496.413   116954733.040                                  
  25634163.668                                                  
  24753863.039   130082427.580                                  
  24657828.836   131578895.2042                                 
  20926518.927   109969504.891                                  
  22151149.835   116405043.131                                  
  22452465.712   117988512.374                                  
  24585582.387   129198107.1622                                 
  19291776.353   103161842.335                                  
  24895173.820   130825047.869                                  
  24750135.881   130062831.029                                  
  21048709.749   110611737.952                                  
  20850892.789   109572198.266                                  
  21051559.514   112611624.242                                  
  22022592.266   115729516.268                                  
 16  8 27  8 49  0.0000000  0 19G12R13R14R17R15G23G14R 6G31G25G26G16
                                R24G 5G20G 4G29R23G21
  25254098.728   132711105.261                                  
  20679399.971   110426747.663                                  
  19270654.364   102723497.966                                  
  21914124.637   117266987.276                                  
  21885870.543   116951389.376                                  
  25634072.438                                                  
  24754466.327   130085595.979                                  
  24658128.666   131580498.7402                                 
  20926628.968   109970083.577                                  
  22151658.090   116407714.546                                  
  22452035.424   117986250.526                                  
  24585049.039   129195303.3352                                 
  19291820.049   103162076.600                                  
  24895031.531   130824298.408                                  
  24749693.379   130060505.603                                  
  21048436.514   110610302.594                                  
  20851303.428   109574356.526                                  
  21052224.751   112615185.791                                  
  22022263.400   115727787.832                                  
 16  8 27  8 49  1.0000000  0 19G12R13R14R17R15G 2G23G14R 6G31G25G26
                                R24G 5G20G 4G29R23G21
  25254751.436   132714538.338                                  
  20680027.550   110430102.739                                  
  19270488.657   102722614.865                                  
  21913544.068   117263880.704                                  
  21885244.918   116948046.143                                  
  25791743.322                                                  
  25633984.105                                                  
  24755069.198   130088764.589                                  
  24658429.089   131582103.1442                                 
  20926739.393   109970663.048                                  
  22152166.555   116410386.402                                  
  22451604.962   117983988.989                                  
  19291863.849   103162311.760                                  
  24894889.277   130823549.629                                  
  24749250.946   130058180.417                                  
  21048163.208   110608867.663                                  
  20851714.241   109576515.251                                  
  21052890.756   112618747.792                                  
  22021934.812   115726059.953                                  
 16  8 27  8 49  2.0000000  0 19G12R13R14R17R15G 2G23G14R 6G31G25G26
                                R24G 5G20G 4G29R23G21
  25255404.702   132717971.396                                  
  20680655.025   110433458.273                                  
  19270323.508   102721732.353                                  
  21912963.464   117260774.388                                  
  21884619.502   116944703.090                                  
  25792392.819                                                  
  25633891.654                                                  
  24755671.719   130091933.161                                  
  24658730.001   131583707.6611                                 
  20926850.097   109971243.027                                  
  22152674.845   116413058.416                                  
  22451174.814   117981727.519                                  
  19291907.684   103162547.470                                  
  24894746.604   130822801.199                                  
  24748808.443   130055855.281                                  
  21047890.217   110607432.959                                  
  20852125.124   109578674.187                                  
  21053556.551   112622309.986                                  
  22021606.120   115724332.423                                  
 16  8 27  8 49  3.0000000  0 20G12R13R14R17R15G 2G23G14R 6G31G25G26
                                G16R24G 5G20G 4G29R23G21
  25256057.550   132721404.803                                  
  20681283.268   110436814.671                                  
  19270157.940   102720850.895                                  
  21912382.861   117257668.743                                  
  21883994.156   116941360.607                                  
  25793040.327                                                  
  25633800.145                                                  
  24756274.310   130095102.095                                  
  24659030.493   131585313.704                                  
  20926960.522   109971823.917                                  
  22153183.100   116415730.990                                  
  22450744.946   117979466.488                                  
  24583445.887   129186879.4443                                 
  19291951.588   103162784.200                                  
  24894604.245   130822053.598                                  
  24748365.941   130053530.544                                  
  21047617.331   110605998.837                                  
  20852535.832   109580833.715                                  
  21054222.382   112625872.796                                  
  22021277.532   115722605.594                                  
 16  8 27  8 49  4.0000000  0 20G12R13R14R17R15G 2G23G14R 6G31G25G26
                                G16R24G 5G20G 4G29R23G21
  25256710.712   132724838.361                                  
  20681911.511   110440171.763                                  
  19269992.338   102719970.234                                  
  21911802.641   117254563.607                                  
  21883368.496   116938018.488                                  
  25793689.126                                                  
  25633707.659                                                  
  24756877.354   130098271.191                                  
  24659331.126   131586920.422                                  
  20927071.052   109972405.524                                  
  22153692.262   116418403.942                                  
  22450314.903   117977205.716                                  
  24582912.050   129184076.0662                                 
  19291996.051   103163021.744                                  
  24894462.130   130821306.565                                  
  24747923.578   130051205.992                                  
  21047344.165   110604565.118                                  
  20852947.204   109582993.673                                  
  21054888.457   112629436.015                                  
  22020949.154   115720879.294                                  
 16  8 27  8 49  5.0000000  0 19G12R13R14R17R15G23G14R 6G31G25G26G16
                                R24G 5G20G 4G29R23G21
  25257363.873   132728271.906                                  
  20682539.544   110443529.281                                  
  19269827.119   102719090.250                                  
  21911222.666   117251458.806                                  
  21882743.011   116934676.577                                  
  25633611.927                                                  
  24757480.364   130101440.276                                  
  24659631.967   131588527.880                                  
  20927182.140   109972987.679                                  
  22154200.866   116421077.095                                  
  22449884.999   117974945.042                                  
  24582376.294   129181272.6612                                 
  19292040.166   103163259.936                                  
  24894319.911   130820559.961                                  
  24747480.935   130048881.534                                  
  21047071.313   110603131.629                                  
  20853357.947   109585153.866                                  
  21055554.601   112632999.485                                  
  22020620.497   115719153.328                                  
 16  8 27  8 49  6.0000000  0 18G12R13R14R17R15G23G14R 6G31G25G26R24
                                G 5G20G 4G29R23G21
  25258017.209   132731705.681                                  
  20683167.787   110446887.530                                  
  19269662.319   102718211.140                                  
  21910642.586   117248354.554                                  
  21882117.385   116931335.074                                  
  25633515.637                                                  
  24758083.653   130104609.506                                  
  24659932.181   131590136.101                                  
  20927293.403   109973570.579                                  
  22154709.575   116423750.627                                  
  22449454.851   117972684.655                                  
  19292084.803   103163498.942                                  
  24894177.866   130819813.984                                  
  24747038.817   130046557.288                                  
  21046798.462   110601698.578                                  
  20853769.074   109587314.500                                  
  21056220.676   112636563.390                                  
  22020292.118   115717427.924                                  
 16  8 27  8 49  7.0000000  0 18G12R13R14R17R15G23G14R 6G31G25G26R24
                                G 5G20G 4G29R23G21
  25258670.092   132735139.352                                  
  20683796.797   110450246.176                                  
  19269497.310   102717332.587                                  
  21910062.785   117245250.508                                  
  21881491.690   116927993.674                                  
  25633420.254                                                  
  24758686.209   130107778.668                                  
  24660233.058   131591744.985                                  
  20927404.526   109974153.945                                  
  22155218.528   116426424.302                                  
  22449025.017   117970424.267                                  
  19292129.476   103163738.526                                  
  24894035.961   130819068.331                                  
  24746596.593   130044233.048                                  
  21046525.436   110600265.672                                  
  20854180.062   109589475.299                                  
  21056887.030   112640127.505                                  
  22019963.845   115715702.797                                  
 16  8 27  8 49  8.0000000  0 18G12R13R14R17R15G23G14R 6G31G25G26R24
                                G 5G20G 4G29R23G21
  25259323.219   132738573.114                                  
  20684425.773   110453605.437                                  
  19269332.789   102716454.797                                  
  21909482.984   117242146.873                                  
  21880866.589   116924652.582                                  
  25633325.708                                                  
  24759288.800   130110947.944                                  
  24660535.714   131593354.385                                  
  20927515.858   109974737.969                                  
  22155727.516   116429098.272                                  
  22448595.044   117968164.085                                  
  19292174.393   103163978.859                                  
  24893894.335   130818323.251                                  
  24746154.440   130041908.965                                  
  21046252.968   110598833.111                                  
  20854590.875   109591636.438                                  
  21057553.594   112643691.977                                  
  22019635.641   115713978.124                                  
 16  8 27  8 49  9.0000000  0 18G12R13R14R17R15G23G14R 6G31G25G26R24
                                G 5G20G 4G29R23G21
  25259976.415   132742007.163                                  
  20685054.853   110456965.456                                  
  19269168.269   102715577.952                                  
  21908903.113   117239043.845                                  
  21880241.731   116921311.959                                  
  25633231.547                                                  
  24759891.600   130114117.457                                  
  24660840.919   131594964.917                                  
  20927627.121   109975322.808                                  
  22156236.330   116431772.700                                  
  22448165.385   117965904.254                                  
  19292219.554   103164220.074                                  
  24893753.302   130817578.855                                  
  24745712.565   130039585.161                                  
  21045980.570   110597401.047                                  
  20855002.071   109593798.102                                  
  21058220.297   112647256.965                                  
  22019307.298   115712254.076                                  
 16  8 27  8 49 10.0000000  0 18G12R13R14R17R15G23G14R 6G31G25G26R24
                                G 5G20G 4G29R23G21
  25260629.682   132745441.309                                  
  20685684.317   110460326.076                                  
  19269003.957   102714701.912                                  
  21908323.172   117235941.248                                  
  21879616.525   116917971.621                                  
  25633139.131                                                  
  24760494.540   130117287.091                                  
  24661141.795   131596576.149                                  
  20927738.523   109975908.314                                  
  22156745.422   116434447.473                                  
  22447735.725   117963644.643                                  
  19292264.890   103164462.043                                  
  24893612.060   130816835.002                                  
  24745270.691   130037261.582                                  
  21045708.381   110595969.351                                  
  20855413.617   109595960.127                                  
  21058886.790   112650822.297                                  
  22018979.408   115710530.496                                  
 16  8 27  8 49 11.0000000  0 17G12R13R14R17R15G14R 6G31G25G26R24G 5
                                G20G 4G29R23G21
  25261282.983   132748875.635                                  
  20686313.886   110463687.396                                  
  19268839.890   102713826.683                                  
  21907743.267   117232839.158                                  
  21878991.458   116914631.671                                  
  24761097.689   130120456.849                                  
  24661446.057   131598188.188                                  
  20927849.785   109976494.555                                  
  22157253.991   116437122.618                                  
  22447305.647   117961385.295                                  
  19292310.539   103164704.874                                  
  24893470.853   130816091.807                                  
  24744828.293   130034938.211                                  
  21045436.158   110594538.064                                  
  20855825.303   109598122.584                                  
  21059553.528   112654388.090                                  
  22018651.414   115708807.462                                  
 16  8 27  8 49 12.0000000  0 18G12R13R14R17R15G23G14R 6G31G25G26R24
                                G 5G20G 4G29R23G21
  25261936.214   132752310.093                                  
  20686943.525   110467049.340                                  
  19268675.719   102712952.240                                  
  21907163.466   117229737.518                                  
  21878366.426   116911292.073                                  
  25632956.357                                                  
  24761700.978   130123626.779                                  
  24661748.051   131599801.003                                  
  20927961.781   109977081.480                                  
  22157762.630   116439798.109                                  
  22446875.953   117959126.179                                  
  19292356.049   103164948.433                                  
  24893329.471   130815349.123                                  
  24744385.895   130032615.008                                  
  21045164.249   110593107.161                                  
  20856237.023   109600285.416                                  
  21060220.441   112657954.247                                  
  22018323.769   115707084.925                                  
 16  8 27  8 49 13.0000000  0 18G12R13R14R17R15G23G14R 6G31G25G26R24
                                G 5G20G 4G29R23G21
  25262589.516   132755744.781                                  
  20687573.199   110470412.025                                  
  19268511.722   102712078.750                                  
  21906583.944   117226636.441                                  
  21877741.639   116907952.940                                  
  25632865.476                                                  
  24762304.232   130126796.948                                  
  24662050.219   131601414.679                                  
  20928073.707   109977669.198                                  
  22158271.514   116442474.046                                  
  22446446.154   117956867.402                                  
  19292401.978   103165192.893                                  
  24893188.404   130814607.112                                  
  24743943.707   130030292.143                                  
  21044892.584   110591676.722                                  
  20856648.883   109602448.731                                  
  21060887.248   112661520.917                                  
  22017996.577   115705362.986                                  
 16  8 27  8 49 14.0000000  0 18G12R13R14R17R15G23G14R 6G31G25G26R24
                                G 5G20G 4G29R23G21
  25263242.817   132759179.502                                  
  20688203.466   110473775.225                                  
  19268347.864   102711205.917                                  
  21906004.422   117223535.719                                  
  21877116.886   116904614.033                                  
  25632774.177                                                  
  24762907.521   130129967.102                                  
  24662354.201   131603047.5481                                 
  20928185.423   109978257.488                                  
  22158780.711   116445150.206                                  
  22446016.495   117954608.736                                  
  19292447.698   103165438.047                                  
  24893047.197   130813865.571                                  
  24743501.693   130027969.324                                  
  21044620.291   110590246.539                                  
  20857060.778   109604612.320                                  
  21061554.370   112665087.818                                  
  22017669.316   115703641.405                                  
 16  8 27  8 49 15.0000000  0 18G12R13R14R17R15G23G14R 6G31G25G26R24
                                G 5G20G 4G29R23G21
  25263895.804   132762614.209                                  
  20688833.942   110477138.894                                  
  19268184.076   102710333.745                                  
  21905424.691   117220435.325                                  
  21876491.959   116901275.305                                  
  25632680.574                                                  
  24763510.950   130133137.247                                  
  24662658.289   131604662.487                                  
  20928297.628   109978846.321                                  
  22159289.594   116447826.549                                  
  22445586.941   117952350.159                                  
  19292493.802   103165683.784                                  
  24892905.920   130813124.443                                  
  24743059.260   130025646.558                                  
  21044348.067   110588816.585                                  
  20857472.883   109606776.137                                  
  21062221.422   112668654.966                                  
  22017342.124   115701920.188                                  
 16  8 27  8 49 16.0000000  0 18G12R13R14R17R15G23G14R 6G31G25G26R24
                                G 5G20G 4G29R23G21
  25264548.826   132766049.035                                  
  20689464.593   110480503.173                                  
  19268020.393   102709462.327                                  
  21904845.135   117217335.365                                  
  21875867.171   116897936.931                                  
  25632588.157                                                  
  24764114.343   130136307.517                                  
  24662962.237   131606278.3152                                 
  20928409.728   109979435.836                                  
  22159799.001   116450503.227                                  
  22445157.526   117950091.798                                  
  19292540.010   103165930.369                                  
  24892764.678   130812383.895                                  
  24742617.316   130023323.994                                  
  21044075.879   110587387.008                                  
  20857885.022   109608940.329                                  
  21062888.335   112672222.472                                  
  22017014.933   115700199.456                                  
 16  8 27  8 49 17.0000000  0 18G12R13R14R17R15G23G14R 6G31G25G26R24
                                G 5G20G 4G29R23G21
  25265202.127   132769483.983                                  
  20690095.279   110483868.120                                  
  19267856.954   102708591.730                                  
  21904265.473   117214235.888                                  
  21875242.174   116894598.872                                  
  25632497.032                                                  
  24764717.458   130139477.925                                  
  24663267.197   131607894.8302                                 
  20928521.863   109980026.031                                  
  22160308.163   116453180.243                                  
  22444727.831   117947833.666                                  
  19292586.637   103166177.643                                  
  24892623.924   130811643.903                                  
  24742175.022   130021001.594                                  
  21043804.004   110585957.781                                  
  20858297.196   109611104.897                                  
  21063555.526   112675790.387                                  
  22016687.776   115698479.206                                  
 16  8 27  8 49 18.0000000  0 18G12R13R14R17R15G23G14R 6G31G25G26R24
                                G 5G20G 4G29R23G21
  25265855.254   132772919.085                                  
  20690726.034   110487233.689                                  
  19267694.039   102707721.900                                  
  21903686.231   117211136.835                                  
  21874617.596   116891261.134                                  
  25632406.431                                                  
  24765320.782   130142648.381                                  
  24663570.342   131609512.1482                                 
  20928634.208   109980616.883                                  
  22160817.745   116455857.576                                  
  22444298.207   117945575.734                                  
  19292633.229   103166425.722                                  
  24892482.892   130810904.434                                  
  24741733.078   130018679.357                                  
  21043531.921   110584528.914                                  
  20858709.649   109613269.821                                  
  21064222.788   112679358.688                                  
  22016360.270   115696759.430                                  
 16  8 27  8 49 19.0000000  0 18G12R13R14R17R15G23G14R 6G31G25G26R24
                                G 5G20G 4G29R23G21
  25266508.381   132776354.210                                  
  20691356.999   110490599.766                                  
  19267530.949   102706852.838                                  
  21903106.918   117208038.190                                  
  21873992.390   116887923.645                                  
  25632315.166                                                  
  24765924.420   130145818.920                                  
  24663872.894   131611130.0582                                 
  20928746.587   109981208.364                                  
  22161327.396   116458535.186                                  
  22443868.443   117943317.956                                  
  19292679.681   103166674.486                                  
  24892341.859   130810165.451                                  
  24741290.994   130016357.216                                  
  21043260.081   110583100.338                                  
  20859121.509   109615435.065                                  
  21064890.084   112682927.315                                  
  22016033.114   115695040.072                                  
 16  8 27  8 49 20.0000000  0 18G12R13R14R17R15G23G14R 6G31G25G26R24
                                G 5G20G 4G29R23G21
  25267161.717   132779789.470                                  
  20691987.929   110493966.493                                  
  19267367.999   102705984.527                                  
  21902527.955   117204939.989                                  
  21873368.021   116884586.510                                  
  25632224.181                                                  
  24766527.988   130148989.618                                  
  24664175.795   131612748.6952                                 
  20928859.350   109981800.511                                  
  22161837.012   116461213.118                                  
  22443438.749   117941060.418                                  
  19292726.378   103166923.998                                  
  24892200.931   130809427.039                                  
  24740848.771   130014035.305                                  
  21042988.102   110581672.131                                  
  20859533.893   109617600.671                                  
  21065557.659   112686496.303                                  
  22015705.922   115693321.240                                  
 16  8 27  8 49 21.0000000  0 18G12R13R14R17R15G23G14R 6G31G25G26R24
                                G 5G20G 4G29R23G21
  25267815.193   132783224.771                                  
  20692619.243   110497333.719                                  
  19267205.294   102705116.971                                  
  21901948.782   117201842.138                                  
  21872743.687   116881249.597                                  
  25632132.113                                                  
  24767131.556   130152160.280                                  
  24664477.300   131614368.0452                                 
  20928972.393   109982393.242                                  
  22162347.012   116463891.288                                  
  22443009.125   117938802.976                                  
  19292773.633   103167174.200                                  
  24892059.933   130808689.120                                  
  24740406.478   130011713.442                                  
  21042716.577   110580244.186                                  
  20859946.451   109619766.554                                  
  21066225.130   112690065.552                                  
  22015378.591   115691602.741                                  
 16  8 27  8 49 22.0000000  0 18G12R13R14R17R15G23G14R 6G31G25G26R24
                                G 5G20G 4G29R23G21
  25268468.773   132786660.092                                  
  20693250.104   110500701.440                                  
  19267042.657   102704250.040                                  
  21901369.714   117198744.624                                  
  21872118.864   116877912.923                                  
  25632040.814                                                  
  24767734.880   130155330.991                                  
  24664778.351   131615987.6041                                 
  20929085.156   109982986.546                                  
  22162856.942   116466569.683                                  
  22442579.605   117936545.665                                  
  19292820.574   103167425.082                                  
  24891919.075   130807951.633                                  
  24739964.219   130009391.701                                  
  21042444.318   110578816.499                                  
  20860359.184   109621932.707                                  
  21066892.357   112693635.072                                  
  22015051.783   115689884.620                                  
 16  8 27  8 49 23.0000000  0 18G12R13R14R17R15G23G14R 6G31G25G26R24
                                G 5G20G 4G29R23G21
  25269122.668   132790095.499                                  
  20693881.732   110504069.791                                  
  19266880.091   102703383.874                                  
  21900790.786   117195647.474                                  
  21871494.077   116874576.559                                  
  25631953.249                                                  
  24768338.413   130158501.767                                  
  24665081.915   131617608.397                                  
  20929198.164   109983580.506                                  
  22163366.872   116469248.366                                  
  22442150.050   117934288.559                                  
  19292867.864   103167676.670                                  
  24891778.217   130807214.658                                  
  24739522.310   130007070.094                                  
  21042172.618   110577389.175                                  
  20860771.951   109624099.215                                  
  21067559.618   112697204.917                                  
  22014724.941   115688166.966                                  
 16  8 27  8 49 24.0000000  0 18G12R13R14R17R15G23G14R 6G31G25G26R24
                                G 5G20G 4G29R23G21
  25269776.283   132793530.952                                  
  20694512.801   110507438.680                                  
  19266717.839   102702518.493                                  
  21900212.416   117192550.752                                  
  21870869.848   116871240.435                                  
  25631862.054                                                  
  24768942.330   130161672.598                                  
  24665385.898   131619229.848                                  
  20929311.206   109984175.079                                  
  22163876.768   116471927.325                                  
  22441720.740   117932031.596                                  
  19292914.910   103167928.963                                  
  24891637.114   130806478.274                                  
  24739080.156   130004748.590                                  
  21041900.849   110575962.142                                  
  20861184.335   109626266.030                                  
  21068226.810   112700775.074                                  
  22014398.063   115686449.731                                  
 16  8 27  8 49 25.0000000  0 18G12R13R14R17R15G23G14R 6G31G25G26R24
                                G 5G20G 4G29R23G21
  25270430.178   132796966.543                                  
  20695144.080   110510808.201                                  
  19266555.587   102701653.828                                  
  21899633.732   117189454.481                                  
  21870245.269   116867904.644                                  
  25631770.091                                                  
  24769546.212   130164843.530                                  
  24665690.334   131620852.119                                  
  20929424.423   109984770.318                                  
  22164386.524   116474606.622                                  
  22441291.151   117929774.844                                  
  19292962.305   103168182.012                                  
  24891496.012   130805742.289                                  
  24738638.317   130002427.285                                  
  21041629.358   110574535.461                                  
  20861596.683   109628433.206                                  
  21068894.281   112704345.611                                  
  22014071.360   115684732.968                                  
 16  8 27  8 49 26.0000000  0 18G12R13R14R17R15G23G14R 6G31G25G26R24
                                G 5G20G 4G29R23G21
  25271084.142   132800402.283                                  
  20695775.883   110514178.353                                  
  19266393.405   102700790.021                                  
  21899055.257   117186358.701                                  
  21869621.040   116864569.231                                  
  25631678.094                                                  
  24770149.850   130168014.669                                  
  24665993.235   131622475.204                                  
  20929538.024   109985366.280                                  
  22164896.942   116477286.267                                  
  22440861.771   117927518.357                                  
  19293009.665   103168435.882                                  
  24891355.573   130805007.018                                  
  24738196.512   130000106.199                                  
  21041357.484   110573109.186                                  
  20862008.788   109630600.793                                  
  21069561.752   112707916.599                                  
  22013745.111   115683016.729                                  
 16  8 27  8 49 27.0000000  0 18G12R13R14R17R15G23G14R 6G31G25G26R24
                                G 5G20G 4G29R23G21
  25271738.071   132803838.004                                  
  20696407.616   110517549.031                                  
  19266231.327   102699926.807                                  
  21898476.922   117183263.288                                  
  21868997.055   116861233.985                                  
  25631586.096                                                  
  24770753.314   130171185.698                                  
  24666299.312   131624098.891                                  
  20929651.730   109985962.768                                  
  22165407.012   116479966.100                                  
  22440432.321   117925261.938                                  
  19293057.269   103168690.319                                  
  24891213.074   130804272.156                                  
  24737754.882   129997785.114                                  
  21041086.098   110571683.121                                  
  20862421.485   109632768.608                                  
  21070229.606   112711487.817                                  
  22013418.198   115681300.827                                  
 16  8 27  8 49 28.0000000  0 18G12R13R14R17R15G23G14R 6G31G25G26R24
                                G 5G20G 4G29R23G21
  25272392.315   132807273.815                                  
  20697039.418   110520920.245                                  
  19266069.529   102699064.360                                  
  21897898.657   117180168.260                                  
  21868373.140   116857899.041                                  
  25631491.935                                                  
  24771356.777   130174356.842                                  
  24666602.876   131625723.236                                  
  20929765.366   109986559.897                                  
  22165917.187   116482646.213                                  
  22440003.185   117923005.687                                  
  19293105.013   103168945.486                                  
  24891069.075   130803537.732                                  
  24737313.182   129995464.201                                  
  21040814.887   110570257.379                                  
  20862834.113   109634936.742                                  
  21070897.321   112715059.349                                  
  22013091.426   115679585.360                                  
 16  8 27  8 49 29.0000000  0 18G12R13R14R17R15G23G14R 6G31G25G26R24
                                G 5G20G 4G29R23G21
  25273046.314   132810709.743                                  
  20697671.605   110524292.079                                  
  19265907.975   102698202.673                                  
  21897320.391   117177073.653                                  
  21867749.120   116854564.395                                  
  25631394.981                                                  
  24771960.450   130177528.048                                  
  24666905.358   131627348.331                                  
  20929878.932   109987157.662                                  
  22166427.327   116485326.647                                  
  22439573.840   117920749.647                                  
  19293152.826   103169201.459                                  
  24890932.161   130802803.894                                  
  24736871.657   129993143.430                                  
  21040544.024   110568831.987                                  
  20863246.462   109637105.232                                  
  21071565.002   112718631.202                                  
  22012764.478   115677870.365                                  
 16  8 27  8 49 30.0000000  0 18G12R13R14R17R15G23G14R 6G31G25G26R24
                                G 5G20G 4G29R23G21
  25273700.139   132814145.804                                  
  20698303.233   110527664.530                                  
  19265746.525   102697341.780                                  
  21896741.917   117173979.501                                  
  21867125.310   116851230.129                                  
  25631302.670                                                  
  24772563.774   130180699.407                                  
  24667210.702   131628974.217                                  
  20929992.602   109987756.145                                  
  22166937.641   116488007.412                                  
  22439144.669   117918493.838                                  
  19293200.884   103169458.213                                  
  24890787.254   130802070.559                                  
  24736429.817   129990822.871                                  
  21040272.953   110567406.965                                  
  20863659.090   109639274.105                                  
  21072232.821   112722203.430                                  
  22012437.985   115676155.875                                  
 16  8 27  8 49 31.0000000  0 18G12R13R14R17R15G23G14R 6G31G25G26R24
                                G 5G20G 4G29R23G21
  25274354.313   132817581.956                                  
  20698935.036   110531037.609                                  
  19265585.180   102696481.675                                  
  21896163.547   117170885.747                                  
  21866501.814   116847896.175                                  
  25631210.114                                                  
  24773167.098   130183870.863                                  
  24667518.698   131630600.842                                  
  20930106.378   109988355.286                                  
  22167448.094   116490688.505                                  
  22438715.638   117916238.242                                  
  19293249.152   103169715.724                                  
  24890650.898   130801337.904                                  
  24735988.048   129988502.502                                  
  21040001.532   110565982.284                                  
  20864071.997   109641443.336                                  
  21072900.641   112725776.009                                  
  22012111.456   115674441.848                                  
 16  8 27  8 49 32.0000000  0 18G12R13R14R17R15G23G14R 6G31G25G26R24
                                G 5G20G 4G29R23G21
  25275008.591   132821018.240                                  
  20699566.838   110534411.330                                  
  19265423.696   102695622.340                                  
  21895585.281   117167792.495                                  
  21865878.352   116844562.561                                  
  25631118.256                                                  
  24773770.980   130187042.459                                  
  24667823.100   131632228.211                                  
  20930220.781   109988955.092                                  
  22167958.234   116493369.928                                  
  22438286.467   117913982.859                                  
  19293297.559   103169973.996                                  
  24890514.647   130800605.681                                  
  24735546.592   129986182.281                                  
  21039730.530   110564557.971                                  
  20864484.869   109643612.921                                  
  21073568.566   112729348.972                                  
  22011785.486   115672728.305                                  
 16  8 27  8 49 33.0000000  0 18G12R13R14R17R15G23G14R 6G31G25G26R24
                                G 5G20G 4G29R23G21
  25275662.870   132824454.546                                  
  20700199.025   110537785.529                                  
  19265262.700   102694763.719                                  
  21895007.190   117164699.592                                  
  21865254.717   116841229.143                                  
  25631030.551   134691974.5732                                 
  24774374.792   130190214.029                                  
  24668129.351   131633856.190                                  
  20930335.010   109989555.481                                  
  22168468.513   116496051.570                                  
  22437857.052   117911727.594                                  
  19293345.896   103170232.911                                  
  24890370.403   130799873.966                                  
  24735105.067   129983862.143                                  
  21039459.563   110563133.912                                  
  20864897.741   109645782.778                                  
  21074236.525   112732922.187                                  
  22011459.377   115671015.130                                  
 16  8 27  8 49 34.0000000  0 18G12R13R14R17R15G23G14R 6G31G25G26R24
                                G 5G20G 4G29R23G21
  25276317.148   132827890.866                                  
  20700831.421   110541160.248                                  
  19265101.635   102693905.750                                  
  21894429.449   117161607.046                                  
  21864630.976   116837895.959                                  
  25630940.019   134691497.9202                                 
  24774978.535   130193385.595                                  
  24668436.684   131635484.877                                  
  20930449.309   109990156.427                                  
  22168979.037   116498733.434                                  
  22437427.987   117909472.434                                  
  19293394.512   103170492.523                                  
  24890235.687   130799142.665                                  
  24734663.297   129981542.078                                  
  21039188.596   110561710.102                                  
  20865310.788   109647952.895                                  
  21074904.450   112736495.756                                  
  22011133.197   115669302.334                                  
 16  8 27  8 49 35.0000000  0 18G12R13R14R17R15G23G14R 6G31G25G26R24
                                G 5G20G 4G29R23G21
  25276971.566   132831327.353                                  
  20701463.607   110544535.677                                  
  19264940.674   102693048.660                                  
  21893851.916   117158514.966                                  
  21864007.375   116834563.148                                  
  25630847.254   134691021.8902                                 
  24775582.487   130196557.350                                  
  24668743.389   131637114.365                                  
  20930563.783   109990758.111                                  
  22169489.700   116501415.668                                  
  22436998.711   117907217.543                                  
  19293443.442   103170752.919                                  
  24890097.901   130798411.984                                  
  24734221.771   129979222.233                                  
  21038917.734   110560286.713                                  
  20865723.764   109650123.445                                  
  21075572.444   112740069.729                                  
  22010807.157   115667590.086                                  
 16  8 27  8 49 36.0000000  0 18G12R13R14R17R15G23G14R 6G31G25G26R24
                                G 5G20G 4G29R23G21
  25277625.600   132834763.800                                  
  20702095.933   110547911.513                                  
  19264779.958   102692192.156                                  
  21893273.895   117155423.142                                  
  21863383.460   116831230.496                                  
  25630754.872   134690546.1942                                 
  24776186.299   130199729.060                                  
  24669048.803   131638744.384                                  
  20930678.256   109991360.298                                  
  22170000.398   116504098.078                                  
  22436569.959   117904962.701                                  
  19293492.477   103171013.913                                  
  24889959.765   130797681.766                                  
  24733779.618   129976902.425                                  
  21038647.011   110558863.512                                  
  20866136.811   109652294.190                                  
  21076240.508   112743643.925                                  
  22010481.222   115665878.143                                  
 16  8 27  8 49 37.0000000  0 18G12R13R14R17R15G23G14R 6G31G25G26R24
                                G 5G20G 4G29R23G21
  25278280.053   132838200.415                                  
  20702728.538   110551288.043                                  
  19264619.485   102691336.489                                  
  21892696.188   117152331.829                                  
  21862759.859   116827898.226                                  
  25630665.109   134690071.2602                                 
  24776789.833   130202900.904                                  
  24669349.435   131640375.255                                  
  20930793.253   109991963.189                                  
  22170510.782   116506780.837                                  
  22436140.579   117902708.116                                  
  19293541.617   103171275.667                                  
  24889822.431   130796952.046                                  
  24733337.988   129974582.807                                  
  21038376.323   110557440.704                                  
  20866549.823   109654465.330                                  
  21076908.921   112747218.500                                  
  22010155.392   115664166.702                                  
 16  8 27  8 49 38.0000000  0 18G12R13R14R17R15G23G14R 6G31G25G26R24
                                G 5G20G 4G29R23G21
  25278934.157   132841637.017                                  
  20703360.864   110554665.074                                  
  19264459.502   102690481.509                                  
  21892118.446   117149240.857                                  
  21862136.432   116824566.173                                  
  25630571.994   134689596.7312                                 
  24777393.540   130206072.744                                  
  24669656.629   131642006.817                                  
  20930908.111   109992566.651                                  
  22171021.201   116509463.815                                  
  22435711.583   117900453.641                                  
  19293590.792   103171538.095                                  
  24889682.027   130796222.742                                  
  24732896.253   129972263.288                                  
  21038105.217   110556018.158                                  
  20866962.800   109656636.738                                  
  21077577.474   112750793.269                                  
  22009829.910   115662455.660                                  
 16  8 27  8 49 39.0000000  0 18G12R13R14R17R15G23G14R 6G31G25G26R24
                                G 5G20G 4G29R23G21
  25279588.680   132845073.667                                  
  20703993.225   110558042.610                                  
  19264299.134   102689627.234                                  
  21891540.774   117146150.263                                  
  21861513.041   116821234.348                                  
  25630482.160   134689122.8002                                 
  24777997.423   130209244.614                                  
  24669962.880   131643639.024                                  
  20931022.898   109993170.706                                  
  22171532.213   116512147.050                                  
  22435282.517   117898199.301                                  
  19293640.071   103171801.193                                  
  24889546.404   130795493.987                                  
  24732454.728   129969943.873                                  
  21037834.285   110554595.876                                  
  20867376.021   109658808.430                                  
  21078245.573   112754368.338                                  
  22009504.429   115660745.005                                  
 16  8 27  8 49 40.0000000  0 18G12R13R14R17R15G23G14R 6G31G25G26R24
                                G 5G20G 4G29R23G21
  25280243.273   132848510.548                                  
  20704625.796   110561420.867                                  
  19264138.941   102688773.856                                  
  21890963.591   117143060.221                                  
  21860889.440   116817902.960                                  
  25630389.988   134688649.4382                                 
  24778601.200   130212416.687                                  
  24670268.957   131645272.140                                  
  20931138.104   109993775.525                                  
  22172043.086   116514830.689                                  
  22434853.556   117895945.275                                  
  19293689.525   103172065.137                                  
  24889407.675   130794765.891                                  
  24732013.411   129967624.742                                  
  21037563.806   110553174.073                                  
  20867789.137   109660980.581                                  
  21078913.951   112757943.872                                  
  22009179.087   115659034.935                                  
 16  8 27  8 49 41.0000000  0 18G12R13R14R17R15G23G14R 6G31G25G26R24
                                G 5G20G 4G29R23G21
  25280897.760   132851947.543                                  
  20705258.611   110564799.766                                  
  19263978.993   102687921.271                                  
  21890386.408   117139970.599                                  
  21860265.944   116814571.916                                  
  25630301.586   134688176.7332                                 
  24779205.222   130215588.881                                  
  24670573.847   131646905.908                                  
  20931253.171   109994381.034                                  
  22172553.505   116517514.671                                  
  22434424.909   117893691.480                                  
  19293739.014   103172329.879                                  
  24889269.574   130794038.359                                  
  24731572.305   129965305.780                                  
  21037293.363   110551752.620                                  
  20868202.324   109663153.122                                  
  21079582.399   112761519.800                                  
  22008853.501   115657325.363                                  
 16  8 27  8 49 42.0000000  0 18G12R13R14R17R15G23G14R 6G31G25G26R24
                                G 5G20G 4G29R23G21
  25281552.144   132855384.687                                  
  20705891.076   110568179.274                                  
  19263819.114   102687069.509                                  
  21889809.050   117136832.4743                                 
  21859642.796   116811241.204                                  
  25630213.741   134687704.7012                                 
  24779808.860   130218761.181                                  
  24670879.959   131648540.505                                  
  20931368.447   109994987.228                                  
  22173064.238   116520198.990                                  
  22433995.982   117891437.907                                  
  19293788.852   103172595.418                                  
  24889126.621   130793311.368                                  
  24731130.989   129962986.998                                  
  21037022.745   110550331.539                                  
  20868615.545   109665326.024                                  
  21080250.708   112765096.103                                  
  22008528.438   115655616.264                                  
 16  8 27  8 49 43.0000000  0 18G12R13R14R17R15G23G14R 6G31G25G26R24
                                G 5G20G 4G29R23G21
  25282206.422   132858821.815                                  
  20706524.031   110571559.290                                  
  19263659.549   102686218.379                                  
  21889231.866   117133743.6442                                 
  21859019.649   116807910.691                                  
  25630124.012   134687232.5111                                 
  24780412.812   130221933.514                                  
  24671189.247   131650175.801                                  
  20931483.723   109995593.968                                  
  22173575.075   116522883.498                                  
  22433567.056   117889184.424                                  
  19293838.515   103172861.640                                  
  24888987.822   130792584.812                                  
  24730689.219   129960668.316                                  
  21036752.406   110548910.703                                  
  20869029.010   109667499.183                                  
  21080919.296   112768672.688                                  
  22008203.445   115653907.525                                  
 16  8 27  8 49 44.0000000  0 18G12R13R14R17R15G23G14R 6G31G25G26R24
                                G 5G20G 4G29R23G21
  25282860.770   132862259.024                                  
  20707156.950   110574939.854                                  
  19263500.124   102685368.044                                  
  21888654.578   117130654.2373                                 
  21858396.188   116804580.481                                  
  25630036.482   134686761.396                                  
  24781016.485   130225105.871                                  
  24671495.672   131651811.827                                  
  20931599.209   109996201.352                                  
  22174085.948   116525568.313                                  
  22433138.130   117886931.131                                  
  19293888.493   103173128.512                                  
  24888849.058   130791858.678                                  
  24730247.380   129958349.731                                  
  21036481.649   110547490.186                                  
  20869442.231   109669672.665                                  
  21081588.127   112772249.636                                  
  22007878.243   115652199.246                                  
 16  8 27  8 49 45.0000000  0 18G12R13R14R17R15G23G14R 6G31G25G26R24
                                G 5G20G 4G29R23G21
  25283514.944   132865696.152                                  
  20707789.939   110578320.861                                  
  19263340.943   102684518.239                                  
  21888077.918   117127566.0982                                 
  21857773.040   116801250.403                                  
  25629949.789   134686290.748                                  
  24781620.297   130228278.160                                  
  24671805.623   131653448.344                                  
  20931714.729   109996809.217                                  
  22174596.925   116528253.255                                  
  22432708.959   117884677.863                                  
  19293938.749   103173395.967                                  
  24888713.959   130791133.004                                  
  24729805.994   129956031.162                                  
  21036211.519   110546069.826                                  
  20869855.557   109671846.322                                  
  21082256.855   112775826.702                                  
  22007552.936   115650491.251                                  
 16  8 27  8 49 46.0000000  0 18G12R13R14R17R15G23G14R 6G31G25G26R24
                                G 5G20G 4G29R23G21
  25284169.048   132869133.506                                  
  20708422.824   110581702.559                                  
  19263181.692   102683669.361                                  
  21887501.014   117124478.4852                                 
  21857150.068   116797920.738                                  
  25629861.107   134685820.712                                  
  24782224.075   130231450.670                                  
  24672113.480   131655085.700                                  
  20931831.018   109997417.838                                  
  22175108.007   116530938.611                                  
  22432280.312   117882424.893                                  
  19293989.111   103173664.269                                  
  24888577.952   130790408.001                                  
  24729365.027   129953712.839                                  
  21035941.076   110544649.937                                  
  20870268.953   109674020.427                                  
  21082925.477   112779404.248                                  
  22007228.152   115648783.830                                  
 16  8 27  8 49 47.0000000  0 18G12R13R14R17R15G23G14R 6G31G25G26R24
                                G 5G20G 4G29R23G21
  25284823.187   132872570.900                                  
  20709056.650   110585084.770                                  
  19263022.337   102682821.138                                  
  21886924.284   117121391.2222                                 
  21856526.955   116794591.338                                  
  25629772.914   134685351.166                                  
  24782827.852   130234623.147                                  
  24672423.186   131656723.770                                  
  20931946.922   109998027.058                                  
  22175618.740   116533624.216                                  
  22431851.455   117880172.061                                  
  19294039.507   103173933.242                                  
  24888436.989   130789683.419                                  
  24728923.816   129951394.633                                  
  21035670.702   110543230.307                                  
  20870682.523   109676194.821                                  
  21083593.925   112782982.076                                  
  22006902.741   115647076.807                                  
 16  8 27  8 49 48.0000000  0 18G12R13R14R17R15G23G14R 6G31G25G26R24
                                G 5G20G 4G29R23G21
  25285477.535   132876008.357                                  
  20709690.338   110588467.586                                  
  19262863.156   102681973.679                                  
  21886347.415   117118304.3632                                 
  21855904.087   116791262.217                                  
  25629684.651   134684882.238                                  
  24783431.700   130237795.756                                  
  24672730.973   131658362.381                                  
  20932062.826   109998636.894                                  
  22176129.578   116536310.070                                  
  22431422.983   117877919.383                                  
  19294089.798   103174202.960                                  
  24888293.513   130788959.358                                  
  24728482.465   129949076.538                                  
  21035400.608   110541810.997                                  
  20871095.849   109678369.523                                  
  21084262.792   112786560.216                                  
  22006578.306   115645370.191                                  
 16  8 27  8 49 49.0000000  0 18G12R13R14R17R15G23G14R 6G31G25G26R24
                                G 5G20G 4G29R23G21
  25286131.744   132879445.786                                  
  20710323.955   110591850.833                                  
  19262704.115   102681126.845                                  
  21885771.000   117115217.8132                                 
  21855281.429   116787933.264                                  
  25629597.609   134684413.699                                  
  24784035.268   130240968.251                                  
  24673033.630   131660001.842                                  
  20932178.975   109999247.253                                  
  22176641.044   116538996.125                                  
  22430994.615   117875666.790                                  
  19294140.683   103174473.272                                  
  24888154.714   130788235.699                                  
  24728041.463   129946758.512                                  
  21035130.269   110540391.886                                  
  20871509.349   109680544.442                                  
  21084931.484   112790138.591                                  
  22006253.732   115643663.938                                  
 16  8 27  8 49 50.0000000  0 18G12R13R14R17R15G23G14R 6G31G25G26R24
                                G 5G20G 4G29R23G21
  25286786.267   132882883.324                                  
  20710957.607   110595234.703                                  
  19262545.248   102680280.751                                  
  21885194.305   117112131.6792                                 
  21854658.840   116784604.642                                  
  25629508.159   134683945.745                                  
  24784639.010   130244140.858                                  
  24673339.148   131661641.819                                  
  20932295.228   109999858.277                                  
  22177152.230   116541682.484                                  
  22430566.212   117873414.378                                  
  19294191.324   103174744.312                                  
  24888021.429   130787512.592                                  
  24727600.356   129944440.637                                  
  21034860.384   110538973.118                                  
  20871923.164   109682719.701                                  
  21085600.351   112793717.285                                  
  22005928.914   115641958.150                                  
 16  8 27  8 49 51.0000000  0 18G12R13R14R17R15G23G14R 6G31G25G26R24
                                G 5G20G 4G29R23G21
  25287440.510   132886320.934                                  
  20711591.609   110598619.154                                  
  19262386.870   102679435.434                                  
  21884617.889   117109045.9772                                 
  21854036.146   116781276.307                                  
  25629422.234   134683478.376                                  
  24785242.544   130247313.578                                  
  24673643.061   131663282.553                                  
  20932411.551   110000469.931                                  
  22177663.103   116544369.129                                  
  22430137.635   117871162.164                                  
  19294242.104   103175016.087                                  
  24887880.815   130786790.013                                  
  24727159.110   129942122.870                                  
  21034590.010   110537554.685                                  
  20872337.048   109684895.300                                  
  21086269.183   112797296.333                                  
  22005604.270   115640252.813                                  
 16  8 27  8 49 52.0000000  0 18G12R13R14R17R15G23G14R 6G31G25G26R24
                                G 5G20G 4G29R23G21
  25288094.684   132889758.782                                  
  20712225.401   110602004.317                                  
  19262228.736   102678591.042                                  
  21884041.508   117105960.841                                  
  21853413.732   116777948.415                                  
  25629334.250   134683011.582                                  
  24785846.356   130250486.501                                  
  24673955.560   131664924.158                                  
  20932528.468   110001082.370                                  
  22178174.325   116547056.209                                  
  22429709.232   117868910.269                                  
  19294293.128   103175288.743                                  
  24887745.402   130786068.074                                  
  24726718.178   129939805.427                                  
  21034320.334   110536136.721                                  
  20872750.793   109687071.366                                  
  21086938.225   112800875.842                                  
  22005280.045   115638548.079                                  
 16  8 27  8 49 53.0000000  0 18G12R13R14R17R15G23G14R 6G31G25G26R24
                                G 5G20G 4G29R23G21
  25288749.242   132893196.672                                  
  20712859.158   110605390.000                                  
  19262070.462   102677747.332                                  
  21883465.163   117102876.070                                  
  21852791.422   116774620.783                                  
  25629242.113   134682545.390                                  
  24786449.819   130253659.413                                  
  24674262.719   131666566.474                                  
  20932645.245   110001695.415                                  
  22178685.721   116549743.541                                  
  22429281.213   117866658.513                                  
  19294344.188   103175562.045                                  
  24887605.207   130785346.553                                  
  24726277.246   129937488.066                                  
  21034050.659   110534719.029                                  
  20873164.712   109689247.730                                  
  21087607.301   112804455.629                                  
  22004955.960   115636843.742                                  
 16  8 27  8 49 54.0000000  0 18G12R13R14R17R15G23G14R 6G31G25G26R24
                                G 5G20G 4G29R23G21
  25289403.485   132896634.657                                  
  20713493.403   110608776.336                                  
  19261912.049   102676904.429                                  
  21882888.887   117099791.709                                  
  21852168.798   116771293.441                                  
  25629148.859   134682079.765                                  
  24787053.283   130256832.478                                  
  24674575.112   131668209.494                                  
  20932761.812   110002309.118                                  
  22179196.768   116552431.180                                  
  22428852.566   117864406.975                                  
  19294395.526   103175836.108                                  
  24887467.734   130784625.698                                  
  24725836.279   129935170.908                                  
  21033780.774   110533301.707                                  
  20873579.120   109691424.435                                  
  21088276.342   112808035.783                                  
  22004631.281   115635139.892                                  
 16  8 27  8 49 55.0000000  0 18G12R13R14R17R15G23G14R 6G31G25G26R24
                                G 5G20G 4G29R23G21
  25290057.624   132900072.708                                  
  20714127.719   110612163.169                                  
  19261754.055   102676062.243                                  
  21882312.646   117096707.742                                  
  21851546.314   116767966.370                                  
  25629060.596   134681614.587                                  
  24787656.991   130260005.526                                  
  24674883.807   131669853.234                                  
  20932878.903   110002923.408                                  
  22179708.059   116555119.078                                  
  22428424.058   117862155.570                                  
  19294447.144   103176110.850                                  
  24887331.483   130783905.293                                  
  24725395.416   129932853.814                                  
  21033511.028   110531884.654                                  
  20873993.248   109693601.436                                  
  21088945.314   112811616.261                                  
  22004306.986   115633436.423                                  
 16  8 27  8 49 56.0000000  0 19G12R13R14R17R15G16G23G14R 6G31G25G26
                                R24G 5G20G 4G29R23G21
  25290711.693   132903510.957                                  
  20714762.034   110615550.709                                  
  19261596.165   102675220.932                                  
  21881736.544   117093624.317                                  
  21850923.551   116764639.706                                  
  24555170.113                                                  
  25628968.110   134681150.217                                  
  24788260.698   130263178.795                                  
  24675187.441   131671497.831                                  
  20932996.099   110003538.473                                  
  22180219.455   116557807.362                                  
  22427996.004   117859904.460                                  
  19294498.901   103176386.499                                  
  24887193.591   130783185.480                                  
  24724954.729   129930537.031                                  
  21033241.422   110530468.054                                  
  20874407.796   109695778.890                                  
  21089614.425   112815197.167                                  
  22003982.726   115631733.541                                  
 16  8 27  8 49 57.0000000  0 18G12R13R14R17R15G23G14R 6G31G25G26R24
                                G 5G20G 4G29R23G21
  25291365.867   132906949.227                                  
  20715396.698   110618938.772                                  
  19261438.136   102674380.298                                  
  21881160.268   117090541.198                                  
  21850301.311   116761313.273                                  
  25628883.267   134680686.289                                  
  24788864.650   130266352.028                                  
  24675493.971   131673143.136                                  
  20933113.155   110004154.111                                  
  22180731.026   116560495.874                                  
  22427567.636   117857653.478                                  
  19294550.519   103176662.767                                  
  24887056.851   130782466.156                                  
  24724513.866   129928220.334                                  
  21032971.886   110529051.716                                  
  20874822.238   109697956.612                                  
  21090283.780   112818778.325                                  
  22003658.571   115630031.047                                  
 16  8 27  8 49 58.0000000  0 18G12R13R14R17R15G23G14R 6G31G25G26R24
                                G 5G20G 4G29R23G21
  25292020.180   132910387.463                                  
  20716031.049   110622327.268                                  
  19261280.561   102673540.269                                  
  21880583.992   117087458.405                                  
  21849679.001   116757987.021                                  
  25628797.656   134680222.773                                  
  24789468.742   130269525.246                                  
  24675804.794   131674788.954                                  
  20933230.525   110004770.263                                  
  22181242.492   116563184.569                                  
  22427139.233   117855402.557                                  
  19294602.242   103176939.703                                  
  24886919.204   130781747.265                                  
  24724072.864   129925903.611                                  
  21032702.420   110527635.596                                  
  20875236.751   109700134.546                                  
  21090953.241   112822359.723                                  
  22003334.660   115628328.873                                  
 16  8 27  8 49 59.0000000  0 18G12R13R14R17R15G23G14R 6G31G25G26R24
                                G 5G20G 4G29R23G21
  25292674.598   132913825.866                                  
  20716665.888   110625716.414                                  
  19261122.706   102672701.130                                  
  21880008.240   117084376.112                                  
  21849056.622   116754661.180                                  
  25628705.589   134679759.925                                  
  24790072.415   130272698.627                                  
  24676119.771   131676435.710                                  
  20933347.895   110005387.131                                  
  22181753.957   116565873.667                                  
  22426710.621   117853151.902                                  
  19294653.999   103177217.401                                  
  24886783.860   130781028.956                                  
  24723632.107   129923587.160                                  
  21032432.849   110526219.874                                  
  20875651.403   109702312.889                                  
  21091622.701   112825941.528                                  
  22003010.784   115626627.235                                  
 16  8 27  8 50  0.0000000  0 19G12R13R14R17R15G16G23G14R 6G31G25G26
                                R24G 5G20G 4G29R23G21
  25293328.807   132917264.421                                  
  20717300.796   110629106.235                                  
  19260965.445   102671862.800                                  
  21879432.522   117081294.322                                  
  21848434.382   116751335.688                                  
  24553043.176                                                  
  25628618.966   134679297.690                                  
  24790675.669   130275872.145                                  
  24676429.652   131678156.1573                                 
  20933465.824   110006004.711                                  
  22182265.633   116568563.084                                  
  22426282.044   117850901.489                                  
  19294706.140   103177495.890                                  
  24886640.419   130780311.230                                  
  24723191.279   129921270.922                                  
  21032163.802   110524804.536                                  
  20876066.439   109704491.630                                  
  21092291.917   112829523.671                                  
  22002687.082   115624926.103                                  
 16  8 27  8 50  1.0000000  0 19G12R13R14R17R15G16G23G14R 6G31G25G26
                                R24G 5G20G 4G29R23G21
  25293982.771   132920703.027                                  
  20717936.054   110632496.617                                  
  19260808.148   102671025.168                                  
  21878856.700   117078212.953                                  
  21847812.177   116748010.481                                  
  24552512.829                                                  
  25628527.596   134678835.957                                  
  24791279.307   130279045.667                                  
  24676735.170   131679804.3342                                 
  20933583.578   110006622.899                                  
  22182777.483   116571252.772                                  
  22425853.641   117848651.248                                  
  19294758.595   103177775.090                                  
  24886496.525   130779593.995                                  
  24722750.766   129918954.773                                  
  21031894.335   110523389.499                                  
  20876481.335   109706670.665                                  
  21092961.516   112833106.130                                  
  22002363.171   115623225.387                                  
 16  8 27  8 50  2.0000000  0 18G12R13R14R17R15G23G14R 6G31G25G26R24
                                G 5G20G 4G29R23G21
  25294637.120   132924141.865                                  
  20718571.242   110635887.690                                  
  19260651.062   102670188.428                                  
  21878280.982   117075132.099                                  
  21847189.972   116744685.695                                  
  25628441.497   134678374.972                                  
  24791882.700   130282219.455                                  
  24677038.839   131681407.4353                                 
  20933701.332   110007241.857                                  
  22183289.402   116573942.888                                  
  22425425.343   117846401.307                                  
  19294811.156   103178055.162                                  
  24886365.299   130778877.423                                  
  24722310.323   129916638.924                                  
  21031625.462   110521974.934                                  
  20876896.371   109708850.175                                  
  21093631.186   112836689.087                                  
  22002039.924   115621525.253                                  
 16  8 27  8 50  3.0000000  0 18G12R13R14R17R15G23G14R 6G31G25G26R24
                                G 5G20G 4G29R23G21
  25295291.258   132927580.861                                  
  20719206.605   110639279.465                                  
  19260494.114   102669352.527                                  
  21877705.369   117072051.768                                  
  21846567.732   116741361.292                                  
  25628356.480   134677914.594                                  
  24792486.164   130285393.393                                  
  24677353.187   131683057.1712                                 
  20933818.946   110007861.533                                  
  22183801.217   116576633.364                                  
  22424996.731   117844151.636                                  
  19294863.681   103178336.031                                  
  24886228.943   130778161.426                                  
  24721869.670   129914323.309                                  
  21031356.485   110520560.772                                  
  20877311.582   109711030.094                                  
  21094300.960   112840272.458                                  
  22001716.606   115619825.661                                  
 16  8 27  8 50  4.0000000  0 19G12R13R14R17R15G16G23G14R 6G31G25G26
                                R24G 5G20G 4G29R23G21
  25295945.781   132931019.883                                  
  20719841.723   110642671.728                                  
  19260337.376   102668517.293                                  
  21877129.791   117068971.740                                  
  21845945.073   116738037.105                                  
  24550911.038   129015907.7723                                 
  25628266.751   134677454.685                                  
  24793090.046   130288567.314                                  
  24677658.950   131684707.6832                                 
  20933936.910   110008481.797                                  
  22184313.311   116579324.075                                  
  22424568.293   117841902.092                                  
  19294916.311   103178617.500                                  
  24886091.819   130777445.898                                  
  24721429.156   129912007.784                                  
  21031087.577   110519146.890                                  
  20877726.618   109713210.280                                  
  21094970.804   112843856.145                                  
  22001393.288   115618126.443                                  
 16  8 27  8 50  5.0000000  0 19G12R13R14R17R15G16G23G14R 6G31G25G26
                                R24G 5G20G 4G29R23G21
  25296599.955   132934459.056                                  
  20720477.190   110646064.662                                  
  19260181.022   102667682.925                                  
  21876554.458   117065892.207                                  
  21845323.008   116734713.318                                  
  24550377.934   129013106.5332                                 
  25628176.568   134676995.413                                  
  24793693.859   130291741.409                                  
  24677966.283   131686358.9072                                 
  20934055.536   110009102.775                                  
  22184825.231   116582015.163                                  
  22424139.960   117839652.800                                  
  19294969.045   103178899.837                                  
  24885960.070   130776730.984                                  
  24720988.713   129909692.474                                  
  21030818.529   110517733.395                                  
  20878141.793   109715390.875                                  
  21095640.893   112847440.235                                  
  22001070.040   115616427.749                                  
 16  8 27  8 50  6.0000000  0 19G12R13R14R17R15G16G23G14R 6G31G25G26
                                R24G 5G20G 4G29R23G21
  25297254.408   132937898.399                                  
  20721112.587   110649458.255                                  
  19260024.459   102666849.393                                  
  21875979.194   117062813.201                                  
  21844700.908   116731389.921                                  
  24549843.818   129010305.5012                                 
  25628090.783   134676536.846                                  
  24794297.601   130294915.622                                  
  24678275.606   131688010.9242                                 
  20934173.779   110009724.472                                  
  22185337.290   116584706.629                                  
  22423711.941   117837403.786                                  
  19295021.989   103179182.941                                  
  24885827.937   130776016.619                                  
  24720548.618   129907377.416                                  
  21030549.761   110516320.334                                  
  20878557.248   109717571.889                                  
  21096311.365   112851024.742                                  
  22000746.758   115614729.594                                  
 16  8 27  8 50  7.0000000  0 19G12R13R14R17R15G16G23G14R 6G31G25G26
                                R24G 5G20G 4G29R23G21
  25297908.582   132941337.796                                  
  20721748.299   110652852.385                                  
  19259867.931   102666016.570                                  
  21875404.000   117059734.571                                  
  21844079.575   116728066.755                                  
  24549313.925   129007504.4322                                 
  25628004.509   134676078.675                                  
  24794901.449   130298089.869                                  
  24678584.963   131689663.6622                                 
  20934292.371   110010346.767                                  
  22185849.314   116587398.340                                  
  22423283.782   117835154.906                                  
  19295074.828   103179466.768                                  
  24885694.094   130775302.825                                  
  24720108.175   129905062.428                                  
  21030281.133   110514907.536                                  
  20878972.598   109719753.187                                  
  21096981.244   112854609.507                                  
  22000423.440   115613031.844                                  
 16  8 27  8 50  8.0000000  0 19G12R13R14R17R15G16G23G14R 6G31G25G26
                                R24G 5G20G 4G29R23G21
  25298562.825   132944777.191                                  
  20722383.940   110656247.005                                  
  19259711.647   102665184.401                                  
  21874829.015   117056656.267                                  
  21843457.615   116724743.775                                  
  24548782.461   129004703.3042                                 
  25627920.329   134675621.060                                  
  24795505.226   130301264.125                                  
  24678898.927   131691316.9582                                 
  20934410.997   110010969.609                                  
  22186361.827   116590090.243                                  
  22422855.763   117832906.124                                  
  19295128.017   103179751.256                                  
  24885557.668   130774589.433                                  
  24719667.697   129902747.534                                  
  21030012.644   110513494.993                                  
  20879388.123   109721934.720                                  
  21097651.437   112858194.470                                  
  22000100.437   115611334.457                                  
 16  8 27  8 50  9.0000000  0 19G12R13R14R17R15G16G23G14R 6G31G25G26
                                R24G 5G20G 4G29R23G21
  25299217.383   132948216.808                                  
  20723019.791   110659642.342                                  
  19259555.642   102664353.170                                  
  21874254.240   117053578.489                                  
  21842836.038   116721421.256                                  
  24548247.018   129001902.3602                                 
  25627832.624   134675164.124                                  
  24796108.969   130304438.580                                  
  24679207.377   131692971.2172                                 
  20934529.729   110011593.241                                  
  22186874.235   116592782.586                                  
  22422427.744   117830657.677                                  
  19295181.275   103180036.592                                  
  24885423.441   130773876.713                                  
  24719227.393   129900432.946                                  
  21029743.945   110512082.912                                  
  20879803.438   109724116.732                                  
  21098321.804   112861779.912                                  
  21999777.642   115609637.659                                  
 16  8 27  8 50 10.0000000  0 19G12R13R14R17R15G16G23G14R 6G31G25G26
                                R24G 5G20G 4G29R23G21
  25299872.045   132951656.508                                  
  20723655.817   110663038.273                                  
  19259399.776   102663522.656                                  
  21873679.325   117050501.097                                  
  21842214.287   116718099.009                                  
  24547711.855   128999101.4002                                 
  25627742.686   134674707.734                                  
  24796712.956   130307613.124                                  
  24679518.096   131694626.148                                  
  20934648.425   110012217.508                                  
  22187386.434   116595475.208                                  
  22421999.586   117828409.388                                  
  19295234.742   103180322.609                                  
  24885288.690   130773164.451                                  
  24718786.810   129898118.466                                  
  21029475.631   110510671.139                                  
  20880218.858   109726299.066                                  
  21098992.067   112865365.676                                  
  21999454.778   115607941.297                                  
 16  8 27  8 50 11.0000000  0 19G12R13R14R17R15G16G23G14R 6G31G25G26
                                R24G 5G20G 4G29R23G21
  25300526.847   132955096.221                                  
  20724291.633   110666434.663                                  
  19259243.946   102662692.842                                  
  21873104.236   117047424.061                                  
  21841592.675   116714777.020                                  
  24547180.112   128996300.3512                                 
  25627655.435   134674251.772                                  
  24797316.698   130310787.574                                  
  24679828.047   131696281.763                                  
  20934767.121   110012842.324                                  
  22187898.947   116598168.043                                  
  22421571.951   117826161.214                                  
  19295288.210   103180609.318                                  
  24885153.451   130772452.712                                  
  24718346.436   129895804.053                                  
  21029207.037   110509259.631                                  
  20880634.068   109728481.646                                  
  21099662.365   112868951.705                                  
  21999132.089   115606245.305                                  
 16  8 27  8 50 12.0000000  0 19G12R13R14R17R15G16G23G14R 6G31G25G26
                                R24G 5G20G 4G29R23G21
  25301181.824   132958536.058                                  
  20724927.484   110669831.732                                  
  19259088.569   102661863.833                                  
  21872529.425   117044347.524                                  
  21840970.889   116711455.358                                  
  24546647.566   128993499.5402                                 
  25627569.300   134673796.443                                  
  24797920.964   130313962.261                                  
  24680135.450   131697938.139                                  
  20934886.027   110013467.835                                  
  22188411.355   116600861.223                                  
  22421144.106   117823913.286                                  
  19295341.607   103180896.808                                  
  24885018.561   130771741.437                                  
  24717906.132   129893489.825                                  
  21028938.548   110507848.503                                  
  20881049.837   109730664.615                                  
  21100333.012   112872538.150                                  
  21998809.435   115604549.820                                  
 16  8 27  8 50 13.0000000  0 19G12R13R14R17R15G16G23G14R 6G31G25G26
                                R24G 5G20G 4G29R23G21
  25301836.591   132961976.033                                  
  20725563.475   110673229.438                                  
  19258932.983   102661035.650                                  
  21871954.790   117041271.472                                  
  21840349.138   116708134.058                                  
  24546111.670   128990698.717                                  
  25627483.585   134673341.748                                  
  24798525.475   130317137.067                                  
  24680445.226   131699595.312                                  
  20935005.666   110014094.045                                  
  22188923.973   116603554.752                                  
  22420716.751   117821665.592                                  
  19295395.494   103181185.055                                  
  24884883.880   130771030.848                                  
  24717465.479   129891175.844                                  
  21028670.094   110506437.744                                  
  20881465.466   109732847.973                                  
  21101003.693   112876124.981                                  
  21998486.920   115602854.844                                  
 16  8 27  8 50 14.0000000  0 19G12R13R14R17R15G16G23G14R 6G31G25G26
                                R24G 5G20G 4G29R23G21
  25302491.358   132965416.221                                  
  20726199.989   110676627.852                                  
  19258777.536   102660208.331                                  
  21871380.189   117038195.947                                  
  21839727.526   116704813.181                                  
  24545574.866   128987898.086                                  
  25627397.381   134672887.736                                  
  24799129.532   130320312.026                                  
  24680752.106   131701253.363                                  
  20935124.991   110014721.025                                  
  22189436.381   116606248.688                                  
  22420288.697   117819418.197                                  
  19295449.380   103181474.149                                  
  24884748.955   130770320.896                                  
  24717025.175   129888862.110                                  
  21028402.163   110505027.443                                  
  20881881.165   109735031.776                                  
  21101673.921   112879712.276                                  
  21998164.230   115601160.434                                  
 16  8 27  8 50 15.0000000  0 19G12R13R14R17R15G16G23G14R 6G31G25G26
                                R24G 5G20G 4G29R23G21
  25303146.614   132968856.471                                  
  20726836.433   110680026.825                                  
  19258622.648   102659381.730                                  
  21870805.449   117035120.833                                  
  21839105.810   116701492.566                                  
  24545045.531   128985097.464                                  
  25627311.037   134672434.241                                  
  24799733.518   130323487.039                                  
  24681061.358   131702912.112                                  
  20935244.280   110015348.600                                  
  22189949.138   116608942.895                                  
  22419861.062   117817170.954                                  
  19295503.022   103181763.954                                  
  24884614.414   130769611.377                                  
  24716585.290   129886548.525                                  
  21028133.848   110503617.439                                  
  20882297.144   109737215.889                                  
  21102344.498   112883299.883                                  
  21997841.820   115599466.436                                  
 16  8 27  8 50 16.0000000  0 19G12R13R14R17R15G16G23G14R 6G31G25G26
                                R24G 5G20G 4G29R23G21
  25303801.381   132972296.733                                  
  20727473.506   110683426.228                                  
  19258467.760   102658555.810                                  
  21870230.883   117032046.025                                  
  21838484.303   116698172.208                                  
  24544513.614   128982296.784                                  
  25627224.903   134671981.198                                  
  24800337.994   130326662.013                                  
  24681375.811   131704571.445                                  
  20935363.744   110015976.753                                  
  22190462.035   116611637.324                                  
  22419433.531   117814923.834                                  
  19295557.397   103182054.440                                  
  24884480.012   130768902.360                                  
  24716145.475   129884234.983                                  
  21027865.743   110502207.685                                  
  20882712.982   109739400.245                                  
  21103015.320   112886887.709                                  
  21997519.514   115597772.823                                  
 16  8 27  8 50 17.0000000  0 19G12R13R14R17R15G16G23G14R 6G31G25G26
                                R24G 5G20G 4G29R23G21
  25304456.357   132975737.026                                  
  20728109.880   110686826.210                                  
  19258312.802   102657730.614                                  
  21869656.561   117028971.643                                  
  21837863.180   116694852.097                                  
  24543983.127   128979496.083                                  
  25627139.013   134671528.722                                  
  24800941.946   130329837.088                                  
  24681687.018   131706231.486                                  
  20935483.488   110016605.492                                  
  22190974.827   116614331.996                                  
  22419006.106   117812676.862                                  
  19295611.492   103182345.610                                  
  24884345.646   130768193.782                                  
  24715705.660   129881921.556                                  
  21027597.394   110500798.225                                  
  20883128.856   109741584.888                                  
  21103686.315   112890475.838                                  
  21997197.383   115596079.614                                  
 16  8 27  8 50 18.0000000  0 19G12R13R14R17R15G16G23G14R 6G31G25G26
                                R24G 5G20G 4G29R23G21
  25305111.299   132979177.417                                  
  20728746.115   110690226.770                                  
  19258158.263   102656906.128                                  
  21869082.274   117025897.623                                  
  21837241.498   116691532.289                                  
  24543447.999   128976695.360                                  
  25627053.437   134671076.740                                  
  24801546.038   130333012.181                                  
  24682000.529   131707892.182                                  
  20935603.406   110017234.868                                  
  22191487.619   116617026.941                                  
  22418578.401   117810430.050                                  
  19295665.728   103182637.474                                  
  24884211.419   130767485.704                                  
  24715265.216   129879608.297                                  
  21027329.219   110499389.079                                  
  20883544.695   109743769.860                                  
  21104357.137   112894064.285                                  
  21996875.252   115594386.845                                  
 16  8 27  8 50 19.0000000  0 19G12R13R14R17R15G16G23G14R 6G31G25G26
                                R24G 5G20G 4G29R23G21
  25305766.485   132982617.906                                  
  20729382.734   110693627.940                                  
  19258003.689   102656082.485                                  
  21868507.778   117022824.024                                  
  21836620.375   116688212.827                                  
  24542917.268   128973894.842                                  
  25626967.582   134670625.414                                  
  24802150.409   130336187.406                                  
  24682312.888   131709553.623                                  
  20935723.184   110017864.922                                  
  22192000.900   116619722.239                                  
  22418150.836   117808183.474                                  
  19295720.277   103182930.130                                  
  24884077.436   130766778.249                                  
  24714825.331   129877295.196                                  
  21027061.253   110497980.322                                  
  20883960.813   109745955.202                                  
  21105027.783   112897653.077                                  
  21996552.947   115592694.570                                  
 16  8 27  8 50 20.0000000  0 19G12R13R14R17R15G16G23G14R 6G31G25G26
                                R24G 5G20G 4G29R23G21
  25306421.077   132986058.505                                  
  20730019.527   110697029.724                                  
  19257849.429   102655259.544                                  
  21867933.631   117019750.877                                  
  21835999.461   116684893.657                                  
  24542383.571   128971094.248                                  
  25626881.866   134670174.591                                  
  24802754.710   130339362.710                                  
  24682625.561   131711215.856                                  
  20935843.067   110018495.621                                  
  22192513.727   116622417.803                                  
  22417723.515   117805937.084                                  
  19295775.001   103183223.484                                  
  24883943.418   130766071.300                                  
  24714385.202   129874982.274                                  
  21026793.532   110496571.881                                  
  20884376.721   109748140.864                                  
  21105698.744   112901242.231                                  
  21996231.025   115591002.745                                  
 16  8 27  8 50 21.0000000  0 19G12R13R14R17R15G16G23G14R 6G31G25G26
                                R24G 5G20G 4G29R23G21
  25307075.495   132989499.220                                  
  20730656.286   110700432.067                                  
  19257695.169   102654437.456                                  
  21867359.484   117016678.185                                  
  21835378.548   116681574.792                                  
  24541849.873   128968293.772                                  
  25626796.395   134669724.442                                  
  24803359.325   130342538.092                                  
  24682937.292   131712878.740                                  
  20935963.159   110019126.992                                  
  22193026.938   116625113.715                                  
  22417296.229   117803690.917                                  
  19295830.039   103183517.634                                  
  24883809.505   130765364.908                                  
  24713945.247   129872669.549                                  
  21026525.427   110495163.804                                  
  20884792.734   109750326.907                                  
  21106369.775   112904831.740                                  
  21995909.557   115589311.402                                  
 16  8 27  8 50 22.0000000  0 19G12R13R14R17R15G16G23G14R 6G31G25G26
                                R24G 5G20G 4G29R23G21
  25307730.367   132992940.119                                  
  20731293.254   110703835.179                                  
  19257541.328   102653616.214                                  
  21866785.442   117013606.005                                  
  21834757.495   116678256.353                                  
  24541315.896   128965493.442                                  
  25626710.505   134669274.807                                  
  24803963.696   130345713.643                                  
  24683243.892   131714542.525                                  
  20936083.391   110019759.095                                  
  22193539.800   116627809.994                                  
  22416868.943   117801445.026                                  
  19295885.077   103183812.524                                  
  24883675.941   130764659.137                                  
  24713505.362   129870357.022                                  
  21026257.147   110493756.141                                  
  20885208.608   109752513.370                                  
  21107040.875   112908421.680                                  
  21995587.636   115587620.628                                  
 16  8 27  8 50 23.0000000  0 19G12R13R14R17R15G16G23G14R 6G31G25G26
                                R24G 5G20G 4G29R23G21
  25308384.890   132996380.973                                  
  20731929.977   110707238.674                                  
  19257387.417   102652795.608                                  
  21866211.120   117010534.101                                  
  21834136.546   116674938.104                                  
  24540781.990   128962692.968                                  
  25626624.720   134668825.739                                  
  24804568.241   130348889.167                                  
  24683563.824   131716206.923                                  
  20936203.554   110020391.724                                  
  22194052.801   116630506.453                                  
  22416441.761   117799199.200                                  
  19295940.045   103184108.009                                  
  24883541.924   130763953.725                                  
  24713065.232   129868044.566                                  
  21025989.252   110492348.698                                  
  20885624.586   109754700.043                                  
  21107712.185   112912011.829                                  
  21995265.889   115585930.172                                  
 16  8 27  8 50 24.0000000  0 19G12R13R14R17R15G16G23G14R 6G31G25G26
                                R24G 5G20G 4G29R23G21
  25309039.692   132999821.986                                  
  20732566.736   110710642.821                                  
  19257233.471   102651975.806                                  
  21865636.938   117007462.704                                  
  21833515.807   116671620.209                                  
  24540245.221   128959892.590                                  
  25626539.179   134668377.257                                  
  24805173.240   130352064.829                                  
  24683875.276   131717872.040                                  
  20936324.204   110021025.071                                  
  22194566.012   116633203.281                                  
  22416014.545   117796953.635                                  
  19295995.432   103184404.350                                  
  24883408.360   130763248.969                                  
  24712625.277   129865732.332                                  
  21025721.391   110490941.654                                  
  20886040.739   109756887.112                                  
  21108383.356   112915602.329                                  
  21994944.351   115584240.220                                  
 16  8 27  8 50 25.0000000  0 19G12R13R14R17R15G16G23G14R 6G31G25G26
                                R24G 5G20G 4G29R23G21
  25309694.284   133003262.989                                  
  20733204.227   110714047.482                                  
  19257080.014   102651156.656                                  
  21865062.861   117004391.639                                  
  21832894.998   116668302.528                                  
  24539709.743   128957092.137                                  
  25626453.987   134667929.196                                  
  24805778.065   130355240.445                                  
  24684188.088   131719537.805                                  
  20936444.925   110021658.938                                  
  22195079.363   116635900.289                                  
  22415587.538   117794708.153                                  
  19296050.924   103184701.310                                  
  24883275.110   130762544.624                                  
  24712185.636   129863420.123                                  
  21025453.739   110489534.826                                  
  20886456.787   109759074.409                                  
  21109054.491   112919193.075                                  
  21994622.569   115582550.627                                  
 16  8 27  8 50 26.0000000  0 19G12R13R14R17R15G16G23G14R 6G31G25G26
                                R24G 5G20G 4G29R23G21
  25310349.051   133006703.991                                  
  20733841.579   110717452.567                                  
  19256926.557   102650338.237                                  
  21864489.098   117001320.931                                  
  21832273.910   116664985.049                                  
  24539178.280   128954291.710                                  
  25626368.795   134667481.654                                  
  24806382.889   130358416.061                                  
  24684499.156   131721204.246                                  
  20936565.960   110022293.394                                  
  22195592.399   116638597.520                                  
  22415160.217   117792462.782                                  
  19296106.695   103184998.962                                  
  24883141.546   130761840.705                                  
  24711745.856   129861108.029                                  
  21025185.948   110488128.277                                  
  20886872.800   109761261.988                                  
  21109725.557   112922784.082                                  
  21994301.345   115580861.420                                  
 16  8 27  8 50 27.0000000  0 19G12R13R14R17R15G16G23G14R 6G31G25G26
                                R24G 5G20G 4G29R23G21
  25311003.993   133010145.106                                  
  20734478.895   110720858.348                                  
  19256773.169   102649520.577                                  
  21863915.335   116998250.669                                  
  21831652.961   116661667.924                                  
  24538648.212   128951491.291                                  
  25626283.987   134667034.706                                  
  24806987.330   130361591.805                                  
  24684813.783   131722871.456                                  
  20936686.994   110022928.505                                  
  22196105.505   116641295.073                                  
  22414733.385   117790217.624                                  
  19296162.745   103185297.329                                  
  24883008.191   130761137.328                                  
  24711306.041   129858796.065                                  
  21024918.401   110486722.056                                  
  20887289.162   109763449.899                                  
  21110396.622   112926375.424                                  
  21993979.842   115579172.681                                  
 16  8 27  8 50 28.0000000  0 19G12R13R14R17R15G16G23G14R 6G31G25G26
                                R24G 5G20G 4G29R23G21
  25311658.969   133013586.403                                  
  20735116.212   110724264.711                                  
  19256620.096   102648703.716                                  
  21863341.537   116995180.931                                  
  21831031.664   116658351.166                                  
  24538111.583   128948691.001                                  
  25626200.261   134666588.380                                  
  24807591.770   130364767.660                                  
  24685125.758   131724539.366                                  
  20936807.715   110023564.348                                  
  22196618.856   116643993.012                                  
  22414306.378   117787972.723                                  
  19296218.865   103185596.545                                  
  24882874.767   130760434.595                                  
  24710866.121   129856484.384                                  
  21024650.680   110485316.269                                  
  20887705.350   109765638.239                                  
  21111067.897   112929967.221                                  
  21993658.514   115577484.466                                  
 16  8 27  8 50 29.0000000  0 19G12R13R14R17R15G16G23G14R 6G31G25G26
                                R24G 5G20G 4G29R23G21
  25312313.946   133017027.707                                  
  20735754.157   110727671.596                                  
  19256467.093   102647887.541                                  
  21862768.018   116992111.455                                  
  21830410.820   116655034.634                                  
  24537581.759   128945890.662                                  
  25626113.813   134666142.520                                  
  24808196.071   130367943.504                                  
  24685437.943   131726208.031                                  
  20936928.854   110024200.741                                  
  22197132.206   116646691.122                                  
  22413879.092   117785727.939                                  
  19296275.019   103185896.367                                  
  24882741.273   130759732.277                                  
  24710426.375   129854172.725                                  
  21024382.959   110483910.719                                  
  20888121.922   109767826.812                                  
  21111739.591   112933559.269                                  
  21993337.395   115575796.630                                  
 16  8 27  8 50 30.0000000  0 19G12R13R14R17R15G16G23G14R 6G31G25G26
                                R24G 5G20G 4G29R23G21
  25312968.469   133020468.992                                  
  20736392.137   110731078.945                                  
  19256314.403   102647072.036                                  
  21862194.569   116989042.310                                  
  21829789.662   116651718.314                                  
  24537049.981   128943090.243                                  
  25626032.948   134665697.112                                  
  24808800.512   130371119.373                                  
  24685748.243   131727877.245                                  
  20937050.168   110024837.686                                  
  22197645.592   116649389.460                                  
  22413452.016   117783483.237                                  
  19296331.558   103186196.873                                  
  24882607.639   130759030.410                                  
  24709986.525   129851861.159                                  
  21024115.133   110482505.408                                  
  20888538.074   109770015.626                                  
  21112410.971   112937151.581                                  
  21993016.137   115574109.140                                  
 16  8 27  8 50 31.0000000  0 19G12R13R14R17R15G16G23G14R 6G31G25G26
                                R24G 5G20G 4G29R23G21
  25313623.236   133023910.449                                  
  20737030.292   110734487.009                                  
  19256161.888   102646257.384                                  
  21861621.399   116985973.642                                  
  21829169.027   116648402.395                                  
  24536518.971   128940289.964                                  
  25625946.116   134665252.366                                  
  24809405.371   130374295.370                                  
  24686059.485   131729547.264                                  
  20937171.692   110025475.349                                  
  22198159.291   116652088.164                                  
  22413024.764   117781238.812                                  
  19296388.062   103186498.088                                  
  24882474.145   130758329.160                                  
  24709546.954   129849549.799                                  
  21023848.075   110481100.492                                  
  20888954.472   109772204.842                                  
  21113082.071   112940744.324                                  
  21992695.053   115572422.183                                  
 16  8 27  8 50 32.0000000  0 19G12R13R14R17R15G16G23G14R 6G31G25G26
                                R24G 5G20G 4G29R23G21
  25314278.387   133027352.068                                  
  20737668.621   110737895.665                                  
  19256009.373   102645443.574                                  
  21861048.055   116982905.493                                  
  21828548.533   116645086.829                                  
  24535980.702   128937489.657                                  
  25625863.123   134664808.252                                  
  24810009.882   130377471.506                                  
  24686374.042   131731218.092                                  
  20937293.110   110026113.725                                  
  22198672.991   116654787.242                                  
  22412597.653   117778994.645                                  
  19296444.531   103186800.144                                  
  24882340.720   130757628.484                                  
  24709107.453   129847238.689                                  
  21023580.458   110479696.001                                  
  20889371.008   109774394.469                                  
  21113753.346   112944337.404                                  
  21992374.457   115570735.765                                  
 16  8 27  8 50 33.0000000  0 19G12R13R14R17R15G16G23G14R 6G31G25G26
                                R24G 5G20G 4G29R23G21
  25314932.805   133030793.852                                  
  20738306.985   110741305.001                                  
  19255856.893   102644630.581                                  
  21860474.850   116979837.884                                  
  21827928.282   116641771.670                                  
  24535451.018   128934689.762                                  
  25625779.571   134664364.791                                  
  24810614.497   130380647.787                                  
  24686684.063   131732889.717                                  
  20937414.738   110026752.825                                  
  22199186.760   116657486.685                                  
  22412170.367   117776750.745                                  
  19296501.384   103187103.048                                  
  24882207.436   130756928.431                                  
  24708667.952   129844927.802                                  
  21023313.330   110478291.914                                  
  20889787.650   109776584.510                                  
  21114424.656   112947930.953                                  
  21992053.548   115569049.879                                  
 16  8 27  8 50 34.0000000  0 19G12R13R14R17R15G16G23G14R 6G31G25G26
                                R24G 5G20G 4G29R23G21
  25315587.293   133034235.687                                  
  20738944.895   110744714.900                                  
  19255704.623   102643818.364                                  
  21859901.645   116976770.629                                  
  21827307.927   116638456.735                                  
  24534911.632   128931889.653                                  
  25625692.913   134663921.814                                  
  24811219.008   130383824.096                                  
  24687002.983   131734562.019                                  
  20937536.401   110027392.518                                  
  22199700.599   116660186.376                                  
  22411743.500   117774506.994                                  
  19296558.306   103187406.596                                  
  24882074.011   130756228.865                                  
  24708228.276   129842617.004                                  
  21023045.784   110476888.126                                  
  20890204.291   109778774.846                                  
  21115096.419   112951524.721                                  
  21991733.057   115567364.400                                  
 16  8 27  8 50 35.0000000  0 19G12R13R14R17R15G16G23G14R 6G31G25G26
                                R24G 5G20G 4G29R23G21
  25316242.164   133037677.557                                  
  20739583.852   110748125.313                                  
  19255552.701   102643006.833                                  
  21859328.371   116973703.772                                  
  21826687.397   116635142.057                                  
  24534377.515   128929089.584                                  
  25625605.976   134663479.360                                  
  24811823.448   130387000.459                                  
  24687311.398   131736235.003                                  
  20937658.204   110028032.811                                  
  22200214.194   116662886.315                                  
  22411316.318   117772263.391                                  
  19296615.089   103187710.875                                  
  24881941.041   130755529.774                                  
  24707788.600   129840306.371                                  
  21022778.726   110475484.614                                  
  20890621.072   109780965.457                                  
  21115768.148   112955118.838                                  
  21991412.113   115565679.336                                  
 16  8 27  8 50 36.0000000  0 19G12R13R14R17R15G16G23G14R 6G31G25G26
                                R24G 5G20G 4G29R23G21
  25316897.071   133041119.492                                  
  20740222.774   110751536.262                                  
  19255400.361   102642196.067                                  
  21858755.166   116970637.326                                  
  21826066.797   116631827.668                                  
  24533847.622   128926289.532                                  
  25625524.414   134663037.407                                  
  24812427.889   130390176.886                                  
  24687624.909   131737908.679                                  
  20937780.425   110028673.734                                  
  22200728.312   116665586.536                                  
  22410889.207   117770019.938                                  
  19296672.361   103188015.844                                  
  24881808.070   130754831.192                                  
  24707348.820   129837995.846                                  
  21022511.458   110474081.423                                  
  20891037.609   109783156.377                                  
  21116439.982   112958713.218                                  
  21991091.448   115563994.703                                  
 16  8 27  8 50 37.0000000  0 19G12R13R14R17R15G16G23G14R 6G31G25G26
                                R24G 5G20G 4G29R23G21
  25317552.013   133044561.560                                  
  20740861.627   110754947.797                                  
  19255248.718   102641386.091                                  
  21858182.380   116967571.279                                  
  21825446.442   116628513.619                                  
  24533313.296   128923489.461                                  
  25625439.711   134662596.123                                  
  24813032.853   130393353.361                                  
  24687947.214   131739583.142                                  
  20937902.681   110029315.316                                  
  22201242.326   116668287.062                                  
  22410462.270   117767776.712                                  
  19296729.598   103188321.555                                  
  24881674.960   130754133.150                                  
  24706909.284   129835685.499                                  
  21022244.400   110472678.581                                  
  20891454.529   109785347.664                                  
  21117111.920   112962307.940                                  
  21990771.236   115562310.540                                  
 16  8 27  8 50 38.0000000  0 19G12R13R14R17R15G16G23G14R 6G31G25G26
                                R24G 5G20G 4G29R23G21
  25318206.989   133048003.738                                  
  20741500.654   110758360.064                                  
  19255096.902   102640576.915                                  
  21857609.559   116964505.701                                  
  21824826.157   116625199.923                                  
  24532782.984   128920689.569                                  
  25625357.764   134662155.378                                  
  24813637.224   130396529.986                                  
  24688258.701   131741258.339                                  
  20938024.938   110029957.581                                  
  22201756.549   116670987.928                                  
  22410035.228   117765533.719                                  
  19296786.869   103188628.029                                  
  24881542.547   130753435.700                                  
  24706469.713   129833375.332                                  
  21021977.446   110471276.123                                  
  20891871.310   109787539.316                                  
  21117784.102   112965903.011                                  
  21990450.780   115560626.884                                  
 16  8 27  8 50 39.0000000  0 19G12R13R14R17R15G16G23G14R 6G31G25G26
                                R24G 5G20G 4G29R23G21
  25318862.035   133051446.120                                  
  20742139.611   110761772.985                                  
  19254945.399   102639768.591                                  
  21857036.668   116961440.645                                  
  21824205.767   116621886.649                                  
  24532247.995   128917889.787                                  
  25625274.038   134661715.301                                  
  24814241.839   130399706.754                                  
  24688573.503   131742934.337                                  
  20938147.264   110030600.596                                  
  22202270.493   116673689.184                                  
  22409608.151   117763291.005                                  
  19296844.560   103188935.328                                  
  24881409.786   130752738.869                                  
  24706030.177   129831065.417                                  
  21021710.458   110469874.080                                  
  20892287.917   109789731.394                                  
  21118456.250   112969498.515                                  
  21990130.639   115558943.772                                  
 16  8 27  8 50 40.0000000  0 19G12R13R14R17R15G16G23G14R 6G31G25G26
                                R24G 5G20G 4G29R23G21
  25319517.047   133054888.435                                  
  20742779.126   110765186.307                                  
  19254793.687   102638960.860                                  
  21856464.127   116958375.881                                  
  21823585.446   116618573.565                                  
  24531713.007   128915021.4413                                 
  25625190.103   134661275.637                                  
  24814846.559   130402883.498                                  
  24688886.629   131744610.972                                  
  20938269.729   110031244.115                                  
  22202784.471   116676390.610                                  
  22409181.528   117761048.356                                  
  19296902.285   103189243.283                                  
  24881277.304   130752042.418                                  
  24705590.746   129828755.576                                  
  21021443.365   110468472.246                                  
  20892705.186   109791923.676                                  
  21119128.502   112973094.264                                  
  21989810.532   115557260.982                                  
 16  8 27  8 50 41.0000000  0 19G12R13R14R17R15G16G23G14R 6G31G25G26
                                R24G 5G20G 4G29R23G21
  25320172.163   133058330.789                                  
  20743418.851   110768600.159                                  
  19254642.219   102638153.810                                  
  21855891.550   116955311.461                                  
  21822964.951   116615260.702                                  
  24531184.405   128912221.4942                                 
  25625107.947   134660836.509                                  
  24815451.034   130406060.203                                  
  24689201.187   131746288.202                                  
  20938392.020   110031888.210                                  
  22203298.136   116679092.251                                  
  22408754.801   117758805.837                                  
  19296959.871   103189551.846                                  
  24881144.927   130751346.463                                  
  24705151.175   129826445.778                                  
  21021176.377   110467070.675                                  
  20893122.316   109794116.230                                  
  21119800.475   112976690.237                                  
  21989490.285   115555578.585                                  
 16  8 27  8 50 42.0000000  0 19G12R13R14R17R15G16G23G14R 6G31G25G26
                                R24G 5G20G 4G29R23G21
  25320827.314   133061773.182                                  
  20744058.576   110772014.529                                  
  19254490.681   102637347.507                                  
  21855318.974   116952247.472                                  
  21822344.701   116611948.064                                  
  24530650.603   128909421.5292                                 
  25625024.395   134660397.842                                  
  24816055.649   130409236.940                                  
  24689515.954   131747966.142                                  
  20938514.521   110032532.899                                  
  22203812.219   116681794.139                                  
  22408328.283   117756563.420                                  
  19297017.701   103189861.079                                  
  24881012.340   130750650.949                                  
  24704711.394   129824136.100                                  
  21020909.842   110465669.386                                  
  20893539.481   109796309.053                                  
  21120473.041   112980286.501                                  
  21989170.039   115553896.575                                  
 16  8 27  8 50 43.0000000  0 19G12R13R14R17R15G16G23G14R 6G31G25G26
                                R24G 5G20G 4G29R23G21
  25321482.255   133065215.732                                  
  20744698.720   110775429.601                                  
  19254339.841   102636542.026                                  
  21854746.537   116949183.961                                  
  21821724.904   116608635.856                                  
  24530115.858   128906621.7112                                 
  25624941.123   134659959.859                                  
  24816660.195   130412413.900                                  
  24689830.267   131749644.905                                  
  20938637.196   110033178.330                                  
  22204326.268   116684496.427                                  
  22407901.729   117754321.304                                  
  19297075.705   103190171.160                                  
  24880879.823   130749956.084                                  
  24704271.718   129821826.691                                  
  21020643.238   110464268.517                                  
  20893956.821   109798502.307                                  
  21121145.328   112983883.265                                  
  21988850.246   115552215.122                                  
 16  8 27  8 50 44.0000000  0 19G12R13R14R17R15G16G23G14R 6G31G25G26
                                R24G 5G20G 4G29R23G21
  25322137.267   133068658.355                                  
  20745338.585   110778845.220                                  
  19254188.897   102635737.290                                  
  21854174.379   116946120.858                                  
  21821104.793   116605323.892                                  
  24529584.604   128903821.9192                                 
  25624856.524   134659522.409                                  
  24817264.601   130415590.794                                  
  24690144.825   131751324.374                                  
  20938760.429   110033824.371                                  
  22204840.665   116687198.944                                  
  22407474.967   117752079.349                                  
  19297133.640   103190481.897                                  
  24880747.830   130749261.698                                  
  24703832.287   129819517.358                                  
  21020376.808   110462867.944                                  
  20894374.230   109800695.855                                  
  21121817.510   112987480.288                                  
  21988530.384   115550534.086                                  
 16  8 27  8 50 45.0000000  0 19G12R13R14R17R15G16G23G14R 6G31G25G26
                                R24G 5G20G 4G29R23G21
  25322792.278   133072101.254                                  
  20745978.589   110782261.568                                  
  19254038.197   102634933.500                                  
  21853602.047   116943058.356                                  
  21820484.822   116602012.409                                  
  24529048.882   128901022.2352                                 
  25624770.285   134659085.651                                  
  24817869.041   130418767.990                                  
  24690459.382   131753004.714                                  
  20938883.523   110034471.233                                  
  22205355.028   116689901.972                                  
  22407048.553   117749837.768                                  
  19297191.854   103190793.607                                  
  24880615.662   130748568.038                                  
  24703392.576   129817208.371                                  
  21020110.343   110461467.904                                  
  20894791.709   109802889.930                                  
  21122489.798   112991077.836                                  
  21988210.766   115548853.679                                  
 16  8 27  8 50 46.0000000  0 19G12R13R14R17R15G16G23G14R 6G31G25G26
                                R24G 5G20G 4G29R23G21
  25323447.185   133075544.378                                  
  20746618.768   110785678.676                                  
  19253887.567   102634130.606                                  
  21853029.924   116939996.384                                  
  21819865.444   116598701.394                                  
  24528513.300   128898222.8622                                 
  25624687.746   134658649.639                                  
  24818473.482   130421945.403                                  
  24690774.533   131754685.936                                  
  20939006.338   110035118.864                                  
  22205869.251   116692605.405                                  
  22406621.896   117747596.496                                  
  19297250.452   103191106.126                                  
  24880483.319   130747875.028                                  
  24702953.040   129814899.709                                  
  21019843.878   110460068.321                                  
  20895208.979   109805084.454                                  
  21123162.469   112994675.820                                  
  21987890.833   115547173.858                                  
 16  8 27  8 50 47.0000000  0 18G12R13R14R17R15G23G14R 6G31G25G26R24
                                G 5G20G 4G29R23G21
  25324101.987   133078987.369                                  
  20747258.911   110789096.148                                  
  19253737.215   102633328.240                                  
  21852457.766   116936934.674                                  
  21819245.856   116595390.453                                  
  25624601.961   134658213.990                                  
  24819077.992   130425122.709                                  
  24691089.615   131756367.660                                  
  20939129.885   110035766.947                                  
  22206383.509   116695308.942                                  
  22406195.517   117745355.225                                  
  19297308.945   103191419.160                                  
  24880351.081   130747182.342                                  
  24702513.400   129812590.980                                  
  21019577.797   110458668.870                                  
  20895626.876   109807279.125                                  
  21123835.349   112998273.898                                  
  21987571.180   115545494.298                                  
 16  8 27  8 50 48.0000000  0 19G12R13R14R17R15G16G23G14R 6G31G25G26
                                R24G 5G20G 4G29R23G21
  25324757.382   133082430.567                                  
  20747899.369   110792514.277                                  
  19253587.283   102632526.773                                  
  21851885.713   116933873.449                                  
  21818626.443   116592079.950                                  
  24527452.257   128892630.7913                                 
  25624518.409   134657778.961                                  
  24819682.607   130428300.170                                  
  24691404.765   131758050.181                                  
  20939253.258   110036415.776                                  
  22206898.116   116698012.862                                  
  22405768.545   117743114.242                                  
  19297367.752   103191733.090                                  
  24880219.332   130746490.314                                  
  24702073.968   129810282.514                                  
  21019311.402   110457269.859                                  
  20896044.355   109809474.224                                  
  21124507.915   113001872.444                                  
  21987251.981   115543815.300                                  
 16  8 27  8 50 49.0000000  0 18G12R13R14R17R15G23G14R 6G31G25G26R24
                                G 5G20G 4G29R23G21
  25325412.358   133085873.851                                  
  20748539.723   110795932.994                                  
  19253436.897   102631726.056                                  
  21851313.346   116930812.684                                  
  21818006.891   116588769.763                                  
  25624436.533   134657344.531                                  
  24820287.257   130431477.690                                  
  24691719.951   131759733.462                                  
  20939376.841   110037065.247                                  
  22207412.339   116700717.109                                  
  22405342.097   117740873.465                                  
  19297426.734   103192047.704                                  
  24880087.234   130745798.766                                  
  24701634.746   129807974.204                                  
  21019045.391   110455871.183                                  
  20896462.463   109811669.656                                  
  21125180.691   113005471.290                                  
  21986932.188   115542136.751                                  
 16  8 27  8 50 50.0000000  0 18G12R13R14R17R15G23G14R 6G31G25G26R24
                                G 5G20G 4G29R23G21
  25326067.719   133089317.241                                  
  20749180.215   110799352.285                                  
  19253287.139   102630926.120                                  
  21850741.537   116927752.362                                  
  21817387.303   116585459.917                                  
  25624354.761   134656910.648                                  
  24820891.977   130434655.316                                  
  24692035.521   131761417.506                                  
  20939500.633   110037715.383                                  
  22207927.155   116703421.630                                  
  22404915.823   117738632.871                                  
  19297485.681   103192363.113                                  
  24879956.043   130745107.793                                  
  24701195.071   129805666.066                                  
  21018779.310   110454472.845                                  
  20896880.465   109813865.429                                  
  21125853.816   113009070.511                                  
  21986613.059   115540458.677                                  
 16  8 27  8 50 51.0000000  0 18G12R13R14R17R15G23G14R 6G31G25G26R24
                                G 5G20G 4G29R23G21
  25326723.044   133092760.715                                  
  20749821.127   110802772.201                                  
  19253137.382   102630126.962                                  
  21850169.763   116924692.420                                  
  21816768.240   116582150.347                                  
  25624271.907   134656477.303                                  
  24821496.488   130437832.967                                  
  24692350.916   131763102.230                                  
  20939624.459   110038366.159                                  
  22208441.553   116706126.463                                  
  22404489.584   117736392.486                                  
  19297544.453   103192679.207                                  
  24879824.329   130744417.326                                  
  24700755.709   129803358.101                                  
  21018513.369   110453074.869                                  
  20897298.119   109816061.540                                  
  21126527.010   113012670.064                                  
  21986293.720   115538781.048                                  
 16  8 27  8 50 52.0000000  0 18G12R13R14R17R15G23G14R 6G31G25G26R24
                                G 5G20G 4G29R23G21
  25327378.440   133096204.135                                  
  20750461.829   110806192.499                                  
  19252987.624   102629328.407                                  
  21849597.815   116921632.745                                  
  21816148.827   116578840.934                                  
  25624192.299   134656044.341                                  
  24822100.824   130441010.616                                  
  24692666.975   131764787.473                                  
  20939748.251   110039017.422                                  
  22208956.578   116708831.435                                  
  22404063.065   117734152.123                                  
  19297603.749   103192995.891                                  
  24879693.243   130743727.265                                  
  24700316.417   129801050.128                                  
  21018247.532   110451677.045                                  
  20897716.226   109818257.825                                  
  21127200.309   113016269.795                                  
  21985974.485   115537103.722                                  
 16  8 27  8 50 53.0000000  0 18G12R13R14R17R15G23G14R 6G31G25G26R24
                                G 5G20G 4G29R23G21
  25328033.451   133099647.598                                  
  20751102.636   110809613.382                                  
  19252838.320   102628530.596                                  
  21849026.041   116918573.459                                  
  21815529.728   116575531.844                                  
  25624110.004   134655612.036                                  
  24822705.195   130444188.248                                  
  24692983.033   131766473.466                                  
  20939871.764   110039669.317                                  
  22209471.116   116711536.677                                  
  22403636.757   117731911.930                                  
  19297662.905   103193313.248                                  
  24879562.122   130743037.698                                  
  24699876.776   129798742.289                                  
  21017981.835   110450279.560                                  
  20898134.089   109820454.422                                  
  21127873.329   113019869.832                                  
  21985655.181   115535426.840                                  
 16  8 27  8 50 54.0000000  0 18G12R13R14R17R15G23G14R 6G31G25G26R24
                                G 5G20G 4G29R23G21
  25328688.776   133103091.125                                  
  20751743.373   110813034.748                                  
  19252689.016   102627733.482                                  
  21848454.163   116915514.607                                  
  21814910.420   116572222.978                                  
  25624023.521   134655180.223                                  
  24823309.635   130447365.920                                  
  24693299.266   131768160.135                                  
  20939995.695   110040321.796                                  
  22209985.932   116714242.160                                  
  22403210.518   117729671.883                                  
  19297722.026   103193631.330                                  
  24879431.176   130742348.597                                  
  24699437.205   129796434.527                                  
  21017715.964   110448882.326                                  
  20898552.021   109822651.280                                  
  21128546.733   113023470.147                                  
  21985336.401   115533750.350                                  
 16  8 27  8 50 55.0000000  0 18G12R13R14R17R15G23G14R 6G31G25G26R24
                                G 5G20G 4G29R23G21
  25329343.683   133106534.847                                  
  20752384.250   110816456.831                                  
  19252540.026   102626937.274                                  
  21847882.668   116912456.282                                  
  21814291.042   116568914.545                                  
  25623944.820   134654748.985                                  
  24823914.285   130450543.775                                  
  24693615.464   131769847.661                                  
  20940120.115   110040975.029                                  
  22210501.167   116716948.039                                  
  22402784.314   117727432.132                                  
  19297781.601   103193950.177                                  
  24879300.927   130741660.157                                  
  24698997.809   129794127.086                                  
  21017450.022   110447485.555                                  
  20898970.233   109824848.599                                  
  21129220.032   113027070.869                                  
  21985017.585   115532074.441                                  
 16  8 27  8 50 56.0000000  0 18G12R13R14R17R15G23G14R 6G31G25G26R24
                                G 5G20G 4G29R23G21
  25329999.148   133109978.569                                  
  20753025.336   110819879.423                                  
  19252391.071   102626141.758                                  
  21847311.069   116909398.294                                  
  21813671.664   116565606.352                                  
  25623866.957   134654318.324                                  
  24824519.040   130453721.642                                  
  24693931.871   131771535.792                                  
  20940244.501   110041628.830                                  
  22211016.228   116719654.147                                  
  22402358.005   117725192.489                                  
  19297841.316   103194269.693                                  
  24879170.400   130740972.143                                  
  24698558.657   129791819.722                                  
  21017184.360   110446089.023                                  
  20899388.550   109827046.166                                  
  21129893.122   113030671.869                                  
  21984698.839   115530398.906                                  
 16  8 27  8 50 57.0000000  0 18G12R13R14R17R15G23G14R 6G31G25G26R24
                                G 5G20G 4G29R23G21
  25330654.683   133113422.405                                  
  20753666.247   110823302.610                                  
  19252242.151   102625346.987                                  
  21846739.923   116906340.703                                  
  21813052.530   116562298.435                                  
  25623783.650   134653888.208                                  
  24825123.760   130456899.533                                  
  24694248.662   131773224.666                                  
  20940368.955   110042283.275                                  
  22211531.323   116722360.551                                  
  22401931.940   117722953.050                                  
  19297901.240   103194589.947                                  
  24879039.802   130740284.683                                  
  24698119.330   129789512.487                                  
  21016918.942   110444692.842                                  
  20899806.797   109829244.064                                  
  21130566.421   113034273.172                                  
  21984379.989   115528723.819                                  
 16  8 27  8 50 58.0000000  0 18G12R13R14R17R15G23G14R 6G31G25G26R24
                                G 5G20G 4G29R23G21
  25331310.323   133116866.291                                  
  20754307.229   110826726.338                                  
  19252093.440   102624552.916                                  
  21846168.603   116903283.507                                  
  21812433.640   116558990.786                                  
  25623705.124   134653458.585                                  
  24825728.759   130460077.472                                  
  24694565.489   131774914.230                                  
  20940493.550   110042938.335                                  
  22212046.279   116725067.216                                  
  22401506.085   117720713.761                                  
  19297961.234   103194910.867                                  
  24878909.484   130739597.731                                  
  24697679.968   129787205.381                                  
  21016653.245   110443296.960                                  
  20900225.358   109831442.266                                  
  21131239.930   113037874.786                                  
  21984061.278   115527049.158                                  
 16  8 27  8 50 59.0000000  0 18G12R13R14R17R15G23G14R 6G31G25G26R24
                                G 5G20G 4G29R23G21
  25331966.137   133120310.240                                  
  20754948.420   110830150.617                                  
  19251945.078   102623759.609                                  
  21845597.457   116900226.697                                  
  21811814.611   116555683.417                                  
  25623620.037   134653029.513                                  
  24826333.514   130463255.516                                  
  24694882.140   131776604.398                                  
  20940618.354   110043594.009                                  
  22212561.165   116727774.149                                  
  22401080.404   117718474.635                                  
  19298021.018   103195232.567                                  
  24878779.236   130738911.266                                  
  24697240.851   129784898.399                                  
  21016387.863   110441901.375                                  
  20900643.744   109833640.777                                  
  21131913.299   113041476.725                                  
  21983742.672   115525374.944                                  
 16  8 27  8 51  0.0000000  0 18G12R13R14R17R15G23G14R 6G31G25G26R24
                                G 5G20G 4G29R23G21
  25332621.811   133123754.327                                  
  20755590.064   110833575.518                                  
  19251796.542   102622967.132                                  
  21845026.242   116897170.379                                  
  21811195.408   116552376.447                                  
  25623538.928   134652601.064                                  
  24826938.617   130466433.672                                  
  24695198.582                                                  
  20940742.739   110044250.388                                  
  22213076.575   116730481.423                                  
  22400654.305   117716235.761                                  
  19298081.361   103195555.023                                  
  24878649.336   130738225.410                                  
  24696801.769   129782591.682                                  
  21016122.759   110440506.207                                  
  20901062.165   109835839.685                                  
  21132587.017   113045079.056                                  
  21983423.961   115523701.231                                  
 16  8 27  8 51  1.0000000  0 18G12R13R14R17R15G23G14R 6G31G25G26R24
                                G 5G20G 4G29R23G21
  25333277.172   133127198.545                                  
  20756231.779   110837001.046                                  
  19251647.936   102622175.447                                  
  21844455.306   116894114.521                                  
  21810576.344   116549069.793                                  
  25623455.412   134652173.159                                  
  24827543.896   130469611.890                                  
  24695511.151   131779978.5783                                 
  20940867.787   110044907.433                                  
  22213591.740   116733189.034                                  
  22400228.555   117713997.113                                  
  19298141.844   103195878.264                                  
  24878519.576   130737540.107                                  
  24696362.407   129780285.134                                  
  21015857.655   110439111.384                                  
  20901480.866   109838038.945                                  
  21133260.456   113048681.740                                  
  21983105.879   115522028.007                                  
 16  8 27  8 51  2.0000000  0 18G12R13R14R17R15G23G14R 6G31G25G26R24
                                G 5G20G 4G29R23G21
  25333932.741   133130642.815                                  
  20756873.772   110840427.112                                  
  19251499.504   102621384.494                                  
  21843884.614   116891059.048                                  
  21809957.385   116545763.458                                  
  25623370.534   134651745.798                                  
  24828148.755   130472790.171                                  
  24695823.161   131781644.0113                                 
  20940992.940   110045565.093                                  
  22214107.010   116735896.908                                  
  22399802.525   117711758.633                                  
  19298202.326   103196202.207                                  
  24878389.712   130736855.273                                  
  24695923.325   129777978.699                                  
  21015592.516   110437716.872                                  
  20901899.532   109840238.508                                  
  21133933.999   113052284.746                                  
  21982787.587   115520355.208                                  
 16  8 27  8 51  3.0000000  0 18G12R13R14R17R15G23G14R 6G31G25G26R24
                                G 5G20G 4G29R23G21
  25334588.102   133134087.169                                  
  20757515.905   110843853.744                                  
  19251351.352   102620594.320                                  
  21843313.643   116888004.013                                  
  21809338.286   116542457.419                                  
  25623288.832   134651319.043                                  
  24828753.580   130475968.525                                  
  24696138.695   131783337.1922                                 
  20941118.163   110046223.385                                  
  22214622.420   116738605.068                                  
  22399376.914   117709520.317                                  
  19298262.843   103196526.819                                  
  24878259.498   130736170.975                                  
  24695484.382   129775672.444                                  
  21015327.552   110436322.683                                  
  20902318.197   109842438.395                                  
  21134607.473   113055888.064                                  
  21982469.365   115518682.855                                  
 16  8 27  8 51  4.0000000  0 18G12R13R14R17R15G23G14R 6G31G25G26R24
                                G 5G20G 4G29R23G21
  25335243.776   133137531.625                                  
  20758157.899   110847280.993                                  
  19251203.095   102619804.942                                  
  21842742.741   116884949.461                                  
  21808719.362   116539151.717                                  
  25623209.363   134650892.837                                  
  24829358.579   130479146.959                                  
  24696456.394   131785031.1282                                 
  20941243.665   110046882.358                                  
  22215137.829   116741313.552                                  
  22398950.919   117707282.230                                  
  19298323.396   103196852.212                                  
  24878129.320   130735487.242                                  
  24695045.509   129773366.324                                  
  21015062.449   110434928.868                                  
  20902736.723   109844638.638                                  
  21135280.947   113059491.701                                  
  21982151.177   115517010.987                                  
 16  8 27  8 51  5.0000000  0 18G12R13R14R17R15G23G14R 6G31G25G26R24
                                G 5G20G 4G29R23G21
  25335899.276   133140976.236                                  
  20758800.206   110850708.844                                  
  19251055.117   102619016.349                                  
  21842171.735   116881895.352                                  
  21808100.856   116535846.373                                  
  25623127.243   134650467.257                                  
  24829963.333   130482325.484                                  
  24696771.964   131786725.7632                                 
  20941369.027   110047542.011                                  
  22215653.309   116744022.377                                  
  22398525.239   117705044.387                                  
  19298384.367   103197178.383                                  
  24877999.525   130734804.080                                  
  24694606.462   129771060.461                                  
  21014797.310   110433535.417                                  
  20903155.494   109846839.263                                  
  21135954.595   113063095.705                                  
  21981833.409   115515339.631                                  
 16  8 27  8 51  6.0000000  0 18G12R13R14R17R15G23G14R 6G31G25G26R24
                                G 5G20G 4G29R23G21
  25336554.741   133144420.772                                  
  20759442.549   110854137.163                                  
  19250907.349   102618228.371                                  
  21841600.694   116878841.481                                  
  21807482.350   116532541.198                                  
  25623042.051   134650042.035                                  
  24830568.193   130485503.978                                  
  24697096.782   131788421.0522                                 
  20941494.669   110048202.175                                  
  22216168.753   116746731.356                                  
  22398099.663   117702806.583                                  
  19298445.547   103197505.133                                  
  24877869.556   130734121.327                                  
  24694168.217   129768754.630                                  
  21014532.416   110432142.180                                  
  20903574.438   109849040.074                                  
  21136627.999   113066699.905                                  
  21981515.326   115513668.578                                  
 16  8 27  8 51  7.0000000  0 18G12R13R14R17R15G23G14R 6G31G25G26R24
                                G 5G20G 4G29R23G21
  25337210.381   133147865.482                                  
  20760085.101   110857566.087                                  
  19250759.894   102617441.205                                  
  21841029.828   116875788.104                                  
  21806863.705   116529236.358                                  
  25622963.176   134649617.524                                  
  24831172.843   130488682.584                                  
  24697417.517   131790117.1232                                 
  20941620.415   110048863.022                                  
  22216684.582   116749440.669                                  
  22397673.773   117700569.031                                  
  19298506.518   103197832.606                                  
  24877739.587   130733439.134                                  
  24693729.588   129766448.946                                  
  21014267.277   110430749.305                                  
  20903993.279   109851241.269                                  
  21137301.438   113070304.478                                  
  21981197.314   115511998.074                                  
 16  8 27  8 51  8.0000000  0 18G12R13R14R17R15G23G14R 6G31G25G26R24
                                G 5G20G 4G29R23G21
  25337865.741   133151310.177                                  
  20760727.583   110860995.519                                  
  19250611.951   102616654.768                                  
  21840459.241   116872735.101                                  
  21806245.409   116525931.772                                  
  25622872.539   134649193.451                                  
  24831777.667   130491861.233                                  
  24697734.902   131791813.7902                                 
  20941746.127   110049524.449                                  
  22217200.340   116752150.210                                  
  22397247.813   117698331.592                                  
  19298567.908   103198160.795                                  
  24877609.757   130732757.399                                  
  24693290.750   129764143.378                                  
  21014002.313   110429356.701                                  
  20904412.538   109853442.712                                  
  21137974.772   113073909.310                                  
  21980879.510   115510327.899                                  
 16  8 27  8 51  9.0000000  0 18G12R13R14R17R15G23G14R 6G31G25G26R24
                                G 5G20G 4G29R23G21
  25338521.311   133154754.931                                  
  20761369.890   110864425.498                                  
  19250464.706   102615869.030                                  
  21839888.549   116869682.437                                  
  21805627.043   116522627.464                                  
  25622797.294   134648769.874                                  
  24832382.387   130495039.765                                  
  24698051.868   131793511.1242                                 
  20941871.943   110050186.461                                  
  22217716.274   116754859.997                                  
  22396822.063   117696094.288                                  
  19298629.438   103198489.634                                  
  24877479.927   130732076.170                                  
  24692851.807   129761837.929                                  
  21013737.523   110427964.381                                  
  20904831.692   109855644.448                                  
  21138648.176   113077514.454                                  
  21980561.742   115508658.118                                  
 16  8 27  8 51 10.0000000  0 18G12R13R14R17R15G23G14R 6G31G25G26R24
                                G 5G20G 4G29R23G21
  25339176.846   133158199.699                                  
  20762012.198   110867855.986                                  
  19250317.287   102615084.023                                  
  21839318.136   116866630.164                                  
  21805008.922   116519323.384                                  
  25622725.504   134648346.838                                  
  24832987.491   130498218.455                                  
  24698371.486   131795208.7221                                 
  20941998.003   110050849.070                                  
  22218232.032   116757570.016                                  
  22396396.208   117693857.134                                  
  19298691.037   103198819.166                                  
  24877350.516   130731395.408                                  
  24692412.795   129759532.597                                  
  21013472.699   110426572.361                                  
  20905251.265   109857846.451                                  
  21139321.684   113081119.830                                  
  21980244.462   115506988.759                                  
 16  8 27  8 51 11.0000000  0 18G12R13R14R17R15G23G14R 6G31G25G26R24
                                G 5G20G 4G29R23G21
  25339832.381   133161644.516                                  
  20762654.680   110871287.077                                  
  19250170.077   102614299.744                                  
  21838747.688   116863578.261                                  
  21804390.730   116516019.552                                  
  25622646.943   134647924.281                                  
  24833592.211   130501397.112                                  
  24698689.568   131796907.395                                  
  20942124.447   110051512.295                                  
  22218747.965   116760280.301                                  
  22395970.562   117691620.135                                  
  19298752.811   103199149.392                                  
  24877221.420   130730715.128                                  
  24691973.852   129757227.395                                  
  21013207.944   110425180.629                                  
  20905670.314   109860048.757                                  
  21139995.298   113084725.508                                  
  21979926.868   115505319.817                                  
 16  8 27  8 51 12.0000000  0 18G12R13R14R17R15G23G14R 6G31G25G26R24
                                G 5G20G 4G29R23G21
  25340488.055   133165089.460                                  
  20763297.581   110874718.684                                  
  19250023.321   102613516.228                                  
  21838177.415   116860526.766                                  
  21803772.644   116512716.088                                  
  25622567.091   134647502.336                                  
  24834191.312   130504575.852                                  
  24699006.674   131798606.832                                  
  20942250.438   110052176.170                                  
  22219263.584   116762990.881                                  
  22395544.777   117689383.325                                  
  19298814.654   103199480.333                                  
  24877092.044   130730035.377                                  
  24691535.642   129754922.312                                  
  21012943.294   110423789.230                                  
  20906089.573   109862251.406                                  
  21140669.016   113088331.516                                  
  21979609.274   115503651.324                                  
 16  8 27  8 51 13.0000000  0 18G12R13R14R17R15G23G14R 6G31G25G26R24
                                G 5G20G 4G29R23G21
  25341143.625   133168534.536                                  
  20763940.168   110878150.952                                  
  19249876.494   102612733.556                                  
  21837606.968   116857475.818                                  
  21803154.592   116509412.944                                  
  25622487.657   134647081.034                                  
  24834793.205   130507754.759                                  
  24699328.072   131800306.927                                  
  20942377.161   110052840.722                                  
  22219779.657   116765701.805                                  
  22395119.061   117687146.751                                  
  19298876.498   103199812.082                                  
  24876962.738   130729356.218                                  
  24691096.874   129752617.470                                  
  21012678.295   110422398.216                                  
  20906508.588   109864454.435                                  
  21141342.873   113091937.912                                  
  21979292.378   115501983.338                                  
 16  8 27  8 51 14.0000000  0 18G12R13R14R17R15G23G14R 6G31G25G26R24
                                G 5G20G 4G29R23G21
  25341799.300   133171979.702                                  
  20764583.313   110881583.845                                  
  19249729.703   102611951.691                                  
  21837036.590   116854425.330                                  
  21802536.505   116506110.198                                  
  25622410.737   134646660.270                                  
  24835398.623   130510933.748                                  
  24699645.910   131802007.936                                  
  20942503.780   110053505.976                                  
  22220295.590   116768413.072                                  
  22394693.380   117684910.424                                  
  19298938.586   103200144.584                                  
  24876833.536   130728677.639                                  
  24690658.140   129750312.834                                  
  21012413.785   110421007.581                                  
  20906927.847   109866657.836                                  
  21142016.521   113095544.691                                  
  21978974.924   115500315.833                                  
 16  8 27  8 51 15.0000000  0 18G12R13R14R17R15G23G14R 6G31G25G26R24
                                G 5G20G 4G29R23G21
  25342455.393   133175425.143                                  
  20765226.319   110885017.407                                  
  19249583.121   102611170.710                                  
  21836466.282   116851375.413                                  
  21801918.663   116502807.894                                  
  25622324.498   134646240.209                                  
  24836010.462   130514112.928                                  
  24699965.912   131803709.696                                  
  20942630.329   110054171.989                                  
  22220812.012   116771124.754                                  
  22394268.049   117682674.417                                  
  19299000.743   103200477.916                                  
  24876704.719   130727999.743                                  
  24690219.791   129748008.494                                  
  21012149.309   110419617.420                                  
  20907347.490   109868861.694                                  
  21142690.588   113099151.915                                  
  21978657.574   115498648.956                                  
 16  8 27  8 51 16.0000000  0 18G12R13R14R17R15G23G14R 6G31G25G26R24
                                G 5G20G 4G29R23G21
  25343110.893   133178870.608                                  
  20765869.150   110888451.559                                  
  19249436.609   102610390.438                                  
  21835896.253   116848325.870                                  
  21801300.750   116499505.862                                  
  25622253.371   134645820.671                                  
  24836614.833   130517292.147                                  
  24700284.309   131805412.205                                  
  20942757.541   110054838.625                                  
  22221328.085   116773836.704                                  
  22393842.333   117680438.568                                  
  19299063.006   103200811.930                                  
  24876575.936   130727322.303                                  
  24689781.895   129745704.283                                  
  21011884.904   110418227.536                                  
  20907766.818   109871065.855                                  
  21143364.586   113102759.409                                  
  21978340.190   115496982.505                                  
 16  8 27  8 51 17.0000000  0 18G12R13R14R17R15G23G14R 6G31G25G26R24
                                G 5G20G 4G29R23G21
  25343766.323   133182316.105                                  
  20766511.876   110891886.155                                  
  19249290.411   102609610.888                                  
  21835326.399   116845276.631                                  
  21800683.397   116496204.063                                  
  25622174.426   134645401.653                                  
  24837217.075   130520471.369                                  
  24700606.998   131807115.297                                  
  20942884.335   110055505.827                                  
  22221844.332   116776548.887                                  
  22393416.862   117678202.841                                  
  19299125.478   103201146.692                                  
  24876447.154   130726645.351                                  
  24689343.092   129743400.117                                  
  21011620.498   110416837.943                                  
  20908186.217   109873270.278                                  
  21144038.688   113106367.161                                  
  21978022.840   115495316.442                                  
 16  8 27  8 51 18.0000000  0 18G12R13R14R17R15G23G14R 6G31G25G26R24
                                G 5G20G 4G29R23G21
  25344422.067   133185761.681                                  
  20767155.196   110895321.417                                  
  19249144.283   102608832.114                                  
  21834756.475   116842227.861                                  
  21800065.729   116492902.585                                  
  25622099.111   134644983.157                                  
  24837821.132   130523650.648                                  
  24700924.243   131808819.116                                  
  20943011.442   110056173.687                                  
  22222360.754   116779261.362                                  
  22392991.286   117675967.308                                  
  19299187.810   103201482.128                                  
  24876318.546   130725968.942                                  
  24688904.952   129741096.201                                  
  21011356.057   110415448.689                                  
  20908605.615   109875475.038                                  
  21144712.789   113109975.253                                  
  21977705.769   115493650.844                                  
 16  8 27  8 51 19.0000000  0 19G12R13R14R17R15G16G23G14R 6G31G25G26
                                R24G 5G20G 4G29R23G21
  25345077.846   133189207.240                                  
  20767798.446   110898757.094                                  
  19248998.539   102608054.001                                  
  21834186.760   116839179.404                                  
  21799448.200   116489601.307                                  
  24510935.626                                                  
  25622019.014   134644565.152                                  
  24838428.294   130526829.924                                  
  24701242.570   131810523.589                                  
  20943138.794   110056842.076                                  
  22222877.071   116781974.012                                  
  22392565.675   117673731.859                                  
  19299250.526   103201818.205                                  
  24876189.868   130725292.917                                  
  24688466.603   129738792.276                                  
  21011091.652   110414059.645                                  
  20909025.223   109877680.018                                  
  21145387.380   113113583.580                                  
  21977388.734   115491985.594                                  
 16  8 27  8 51 20.0000000  0 19G12R13R14R17R15G16G23G14R 6G31G25G26
                                R24G 5G20G 4G29R23G21
  25345733.695   133192653.023                                  
  20768442.080   110902193.499                                  
  19248852.690   102607276.780                                  
  21833617.150   116836131.528                                  
  21798830.742   116486300.468                                  
  24510409.153   128803069.0663                                 
  25621934.660   134644147.822                                  
  24839036.609   130530009.373                                  
  24701561.316   131812228.941                                  
  20943265.936   110057511.249                                  
  22223393.353   116784687.113                                  
  22392140.344   117671496.737                                  
  19299313.416   103202155.191                                  
  24876061.259   130724617.582                                  
  24688028.253   129736488.660                                  
  21010827.281   110412671.098                                  
  20909444.587   109879885.465                                  
  21146062.145   113117192.410                                  
  21977072.047   115490320.939                                  
 16  8 27  8 51 21.0000000  0 19G12R13R14R17R15G16G23G14R 6G31G25G26
                                R24G 5G20G 4G29R23G21
  25346389.091   133196098.958                                  
  20769085.434   110905630.567                                  
  19248707.051   102606500.419                                  
  21833047.714   116833084.187                                  
  21798213.179   116483000.036                                  
  24509872.873   128800270.6012                                 
  25621855.541   134643731.136                                  
  24839628.102   130533188.989                                  
  24701882.051   131813935.004                                  
  20943393.183   110058181.127                                  
  22223909.565   116787400.560                                  
  22391714.768   117669261.875                                  
  19299376.621   103202492.910                                  
  24875932.651   130723942.842                                  
  24687589.799   129734185.300                                  
  21010562.980   110411282.935                                  
  20909864.579   109882091.309                                  
  21146737.015   113120801.601                                  
  21976754.977   115488656.799                                  
 16  8 27  8 51 22.0000000  0 19G12R13R14R17R15G16G23G14R 6G31G25G26
                                R24G 5G20G 4G29R23G21
  25347044.695   133199544.822                                  
  20769728.649   110909068.004                                  
  19248561.376   102605724.611                                  
  21832478.523   116830037.046                                  
  21797595.895   116479699.707                                  
  24509346.644   128797471.9892                                 
  25621776.945   134643314.809                                  
  24840235.509   130536368.512                                  
  24702202.576   131815641.767                                  
  20943520.744   110058851.477                                  
  22224425.917   116790114.122                                  
  22391289.297   117667027.030                                  
  19299439.756   103202831.153                                  
  24875803.973   130723268.450                                  
  24687151.380   129731881.912                                  
  21010299.098   110409894.945                                  
  20910284.257   109884297.302                                  
  21147411.954   113124410.961                                  
  21976438.255   115486992.946                                  
 16  8 27  8 51 23.0000000  0 19G12R13R14R17R15G16G23G14R 6G31G25G26
                                R24G 5G20G 4G29R23G21
  25347700.160   133202990.838                                  
  20770371.864   110912506.141                                  
  19248416.086   102604949.636                                  
  21831909.192   116826990.379                                  
  21796978.436   116476399.781                                  
  24508809.770   128794673.5482                                 
  25621696.150   134642899.160                                  
  24840841.101   130539548.123                                  
  24702525.615   131817349.135                                  
  20943648.270   110059522.536                                  
  22224942.199   116792828.050                                  
  22390864.244   117664792.438                                  
  19299503.100   103203170.258                                  
  24875675.400   130722594.655                                  
  24686713.135   129729578.739                                  
  21010035.006   110408507.344                                  
  20910703.934   109886503.684                                  
  21148087.068   113128020.696                                  
  21976121.778   115485329.620                                  
 16  8 27  8 51 24.0000000  0 19G12R13R14R17R15G16G23G14R 6G31G25G26
                                R24G 5G20G 4G29R23G21
  25348355.800   133206436.884                                  
  20771015.708   110915944.746                                  
  19248270.865   102604175.356                                  
  21831340.106   116823944.088                                  
  21796361.013   116473100.099                                  
  24508275.654   128791874.9872                                 
  25621617.066   134642483.966                                  
  24841445.437   130542727.729                                  
  24702844.675   131819057.315                                  
  20943776.320   110060194.195                                  
  22225458.691   116795542.211                                  
  22390439.157   117662557.998                                  
  19299566.410   103203510.075                                  
  24875547.211   130721921.343                                  
  24686274.611   129727275.666                                  
  21009771.124   110407120.038                                  
  20911123.926   109888710.360                                  
  21148762.112   113131630.730                                  
  21975805.476   115483666.696                                  
 16  8 27  8 51 25.0000000  0 19G12R13R14R17R15G16G23G14R 6G31G25G26
                                R24G 5G20G 4G29R23G21
  25349011.300   133209883.078                                  
  20771659.307   110919384.018                                  
  19248125.679   102603401.906                                  
  21830770.775   116820898.286                                  
  21795743.729   116469800.803                                  
  24507746.424   128789076.6232                                 
  25621537.982   134642069.426                                  
  24842049.110   130545907.428                                  
  24703163.071   131820766.137                                  
  20943904.160   110060866.541                                  
  22225975.357   116798256.740                                  
  22390013.860   117660323.795                                  
  19299630.138   103203850.565                                  
  24875418.673   130721248.629                                  
  24685836.261   129724972.796                                  
  21009507.346   110405733.112                                  
  20911543.778   109890917.406                                  
  21149437.645   113135241.080                                  
  21975489.033   115482004.286                                  
 16  8 27  8 51 26.0000000  0 19G12R13R14R17R15G16G23G14R 6G31G25G26
                                R24G 5G20G 4G29R23G21
  25349666.765   133213329.431                                  
  20772303.289   110922823.909                                  
  19247980.807   102602629.301                                  
  21830201.898   116817852.973                                  
  21795126.375   116466501.870                                  
  24507218.276   128786278.3202                                 
  25621459.176   134641655.506                                  
  24842652.120   130549087.390                                  
  24703484.225   131822475.835                                  
  20944032.280   110061539.606                                  
  22226492.128   116800971.619                                  
  22389588.878   117658089.864                                  
  19299694.285   103204191.908                                  
  24875290.797   130720576.517                                  
  24685398.017   129722670.211                                  
  21009243.569   110404346.587                                  
  20911963.666   109893124.863                                  
  21150112.899   113138851.850                                  
  21975172.661   115480342.414                                  
 16  8 27  8 51 27.0000000  0 19G12R13R14R17R15G16G23G14R 6G31G25G26
                                R24G 5G20G 4G29R23G21
  25350322.300   133216775.720                                  
  20772947.063   110926264.243                                  
  19247836.320   102601857.310                                  
  21829633.091   116814807.973                                  
  21794508.986   116463203.097                                  
  24506678.157   128783479.9582                                 
  25621379.918   134641242.019                                  
  24843257.607   130552267.080                                  
  24703803.006   131824186.122                                  
  20944160.539   110062213.163                                  
  22227008.549   116803686.641                                  
  22389163.825   117655855.964                                  
  19299758.153   103204533.825                                  
  24875162.643   130719904.776                                  
  24684959.877   129720367.618                                  
  21008979.896   110402960.242                                  
  20912383.867   109895332.491                                  
  21150788.222   113142462.806                                  
  21974856.428   115478680.827                                  
 16  8 27  8 51 28.0000000  0 19G12R13R14R17R15G16G23G14R 6G31G25G26
                                R24G 5G20G 4G29R23G21
  25350977.835   133220222.162                                  
  20773591.150   110929705.191                                  
  19247691.727   102601086.120                                  
  21829064.214   116811763.450                                  
  21793891.632   116459904.725                                  
  24506149.764   128780681.5482                                 
  25621300.694   134640829.092                                  
  24843859.989   130555447.071                                  
  24704121.367   131825897.079                                  
  20944289.042   110062887.413                                  
  22227525.390   116806402.022                                  
  22388738.947   117653622.312                                  
  19299822.265   103204876.509                                  
  24875034.698   130719233.631                                  
  24684521.702   129718065.219                                  
  21008716.153   110401574.311                                  
  20912804.173   109897540.509                                  
  21151463.720   113146074.115                                  
  21974540.056   115477019.772                                  
 16  8 27  8 51 29.0000000  0 19G12R13R14R17R15G16G23G14R 6G31G25G26
                                R24G 5G20G 4G29R23G21
  25351633.614   133223668.619                                  
  20774235.343   110933146.653                                  
  19247547.239   102600315.667                                  
  21828495.127   116808719.278                                  
  21793274.837   116456606.585                                  
  24505616.032   128777883.2452                                 
  25621220.806   134640416.705                                  
  24844462.580   130558626.917                                  
  24704441.718   131827608.715                                  
  20944417.685   110063562.250                                  
  22228042.056   116809117.624                                  
  22388314.104   117651388.794                                  
  19299886.272   103205219.815                                  
  24874906.509   130718562.961                                  
  24684083.178   129715762.935                                  
  21008452.341   110400188.626                                  
  20913224.199   109899748.792                                  
  21152139.253   113149685.713                                  
  21974223.439   115475359.101                                  
 16  8 27  8 51 30.0000000  0 18G12R13R14R17R15G16G23R 6G31G25G26R24
                                G 5G20G 4G29R23G21
  25352289.114   133227115.246                                  
  20774879.640   110936588.767                                  
  19247403.031   102599546.089                                  
  21827926.459   116805675.589                                  
  21792657.867   116453308.857                                  
  24505082.334   128775085.0372                                 
  25621136.906   134640004.967                                  
  24704767.619   131829321.193                                  
  20944546.363   110064237.814                                  
  22228558.966   116811833.614                                  
  22387889.541   117649155.563                                  
  19299950.908   103205564.003                                  
  24874778.668   130717892.900                                  
  24683645.107   129713460.900                                  
  21008188.564   110398803.395                                  
  20913644.436   109901957.501                                  
  21152815.030   113153297.729                                  
  21973907.625   115473698.996                                  
 16  8 27  8 51 31.0000000  0 18G12R13R14R17R15G16G23R 6G31G25G26R24
                                G 5G20G 4G29R23G21
  25352944.998   133230561.865                                  
  20775524.181   110940031.344                                  
  19247258.927   102598777.120                                  
  21827357.792   116802632.198                                  
  21792040.723   116450011.315                                  
  24504551.219   128772286.8052                                 
  25621056.635   134639593.625                                  
  24705090.727   131831034.259                                  
  20944675.111   110064913.905                                  
  22229076.121   116814549.780                                  
  22387464.663   117646922.395                                  
  19300015.439   103205908.680                                  
  24874650.409   130717223.240                                  
  24683206.932   129711158.932                                  
  21007924.961   110397418.361                                  
  20914064.776   109904166.409                                  
  21153490.807   113156909.945                                  
  21973591.706   115472039.211                                  
 16  8 27  8 51 32.0000000  0 18G12R13R14R17R15G16G23R 6G31G25G26R24
                                G 5G20G 4G29R23G21
  25353600.917   133234008.582                                  
  20776168.757   110943474.534                                  
  19247114.963   102598008.964                                  
  21826788.915   116799589.275                                  
  21791423.927   116446714.142                                  
  24504016.894   128769488.5572                                 
  25620975.910   134639182.927                                  
  24705405.808   131832748.095                                  
  20944803.649   110065590.671                                  
  22229593.171   116817266.267                                  
  22387039.994   117644689.460                                  
  19300080.284   103206254.245                                  
  24874522.848   130716554.150                                  
  24682768.827   129708857.096                                  
  21007661.497   110396033.710                                  
  20914485.047   109906375.678                                  
  21154166.654   113160522.496                                  
  21973276.067   115470379.928                                  
 16  8 27  8 51 33.0000000  0 18G12R13R14R17R15G16G23R 6G31G25G26R24
                                G 5G20G 4G29R23G21
  25354256.766   133237455.526                                  
  20776813.403   110946918.454                                  
  19246970.998   102597241.727                                  
  21826220.282   116796546.901                                  
  21790806.992   116443417.392                                  
  24503486.198   128766690.4902                                 
  25620895.709   134638772.977                                  
  24705727.346   131834462.727                                  
  20944932.990   110066268.217                                  
  22230110.151   116819983.179                                  
  22386614.942   117642456.846                                  
  19300145.268   103206600.601                                  
  24874395.322   130715885.749                                  
  24682330.268   129706555.570                                  
  21007397.999   110394649.524                                  
  20914905.388   109908585.406                                  
  21154842.711   113164135.530                                  
  21972960.462   115468721.220                                  
 16  8 27  8 51 34.0000000  0 18G12R13R14R17R15G16G23R 6G31G25G26R24
                                G 5G20G 4G29R23G21
  25354912.301   133240902.459                                  
  20777458.433   110950362.866                                  
  19246827.313   102596475.113                                  
  21825651.684   116793504.902                                  
  21790190.162   116440120.877                                  
  24502953.687   128763892.4132                                 
  25620821.301   134638363.405                                  
  24706033.423   131836178.002                                  
  20945062.122   110066946.317                                  
  22230627.061   116822700.287                                  
  22386190.238   117640224.330                                  
  19300210.392   103206947.679                                  
  24874267.866   130715217.764                                  
  24681892.128   129704254.148                                  
  21007134.536   110393265.576                                  
  20915325.659   109910795.378                                  
  21155518.418   113167748.793                                  
  21972645.067   115467062.896                                  
 16  8 27  8 51 35.0000000  0 18G12R13R14R17R15G16G23R 6G31G25G26R24
                                G 5G20G 4G29R23G21
  25355568.254   133244349.500                                  
  20778103.044   110953807.870                                  
  19246683.768   102595709.343                                  
  21825083.365   116790463.331                                  
  21789573.192   116436824.659                                  
  24502421.490   128761094.4422                                 
  25620743.787   134637954.458                                  
  24706357.334   131837894.066                                  
  20945191.393   110067625.075                                  
  22231144.181   116825417.719                                  
  22385766.058   117637992.040                                  
  19300275.586   103207295.458                                  
  24874140.235   130714550.328                                  
  24681453.779   129701952.940                                  
  21006871.037   110391881.991                                  
  20915745.930   109913005.692                                  
  21156194.335   113171362.395                                  
  21972329.637   115465405.047                                  
 16  8 27  8 51 36.0000000  0 18G12R13R14R17R15G16G23R 6G31G25G26R24
                                G 5G20G 4G29R23G21
  25356223.999   133247796.643                                  
  20778748.388   110957253.438                                  
  19246540.292   102594944.309                                  
  21824514.977   116787422.258                                  
  21788956.781   116433528.802                                  
  24501889.119   128758296.4142                                 
  25620665.017   134637546.072                                  
  24706680.965   131839610.825                                  
  20945320.734   110068304.491                                  
  22231661.231   116828135.450                                  
  22385341.495   117635759.943                                  
  19300341.060   103207643.990                                  
  24874013.058   130713883.442                                  
  24681015.429   129699651.835                                  
  21006607.748   110390498.747                                  
  20916166.865   109915216.355                                  
  21156870.391   113174976.328                                  
  21972013.753   115463747.657                                  
 16  8 27  8 51 37.0000000  0 18G12R13R14R17R15G16G23R 6G31G25G26R24
                                G 5G20G 4G29R23G21
  25356879.813   133251243.804                                  
  20779393.487   110960699.570                                  
  19246396.886   102594180.017                                  
  21823946.972   116784381.503                                  
  21788339.915   116430233.166                                  
  24501356.817   128755497.8741                                 
  25620585.863   134637138.189                                  
  24706998.873   131841328.183                                  
  20945450.459   110068984.468                                  
  22232178.072   116830853.414                                  
  22384916.477   117633527.961                                  
  19300406.533   103207993.195                                  
  24873885.950   130713217.028                                  
  24680577.324   129697350.876                                  
  21006344.529   110389115.766                                  
  20916587.450   109917427.267                                  
  21157546.552   113178590.509                                  
  21971698.392   115462090.657                                  
 16  8 27  8 51 38.0000000  0 18G12R13R14R17R15G16G23R 6G31G25G26R24
                                G 5G20G 4G29R23G21
  25357535.976   133254691.077                                  
  20780038.657   110964146.294                                  
  19246253.515   102593416.451                                  
  21823378.898   116781341.164                                  
  21787723.364   116426937.881                                  
  24500824.272   128752699.891                                  
  25620508.628   134636730.770                                  
  24707324.704   131843046.339                                  
  20945579.870   110069665.124                                  
  22232695.261   116833571.669                                  
  22384491.913   117631296.193                                  
  19300471.971   103208343.075                                  
  24873759.192   130712551.127                                  
  24680139.149   129695050.032                                  
  21006081.275   110387733.128                                  
  20917007.965   109919638.530                                  
  21158222.853   113182205.031                                  
  21971383.241   115460434.133                                  
 16  8 27  8 51 39.0000000  0 18G12R13R14R17R15G16G23R 6G31G25G26R24
                                G 5G20G 4G29R23G21
  25358192.209   133258138.504                                  
  20780683.861   110967593.632                                  
  19246110.598   102592653.757                                  
  21822810.998   116778301.305                                  
  21787106.918   116423643.017                                  
  24500291.621   128749902.039                                  
  25620429.509   134636324.113                                  
  24707645.718   131844765.256                                  
  20945709.699   110070346.495                                  
  22233212.765   116836290.310                                  
  22384067.594   117629064.699                                  
  19300537.759   103208693.784                                  
  24873632.154   130711885.854                                  
  24679701.393   129692749.507                                  
  21005818.301   110386350.928                                  
  20917428.829   109921850.196                                  
  21158899.049   113185819.961                                  
  21971068.300   115458778.141                                  
 16  8 27  8 51 40.0000000  0 18G12R13R14R17R15G16G23R 6G31G25G26R24
                                G 5G20G 4G29R23G21
  25358848.267   133261585.906                                  
  20781329.694   110971041.436                                  
  19245967.715   102591891.710                                  
  21822243.168   116775261.765                                  
  21786490.751   116420348.318                                  
  24499758.971   128747104.094                                  
  25620352.274   134635917.885                                  
  24707970.816   131846484.829                                  
  20945839.354   110071028.401                                  
  22233730.024   116839009.118                                  
  22383643.065   117626833.279                                  
  19300603.651   103209045.084                                  
  24873505.536   130711221.011                                  
  24679263.462   129690448.988                                  
  21005555.361   110384968.925                                  
  20917849.868   109924062.084                                  
  21159575.000   113189435.074                                  
  21970753.533   115457122.496                                  
 16  8 27  8 51 41.0000000  0 18G12R13R14R17R15G16G23R 6G31G25G26R24
                                G 5G20G 4G29R23G21
  25359504.674   133265033.445                                  
  20781975.387   110974489.826                                  
  19245824.763   102591130.460                                  
  21821675.338   116772222.683                                  
  21785874.304   116417053.995                                  
  24499227.472   128744306.257                                  
  25620275.912   134635512.179                                  
  24708295.808   131848205.090                                  
  20945969.638   110071710.965                                  
  22234247.528   116841728.237                                  
  22383218.466   117624602.080                                  
  19300669.368   103209397.139                                  
  24873379.021   130710556.787                                  
  24678825.567   129688148.676                                  
  21005292.665   110383587.302                                  
  20918270.628   109926274.316                                  
  21160251.406   113193050.537                                  
  21970438.382   115455467.320                                  
 16  8 27  8 51 42.0000000  0 18G12R13R14R17R15G16G23R 6G31G25G26R24
                                G 5G20G 4G29R23G21
  25360160.488   133268481.069                                  
  20782621.184   110977938.834                                  
  19245682.195   102590370.005                                  
  21821107.473   116769184.068                                  
  21785258.137   116413759.978                                  
  24498692.204   128741508.512                                  
  25620206.879   134635107.159                                  
  24708619.161   131849926.174                                  
  20946099.816   110072394.210                                  
  22234764.787   116844447.704                                  
  22382793.693   117622371.104                                  
  19300735.435   103209750.003                                  
  24873252.647   130709893.054                                  
  24678387.915   129685848.509                                  
  21005029.795   110382206.035                                  
  20918691.702   109928486.904                                  
  21160927.741   113196666.400                                  
  21970123.475   115453812.639                                  
 16  8 27  8 51 43.0000000  0 18G12R13R14R17R15G16G23R 6G31G25G26R24
                                G 5G20G 4G29R23G21
  25360816.652   133271928.794                                  
  20783266.842   110981388.462                                  
  19245539.801   102589610.371                                  
  21820539.608   116766145.923                                  
  21784641.935   116410466.343                                  
  24498155.680   128738710.737                                  
  25620138.125   134634702.693                                  
  24708944.642   131851648.022                                  
  20946230.135   110073078.129                                  
  22235282.605   116847167.490                                  
  22382369.094   117620140.359                                  
  19300801.780   103210103.561                                  
  24873126.168   130709229.914                                  
  24677949.985   129683548.587                                  
  21004767.134   110380825.132                                  
  20919112.880   109930699.866                                  
  21161604.112   113200282.611                                  
  21969808.848   115452158.450                                  
 16  8 27  8 51 44.0000000  0 18G12R13R14R17R15G16G23R 6G31G25G26R24
                                G 5G20G 4G29R23G21
  25361472.535   133275376.579                                  
  20783912.640   110984838.593                                  
  19245397.024   102588851.412                                  
  21819972.022   116763108.169                                  
  21784025.628   116407172.928                                  
  24497625.018   128735913.026                                  
  25620061.903   134634298.656                                  
  24709271.764   131853370.436                                  
  20946360.313   110073762.635                                  
  22235800.213   116849887.500                                  
  22381944.600   117617909.743                                  
  19300868.301   103210457.861                                  
  24872999.863   130708567.244                                  
  24677511.810   129681248.734                                  
  21004504.194   110379444.515                                  
  20919534.233   109932913.085                                  
  21162280.412   113203899.102                                  
  21969494.151   115450504.676                                  
 16  8 27  8 51 45.0000000  0 18G12R13R14R17R15G16G23R 6G31G25G26R24
                                G 5G20G 4G29R23G21
  25362128.245   133278824.203                                  
  20784559.066   110988289.032                                  
  19245254.700   102588092.995                                  
  21819404.750   116760070.554                                  
  21783409.670   116403879.545                                  
  24497096.137   128733115.048                                  
  25619982.190   134633895.024                                  
  24709597.630   131855093.393                                  
  20946490.387   110074447.537                                  
  22236317.961   116852607.552                                  
  22381520.386   117615679.065                                  
  19300934.646   103210812.573                                  
  24872874.187   130707904.849                                  
  24677073.739   129678948.838                                  
  21004241.534   110378063.979                                  
  20919955.377   109935126.386                                  
  21162956.783   113207515.647                                  
  21969179.698   115448851.102                                  
 16  8 27  8 51 46.0000000  0 18G12R13R14R17R15G16G23R 6G31G25G26R24
                                G 5G20G 4G29R23G21
  25362784.373   133282272.002                                  
  20785205.143   110991740.186                                  
  19245112.341   102587335.467                                  
  21818836.920   116757033.428                                  
  21782793.294   116400586.591                                  
  24496562.230   128730317.270                                  
  25619906.526   134633491.993                                  
  24709920.738   131856817.118                                  
  20946621.159   110075133.190                                  
  22236835.605   116855328.019                                  
  22381095.927   117613448.694                                  
  19301001.027   103211168.149                                  
  24872748.440   130707243.093                                  
  24676635.529   129676649.202                                  
  21003978.873   110376683.894                                  
  20920376.765   109937340.127                                  
  21163633.188   113211132.624                                  
  21968865.245   115447198.093                                  
 16  8 27  8 51 47.0000000  0 18G12R13R14R17R15G16G23R 6G31G25G26R24
                                G 5G20G 4G29R23G21
  25363440.257   133285719.993                                  
  20785851.464   110995191.942                                  
  19244970.435   102586578.723                                  
  21818269.369   116753996.785                                  
  21782176.987   116397294.058                                  
  24496029.301   128727519.551                                  
  25619829.501   134633089.629                                  
  24710242.241   131858541.600                                  
  20946751.896   110075819.526                                  
  22237353.283   116858048.821                                  
  22380671.433   117611218.549                                  
  19301067.826   103211524.467                                  
  24872622.659   130706581.886                                  
  24676197.669   129674349.750                                  
  21003716.212   110375304.195                                  
  20920798.013   109939554.232                                  
  21164309.524   113214749.944                                  
  21968550.582   115445545.594                                  
 16  8 27  8 51 48.0000000  0 18G12R13R14R17R15G16G23R 6G31G25G26R24
                                G 5G20G 4G29R23G21
  25364096.420   133289167.967                                  
  20786497.925   110998644.204                                  
  19244828.461   102585822.685                                  
  21817702.028   116750960.539                                  
  21781561.029   116394001.793                                  
  24495498.186   128724721.805                                  
  25619755.302   134632687.721                                  
  24710567.338   131860266.705                                  
  20946882.703   110076506.457                                  
  22237870.926   116860769.842                                  
  22380247.008   117608988.556                                  
  19301134.626   103211881.484                                  
  24872497.227   130705921.192                                  
  24675760.192   129672050.430                                  
  21003453.796   110373924.770                                  
  20921219.401   109941768.618                                  
  21164986.103   113218367.540                                  
  21968236.095   115443893.502                                  
 16  8 27  8 51 49.0000000  0 18G12R13R14R17R15G16G23R 6G31G25G26R24
                                G 5G20G 4G29R23G21
  25364752.513   133292615.928                                  
  20787143.862   111002096.973                                  
  19244686.765   102585067.362                                  
  21817134.547   116747924.617                                  
  21780945.071   116390709.701                                  
  24494965.710   128721923.990                                  
  25619679.289   134632286.292                                  
  24710892.017   131861992.526                                  
  20947013.545   110077193.926                                  
  22238389.232   116863491.073                                  
  22379822.898   117606758.646                                  
  19301201.774   103212239.123                                  
  24872371.376   130705260.943                                  
  24675322.889   129669751.176                                  
  21003191.205   110372545.579                                  
  20921640.928   109943983.231                                  
  21165662.683   113221985.342                                  
  21967921.467   115442241.765                                  
 16  8 27  8 51 50.0000000  0 18G12R13R14R17R15G16G23R 6G31G25G26R24
                                G 5G20G 4G29R23G21
  25365408.432   133296064.015                                  
  20787790.393   111005550.364                                  
  19244545.383   102584312.787                                  
  21816566.996   116744889.170                                  
  21780329.044   116387417.994                                  
  24494433.548   128719126.286                                  
  25619602.683   134631885.493                                  
  24711213.066   131863719.040                                  
  20947144.212   110077882.079                                  
  22238906.841   116866212.653                                  
  22379398.579   117604528.984                                  
  19301268.783   103212597.513                                  
  24872245.944   130704601.267                                  
  24674885.656   129667452.112                                  
  21002928.998   110371166.773                                  
  20922062.595   109946198.213                                  
  21166339.438   113225603.519                                  
  21967606.979   115440590.519                                  
 16  8 27  8 51 51.0000000  0 18G12R13R14R17R15G16G23R 6G31G25G26R24
                                G 5G20G 4G29R23G21
  25366064.351   133299512.373                                  
  20788437.063   111009004.416                                  
  19244404.246   102583559.151                                  
  21815999.829   116741854.348                                  
  21779712.912   116384126.726                                  
  24493901.002   128716328.814                                  
  25619525.832   134631485.369                                  
  24711533.033   131865446.464                                  
  20947275.472   110078571.022                                  
  22239424.659   116868934.654                                  
  22378974.155   117602299.651                                  
  19301336.071   103212956.793                                  
  24872120.756   130703942.276                                  
  24674448.180   129665153.348                                  
  21002666.931   110369788.451                                  
  20922484.297   109948413.673                                  
  21167016.192   113229222.178                                  
  21967292.910   115438939.888                                  
 16  8 27  8 51 52.0000000  0 18G12R13R14R17R15G16G23R 6G31G25G26R24
                                G 5G20G 4G29R23G21
  25366720.619   133302960.757                                  
  20789084.187   111012459.079                                  
  19244263.248   102582806.224                                  
  21815432.732   116738819.888                                  
  21779096.849   116380835.762                                  
  24493368.806   128713531.207                                  
  25619449.121   134631085.753                                  
  24711859.213   131867174.561                                  
  20947406.663   110079260.575                                  
  22239942.616   116871656.906                                  
  22378549.730   117600070.483                                  
  19301403.394   103213316.709                                  
  24871995.533   130703283.746                                  
  24674010.703   129662854.745                                  
  21002404.759   110368410.432                                  
  20922905.476   109950629.404                                  
  21167692.842   113232841.125                                  
  21966979.190   115437289.676                                  
 16  8 27  8 51 53.0000000  0 19G12R13R14R17R15G16G23R 6G31G25G26G14
                                R24G 5G20G 4G29R23G21
  25367376.747   133306409.187                                  
  20789730.927   111015914.224                                  
  19244122.076   102582054.057                                  
  21814865.600   116735785.818                                  
  21778481.031   116377545.056                                  
  24492836.225   128710733.701                                  
  25619373.108   134630686.684                                  
  24712185.043   131868903.287                                  
  20947537.924   110079950.732                                  
  22240460.852   116874379.440                                  
  22378125.585   117597841.474                                  
  24858997.739                                                  
  19301470.926   103213677.346                                  
  24871870.345   130702625.723                                  
  24673568.479   129660556.259                                  
  21002142.482   110367032.721                                  
  20923327.178   109952845.440                                  
  21168369.701   113236460.359                                  
  21966665.435   115435639.894                                  
 16  8 27  8 51 54.0000000  0 18G12R13R14R17R15G16G23R 6G31G25G26R24
                                G 5G20G 4G29R23G21
  25368032.700   133309857.680                                  
  20790377.876   111019369.929                                  
  19243980.834   102581302.613                                  
  21814298.712   116732752.119                                  
  21777865.213   116374254.688                                  
  24492303.400   128707936.224                                  
  25619297.164   134630288.235                                  
  24712509.443   131870632.723                                  
  20947669.394   110080641.514                                  
  22240979.298   116877102.234                                  
  22377701.650   117595612.622                                  
  19301538.633   103214038.649                                  
  24871745.158   130701968.226                                  
  24673135.539   129658257.897                                  
  21001880.275   110365655.317                                  
  20923749.089   109955061.779                                  
  21169046.280   113240079.890                                  
  21966351.715   115433990.546                                  
 16  8 27  8 51 55.0000000  0 18G12R13R14R17R15G16G23R 6G31G25G26R24
                                G 5G20G 4G29R23G21
  25368688.654   133313306.323                                  
  20791025.000   111022826.258                                  
  19243840.115   102580551.996                                  
  21813731.824   116729718.902                                  
  21777249.709   116370964.626                                  
  24491768.865   128705138.720                                  
  25619217.417   134629890.281                                  
  24712834.261   131872362.915                                  
  20947800.619   110081332.953                                  
  22241497.605   116879825.330                                  
  22377277.505   117593383.991                                  
  19301606.584   103214400.747                                  
  24871620.109   130701311.267                                  
  24672694.398   129655959.712                                  
  21001618.033   110364278.257                                  
  20924170.965   109957278.467                                  
  21169723.419   113243699.797                                  
  21966038.030   115432341.658                                  
 16  8 27  8 51 56.0000000  0 18G12R13R14R17R15G16G23R 6G31G25G26R24
                                G 5G20G 4G29R23G21
  25369344.713   133316755.152                                  
  20791672.263   111026283.275                                  
  19243699.501   102579802.279                                  
  21813165.076   116726686.222                                  
  21776634.170   116367675.039                                  
  24491233.457   128702341.405                                  
  25619133.586   134629493.004                                  
  24713159.673   131874093.975                                  
  20947932.403   110082025.178                                  
  22242015.911   116882548.859                                  
  22376853.569   117591155.687                                  
  19301674.570   103214763.694                                  
  24871495.026   130700655.008                                  
  24672262.191   129653661.901                                  
  21001356.105   110362901.675                                  
  20924592.598   109959495.616                                  
  21170399.999   113247320.139                                  
  21965724.310   115430693.384                                  
 16  8 27  8 51 57.0000000  0 19G12R13R14R17R15G16G23G 2R 6G31G25G26
                                R24G 5G20G 4G29R23G21
  25370000.701   133320204.128                                  
  20792319.492   111029740.893                                  
  19243559.271   102579053.373                                  
  21812598.223   116723654.013                                  
  21776018.770   116364385.770                                  
  24490704.751   128699544.254                                  
  25619059.353   134629096.400                                  
  25906393.556                                                  
  24713484.107   131875825.764                                  
  20948064.118   110082718.096                                  
  22242534.043   116885272.735                                  
  22376429.634   117588927.632                                  
  19301742.696   103215127.455                                  
  24871370.152   130699999.308                                  
  24671828.623   129651364.262                                  
  21001094.003   110361525.473                                  
  20925014.474   109961713.142                                  
  21171076.788   113250940.844                                  
  21965410.695   115429045.605                                  
 16  8 27  8 51 58.0000000  0 19G12R13R14R17R15G16G23G 2R 6G31G25G26
                                R24G 5G20G 4G29R23G21
  25370656.794   133323653.351                                  
  20792967.000   111033199.301                                  
  19243418.972   102578305.443                                  
  21812031.475   116720622.421                                  
  21775403.336   116361097.017                                  
  24490169.343   128696747.305                                  
  25618980.582   134628700.429                                  
  25907049.126                                                  
  24713808.960   131877558.519                                  
  20948195.867   110083411.825                                  
  22243052.000   116887997.073                                  
  22376005.838   117586699.951                                  
  19301810.787   103215492.090                                  
  24871245.523   130699344.336                                  
  24671389.261   129649066.973                                  
  21000832.040   110360149.800                                  
  20925436.560   109963931.168                                  
  21171753.507   113254562.025                                  
  21965097.464   115427398.463                                  
 16  8 27  8 51 59.0000000  0 19G12R13R14R17R15G16G23G 2R 6G31G25G26
                                R24G 5G20G 4G29R23G21
  25371313.097   133327102.569                                  
  20793614.996   111036658.167                                  
  19243278.672   102577558.203                                  
  21811465.076   116717591.197                                  
  21774787.902   116357808.507                                  
  24489635.157   128693950.265                                  
  25618907.571   134628305.016                                  
  25907709.302                                                  
  24714133.884   131879291.847                                  
  20948327.686   110084106.129                                  
  22243570.307   116890721.625                                  
  22375581.902   117584472.375                                  
  19301879.122   103215857.398                                  
  24871121.277   130698689.792                                  
  24670952.657   129646769.733                                  
  21000570.427   110358774.382                                  
  20925858.785   109966149.458                                  
  21172430.471   113258183.435                                  
  21964784.162   115425751.718                                  
 16  8 27  8 52  0.0000000  0 19G12R13R14R17R15G16G23G 2R 6G31G25G26
                                R24G 5G20G 4G29R23G21
  25371969.190   133330551.996                                  
  20794262.992   111040117.745                                  
  19243138.547   102576811.806                                  
  21810898.956   116714560.519                                  
  21774172.642   116354520.409                                  
  24489106.590   128691153.357                                  
  25618834.280   134627910.220                                  
  25908367.978                                                  
  24714455.491   131881025.902                                  
  20948459.714   110084801.154                                  
  22244088.857   116893446.550                                  
  22375157.792   117582245.074                                  
  19301947.527   103216223.489                                  
  24870997.416   130698035.879                                  
  24670516.227   129644472.761                                  
  21000308.918   110357399.369                                  
  20926280.697   109968368.139                                  
  21173107.295   113261805.249                                  
  21964471.036   115424105.508                                  
 16  8 27  8 52  1.0000000  0 19G12R13R14R17R15G16G23G 2R 6G31G25G26
                                R24G 5G20G 4G29R23G21
  25372625.179   133334001.523                                  
  20794911.024   111043577.877                                  
  19242998.735   102576066.242                                  
  21810332.836   116711530.259                                  
  21773557.347   116351232.643                                  
  24488577.813   128688356.571                                  
  25618763.292   134627516.083                                  
  25909026.654                                                  
  24714780.763   131882760.759                                  
  20948592.056   110085496.825                                  
  22244607.269   116896171.797                                  
  22374733.926   117580017.983                                  
  19302016.281   103216590.295                                  
  24870873.275   130697382.547                                  
  24670079.483   129642175.955                                  
  21000047.025   110356024.725                                  
  20926703.097   109970587.179                                  
  21173784.329   113265427.431                                  
  21964157.874   115422459.770                                  
