     2.11           OBSERVATION DATA    M (MIXED)           RINEX VERSION / TYPE
CONVBIN 2.4.3                           20160828 162200 UTC PGM / RUN BY / DATE 
log: Rover.ubx                                              COMMENT             
format: u-blox                                              COMMENT             
                                                            MARKER NAME         
                                                            MARKER NUMBER       
                                                            OBSERVER / AGENCY   
                                                            REC # / TYPE / VERS 
                                                            ANT # / TYPE        
  4658479.7882    96928.7234  4341500.3948                  APPROX POSITION XYZ 
        0.0000        0.0000        0.0000                  ANTENNA: DELTA H/E/N
     1     1                                                WAVELENGTH FACT L1/2
     4    C1    L1    C2    L2                              # / TYPES OF OBSERV 
  2016     8    28    15    34   47.0010000     GPS         TIME OF FIRST OBS   
  2016     8    28    15    56   24.0010000     GPS         TIME OF LAST OBS    
                                                            END OF HEADER       
 16  8 28 15 34 47.0010000  0 18G 1G 3G 8G11G14G22G28G10G27G32R12G17
                                R 6R 4R20R 5R21R19
  20690913.473   108731539.664                                  
  22174961.733   116530152.555                                  
  21415231.287   112537868.217                                  
  20185638.514   106076315.085                                  
  22478125.339   118123411.601                                  
  20936356.322   110021365.156                                  
  23498558.155   123485809.495                                  
  25106523.083   131935687.457                                  
  24115552.191   126728132.056                                  
  22874398.097   120205843.693                                  
  24194596.381                                                  
  25704451.020   135077854.060                                  
  20910788.618   111583976.686                                  
  22637667.955   121223678.889                                  
  19652972.314   105093277.689                                  
  19525314.355   104374042.453                                  
  20808401.870   111349991.521                                  
  22826217.496   122104935.1232                                 
 16  8 28 15 34 48.0010000  0 18G 1G 3G 8G11G14G22G28G10G27G32R12G17
                                R 6R 4R20R 5R21R19
  20690752.831   108730692.932                                  
  22174471.931   116527577.412                                  
  21415692.775   112540292.087                                  
  20185607.140   106076150.024                                  
  22478006.095   118122787.238                                  
  20936107.512   110020057.544                                  
  23498525.619   123485636.877                                  
  25107190.087   131939193.342                                  
  24116257.394   126731837.943                                  
  22874613.372   120206973.649                                  
  24194742.653                                                  
  25703806.250   135074466.238                                  
  20910191.083   111580788.363                                  
  22638413.472   121227693.483                                  
  19653094.574   105093930.308                                  
  19525508.100   104375077.540                                  
  20807871.946   111347154.500                                  
  22826879.837   122108479.0132                                 
 16  8 28 15 34 49.0010000  0 18G 1G 3G 8G11G14G22G28G10G27G32R12G17
                                R 6R 4R20R 5R21R19
  20690591.543   108729845.922                                  
  22173982.165   116525002.014                                  
  21416154.283   112542715.846                                  
  20185575.490   106075984.869                                  
  22477887.091   118122162.869                                  
  20935858.561   110018749.789                                  
  23498493.090   123485464.229                                  
  25107857.303   131942698.646                                  
  24116962.361   126735543.407                                  
  22874828.291   120208103.645                                  
  24194889.881                                                  
  25703161.172   135071077.906                                  
  20909593.597   111577599.958                                  
  22639164.652   121231707.702                                  
  19653216.630   105094582.949                                  
  19525701.963   104376112.769                                  
  20807341.735   111344317.171                                  
  22827543.037   122112022.5902                                 
 16  8 28 15 34 50.0010000  0 18G 1G 3G 8G11G14G22G28G10G27G32R12G17
                                R 6R 4R20R 5R21R19
  20690430.257   108728998.815                                  
  22173492.752   116522426.562                                  
  21416615.242   112545139.668                                  
  20185544.171   106075819.828                                  
  22477768.244   118121538.668                                  
  20935609.627   110017442.041                                  
  23498460.181   123485291.747                                  
  25108524.531   131946203.547                                  
  24117667.651   126739248.588                                  
  22875042.850   120209233.835                                  
  24195034.452                                                  
  25702516.402   135067689.117                                  
  20908996.018   111574411.656                                  
  22639914.570   121235721.686                                  
  19653338.746   105095235.766                                  
  19525895.512   104377148.376                                  
  20806811.392   111341479.718                                  
  22828207.118   122115565.5741                                 
 16  8 28 15 34 51.0010000  0 18G 1G 3G 8G11G14G22G28G10G27G32R12G17
                                R 6R 4R20R 5R21R19
  20690268.303   108728151.311                                  
  22173003.236   116519850.734                                  
  21417076.462   112547563.252                                  
  20185512.750   106075654.578                                  
  22477649.375   118120914.360                                  
  20935361.037   110016134.026                                  
  23498427.634   123485119.128                                  
  25109191.459   131949707.753                                  
  24118372.829   126742953.231                                  
  22875257.911   120210363.963                                  
  24195181.509                                                  
  25701871.523   135064299.620                                  
  20908398.309   111571223.198                                  
  22640663.385   121239735.180                                  
  19653460.649   105095888.465                                  
  19526089.206   104378184.034                                  
  20806281.171   111338641.895                                  
  22828871.395   122119108.601                                  
 16  8 28 15 34 52.0010000  0 18G 1G 3G 8G11G14G22G28G10G27G32R12G17
                                R 6R 4R20R 5R21R19
  20690106.858   108727303.525                                  
  22172513.487   116517274.677                                  
  21417537.407   112549986.702                                  
  20185481.449   106075489.236                                  
  22477530.530   118120290.045                                  
  20935111.733   110014825.834                                  
  23498394.537   123484946.497                                  
  25109858.158   131953211.350                                  
  24119078.054   126746657.379                                  
  22875472.551   120211494.095                                  
  24195325.307                                                  
  25701226.591   135060909.640                                  
  20907800.635   111568034.641                                  
  22641419.285   121243748.410                                  
  19653582.888   105096541.212                                  
  19526283.226   104379219.904                                  
  20805750.545   111335803.794                                  
  22829535.258                                                  
 16  8 28 15 34 53.0010000  0 18G 1G 3G 8G11G14G22G28G10G27G32R12G17
                                R 6R 4R20R 5R21R19
  20689945.625   108726455.476                                  
  22172023.688   116514698.392                                  
  21417998.209   112552410.065                                  
  20185450.045   106075323.838                                  
  22477411.129   118119665.745                                  
  20934862.500   110013517.520                                  
  23498361.297   123484773.871                                  
  25110525.005   131956714.405                                  
  24119783.154   126750361.168                                  
  22875687.217   120212624.291                                  
  24195472.107                                                  
  25700581.321   135057519.089                                  
  20907203.061   111564846.073                                  
  22642168.410   121247761.258                                  
  19653704.821   105097193.967                                  
  19526477.141   104380255.926                                  
  20805220.154   111332965.441                                  
  22830199.191   122126193.866                                  
 16  8 28 15 34 54.0010000  0 18G 1G 3G 8G11G14G22G28G10G27G32R12G17
                                R 6R 4R20R 5R21R19
  20689784.001   108725607.055                                  
  22171533.710   116512121.764                                  
  21418459.507   112554833.193                                  
  20185418.449   106075158.238                                  
  22477292.488   118119041.350                                  
  20934613.697   110012208.947                                  
  23498328.466   123484601.130                                  
  25111191.372   131960216.769                                  
  24120488.031   126754064.411                                  
  22875902.147   120213754.432                                  
  24195616.953                                                  
  25699935.940   135054127.817                                  
  20906605.674   111561657.303                                  
  22642919.895   121251773.626                                  
  19653826.737   105097846.689                                  
  19526670.904   104381292.089                                  
  20804689.655   111330126.642                                  
  22830863.132   122129770.4443                                 
 16  8 28 15 34 55.0010000  0 18G 1G 3G 8G11G14G22G28G10G27G32R12G17
                                R 6R 4R20R 5R21R19
  20689622.262   108724758.235                                  
  22171043.659   116509544.757                                  
  21418920.341   112557256.081                                  
  20185387.058   106074992.427                                  
  22477173.423   118118416.791                                  
  20934364.669   110010900.067                                  
  23498295.592   123484428.223                                  
  25111858.286   131963718.430                                  
  24121192.972   126757767.070                                  
  22876117.526   120214884.469                                  
  24195763.160                                                  
  25699290.555   135050735.869                                  
  20906008.179   111558468.362                                  
  22643669.011   121255785.447                                  
  19653948.745   105098499.266                                  
  19526864.737   104382328.271                                  
  20804158.967   111327287.424                                  
  22831527.737   122133312.1192                                 
 16  8 28 15 34 56.0010000  0 18G 1G 3G 8G11G14G22G28G10G27G32R12G17
                                R 6R 4R20R 5R21R19
  20689460.753   108723909.121                                  
  22170553.664   116506967.508                                  
  21419381.147   112559678.857                                  
  20185355.528   106074826.530                                  
  22477054.002   118117792.271                                  
  20934115.432   110009591.035                                  
  23498262.365   123484255.298                                  
  25112524.695   131967219.496                                  
  24121897.688   126761469.312                                  
  22876332.412   120216014.523                                  
  24195908.825                                                  
  25698644.711   135047343.350                                  
  20905410.544   111555279.377                                  
  22644417.573   121259796.975                                  
  19654070.648   105099151.880                                  
  19527058.500   104383364.667                                  
  20803628.119   111324447.925                                  
  22832190.012   122136853.4862                                 
 16  8 28 15 34 57.0010000  0 18G 1G 3G 8G11G14G22G28G10G27G32R12G17
                                R 6R 4R20R 5R21R19
  20689299.018   108723059.629                                  
  22170063.108   116504389.899                                  
  21419842.428   112562101.393                                  
  20185324.061   106074660.446                                  
  22476935.081   118117167.594                                  
  20933866.267   110008281.731                                  
  23498228.834   123484082.241                                  
  25113190.811   131970719.876                                  
  24122602.145   126765170.962                                  
  22876547.314   120217144.502                                  
  24196056.284                                                  
  25697998.929   135043950.185                                  
  20904813.214   111552090.193                                  
  22645166.436   121263807.932                                  
  19654192.808   105099804.394                                  
  19527252.406   104384401.120                                  
  20803097.479   111321608.066                                  
  22832850.690   122140394.5082                                 
 16  8 28 15 34 58.0010000  0 18G 1G 3G 8G11G14G22G28G10G27G32R12G17
                                R 6R 4R20R 5R21R19
  20689137.826   108722209.617                                  
  22169573.341   116501811.839                                  
  21420303.337   112564523.556                                  
  20185292.171   106074494.011                                  
  22476815.944   118116542.681                                  
  20933616.914   110006972.021                                  
  23498195.973   123483908.926                                  
  25113856.611   131974219.420                                  
  24123306.689   126768871.977                                  
  22876762.259   120218274.259                                  
  24196199.886                                                  
  25697353.210   135040556.154                                  
  20904215.898   111548900.728                                  
  22645917.013   121267818.346                                  
  19654314.619   105100456.662                                  
  19527446.108   104385437.493                                  
  20802566.993   111318767.655                                  
  22833512.233   122143934.8702                                 
 16  8 28 15 34 59.0010000  0 18G 1G 3G 8G11G14G22G28G10G27G32R12G17
                                R 6R 4R20R 5R21R19
  20688975.956   108721358.952                                  
  22169083.147   116499233.131                                  
  21420763.889   112566945.246                                  
  20185260.141   106074327.140                                  
  22476696.857   118115917.394                                  
  20933367.306   110005661.763                                  
  23498162.783   123483735.228                                  
  25114522.287   131977718.017                                  
  24124010.704   126772572.125                                  
  22876977.748   120219403.694                                  
  24196346.499                                                  
  25696707.152   135037161.168                                  
  20903618.468   111545710.775                                  
  22646665.663   121271828.015                                  
  19654436.444   105101108.609                                  
  19527640.028   104386473.672                                  
  20802035.887   111315926.590                                  
  22834173.360   122147474.6622                                 
 16  8 28 15 35  0.0010000  0 18G 1G 3G 8G11G14G22G28G10G27G32R12G17
                                R 6R 4R20R 5R21R19
  20688814.417   108720507.858                                  
  22168592.639   116496654.035                                  
  21421224.992   112569366.660                                  
  20185228.560   106074160.006                                  
  22476578.211   118115291.956                                  
  20933117.489   110004351.226                                  
  23498129.434   123483561.365                                  
  25115188.041   131981215.868                                  
  24124715.139   126776271.760                                  
  22877193.153   120220532.998                                  
  24196491.457                                                  
  25696061.176   135033765.490                                  
  20903020.963   111542520.618                                  
  22647412.842   121275837.121                                  
  19654558.216   105101760.400                                  
  19527833.856   104387509.839                                  
  20801504.868   111313085.064                                  
  22834834.920   122151013.9222                                 
 16  8 28 15 35  1.0010000  0 18G 1G 3G 8G11G14G22G28G10G27G32R12G17
                                R 6R 4R20R 5R21R19
  20688652.481   108719656.656                                  
  22168102.030   116494074.858                                  
  21421685.778   112571788.118                                  
  20185196.567   106073992.960                                  
  22476459.255   118114666.675                                  
  20932868.200   110003040.657                                  
  23498095.803   123483387.622                                  
  25115853.782   131984713.298                                  
  24125418.464   126779971.066                                  
  22877408.373   120221662.501                                  
  24196635.993                                                  
  25695414.973   135030369.421                                  
  20902423.232   111539330.531                                  
  22648159.903   121279846.063                                  
  19654680.001   105102412.389                                  
  19528027.877   104388546.332                                  
  20800973.478   111310243.445                                  
  22835495.738   122154553.0362                                 
 16  8 28 15 35  2.0010000  0 18G 1G 3G 8G11G14G22G28G10G27G32R12G17
                                R 6R 4R20R 5R21R19
  20688490.408   108718804.909                                  
  22167611.398   116491495.194                                  
  21422146.669   112574209.194                                  
  20185164.492   106073825.571                                  
  22476340.657   118114041.140                                  
  20932618.792   110001729.685                                  
  23498062.130   123483213.612                                  
  25116519.072   131988209.903                                  
  24126122.015   126783669.681                                  
  22877623.552   120222791.745                                  
  24196778.653                                                  
  25694767.860   135026972.507                                  
  20901825.580   111536140.131                                  
  22648908.984   121283854.283                                  
  19654801.624   105103064.123                                  
  19528221.548   104389582.764                                  
  20800442.198   111307401.278                                  
  22836158.877   122158091.2621                                 
 16  8 28 15 35  3.0010000  0 18G 1G 3G 8G11G14G22G28G10G27G32R12G17
                                R 6R 4R20R 5R21R19
  20688328.450   108717952.825                                  
  22167120.964   116488915.207                                  
  21422607.415   112576630.092                                  
  20185132.442   106073658.018                                  
  22476221.947   118113415.522                                  
  20932368.955   110000418.492                                  
  23498028.475   123483039.509                                  
  25117184.243   131991705.846                                  
  24126825.741   126787367.767                                  
  22877838.831   120223920.959                                  
  24196921.300                                                  
  25694122.771   135023574.965                                  
  20901227.788   111532949.592                                  
  22649656.259   121287862.119                                  
  19654923.340   105103715.827                                  
  19528415.407   104390619.272                                  
  20799910.729   111304558.759                                  
  22836818.818   122161629.497                                  
 16  8 28 15 35  4.0010000  0 18G 1G 3G 8G11G14G22G28G10G27G32R12G17
                                R 6R 4R20R 5R21R19
  20688166.377   108717100.447                                  
  22166629.804   116486334.973                                  
  21423068.029   112579050.853                                  
  20185100.744   106073490.374                                  
  22476103.107   118112789.902                                  
  20932119.614   109999107.125                                  
  23497995.302   123482865.390                                  
  25117849.904   131995201.194                                  
  24127529.286   126791065.447                                  
  22878053.815   120225050.239                                  
  24197066.521                                                  
  25693476.343   135020176.793                                  
  20900630.166   111529758.973                                  
  22650407.783   121291869.599                                  
  19655044.981   105104367.485                                  
  19528609.349   104391655.955                                  
  20799379.449   111301715.939                                  
  22837480.752   122165167.520                                  
 16  8 28 15 35  5.0010000  0 18G 1G 3G 8G11G14G22G28G10G27G32R12G17
                                R 6R 4R20R 5R21R19
  20688004.186   108716248.123                                  
  22166138.820   116483754.840                                  
  21423528.743   112581471.830                                  
  20185069.124   106073322.998                                  
  22475984.175   118112164.606                                  
  20931870.104   109997795.923                                  
  23497961.997   123482691.577                                  
  25118515.182   131998696.285                                  
  24128232.665   126794763.002                                  
  22878268.573   120226179.845                                  
  24197214.647                                                  
  25692830.606   135016778.484                                  
  20900032.609   111526568.624                                  
  22651151.874   121295877.055                                  
  19655166.949   105105019.539                                  
  19528803.212   104392693.159                                  
  20798848.142   111298873.156                                  
  22838144.092   122168705.504                                  
 16  8 28 15 35  6.0010000  0 18G 1G 3G 8G11G14G22G28G10G27G32R12G17
                                R 6R 4R20R 5R21R19
  20687841.877   108715396.095                                  
  22165647.923   116481175.013                                  
  21423989.822   112583893.255                                  
  20185037.347   106073156.087                                  
  22475865.042   118111539.889                                  
  20931620.585   109996485.136                                  
  23497928.867   123482518.335                                  
  25119180.337   132002191.379                                  
  24128936.404   126798460.695                                  
  22878483.492   120227310.062                                  
  24197359.178                                                  
  25692186.209   135013380.153                                  
  20899435.236   111523378.808                                  
  22651896.675   121299884.657                                  
  19655288.743   105105672.195                                  
  19528997.502   104393731.103                                  
  20798317.141   111296030.700                                  
  22838804.491   122172243.729                                  
 16  8 28 15 35  7.0010000  0 18G 1G 3G 8G11G14G22G28G10G27G32R12G17
                                R 6R 4R20R 5R21R19
  20687679.904   108714544.732                                  
  22165157.077   116478595.893                                  
  21424450.584   112586315.492                                  
  20185006.179   106072990.023                                  
  22475746.424   118110916.091                                  
  20931371.080   109995175.138                                  
  23497896.024   123482345.991                                  
  25119845.493   132005686.823                                  
  24129639.903   126802158.850                                  
  22878698.852   120228441.239                                  
  24197504.661                                                  
  25691542.791   135009982.129                                  
  20898837.810   111520189.888                                  
  22652647.466   121303892.917                                  
  19655410.912   105106325.830                                  
  19529191.872   104394770.240                                  
  20797786.135   111293188.904                                  
  22839465.928   122175782.796                                  
 16  8 28 15 35  8.0010000  0 18G 1G 3G 8G11G14G22G28G10G27G32R12G17
                                R 6R 4R20R 5R21R19
  20687518.029   108713694.108                                  
  22164666.665   116476017.556                                  
  21424911.837   112588738.637                                  
  20184974.773   106072824.898                                  
  22475627.619   118110293.326                                  
  20931121.804   109993865.984                                  
  23497863.599   123482174.645                                  
  25120510.925   132009182.694                                  
  24130343.772   126805857.607                                  
  22878913.718   120229573.478                                  
  24197650.863                                                  
  25690892.629   135006584.595                                  
  20898240.773   111517001.930                                  
  22653398.227   121307901.813                                  
  19655532.972   105106980.490                                  
  19529386.734   104395810.552                                  
  20797255.347   111290347.848                                  
  22840131.174   122179322.499                                  
 16  8 28 15 35  9.0010000  0 18G 1G 3G 8G11G14G22G28G10G27G32R12G17
                                R 6R 4R20R 5R21R19
  20687355.884   108712844.361                                  
  22164176.368   116473440.130                                  
  21425373.127   112591162.796                                  
  20184943.299   106072660.829                                  
  22475509.250   118109671.707                                  
  20930873.075   109992557.823                                  
  23497831.517   123482004.450                                  
  25121176.452   132012679.118                                  
  24131047.169   126809557.017                                  
  22879129.117   120230706.893                                  
  24197798.221                                                  
  25690241.882   135003187.646                                  
  20897643.618   111513815.066                                  
  22654151.108   121311911.504                                  
  19655655.459   105107636.379                                  
  19529581.592   104396852.255                                  
  20796724.765   111287507.683                                  
  22840794.252   122182863.094                                  
 16  8 28 15 35 10.0010000  0 19G 1G 3G 8G11G14G22G28G10R11G27G32R12
                                G17R 6R 4R20R 5R21R19
  20687194.177   108711995.315                                  
  22163685.889   116470863.438                                  
  21425834.722   112593587.819                                  
  20184911.996   106072497.666                                  
  22475390.621   118109051.067                                  
  20930624.078   109991250.496                                  
  23497799.299   123481835.213                                  
  25121841.820   132016175.963                                  
  24843555.834                                                  
  24131751.008   126813257.022                                  
  22879345.225   120231841.318                                  
  24197942.447                                                  
  25689601.347   134999791.070                                  
  20897046.820   111510629.134                                  
  22654900.124   121315921.930                                  
  19655777.977   105108293.305                                  
  19529776.445   104397895.116                                  
  20796194.099   111284668.261                                  
  22841458.726   122186404.373                                  
 16  8 28 15 35 11.0010000  0 19G 1G 3G 8G11G14G22G28G10R11G27G32R12
                                G17R 6R 4R20R 5R21R19
  20687033.299   108711147.285                                  
  22163195.675   116468287.795                                  
  21426296.322   112596014.003                                  
  20184881.179   106072335.696                                  
  22475273.133   118108431.699                                  
  20930375.416   109989944.298                                  
  23497767.763   123481667.230                                  
  25122507.439   132019673.506                                  
  24844161.518                                                  
  24132455.288   126816957.905                                  
  22879561.521   120232977.084                                  
  24198088.855                                                  
  25688951.829   134996395.245                                  
  20896450.119   111507444.409                                  
  22655651.159   121319933.186                                  
  19655901.001   105108951.538                                  
  19529971.643   104398939.461                                  
  20795663.770   111281829.853                                  
  22842117.511   122189946.679                                  
 16  8 28 15 35 12.0010000  0 19G 1G 3G 8G11G14G22G28G10R11G27G32R12
                                G17R 6R 4R20R 5R21R19
  20686871.941   108710300.516                                  
  22162705.082   116465713.460                                  
  21426758.351   112598441.596                                  
  20184850.639   106072175.182                                  
  22475155.824   118107813.864                                  
  20930126.794   109988639.487                                  
  23497736.088   123481500.789                                  
  25123173.062   132023171.994                                  
  24844765.967                                                  
  24133159.760   126820659.810                                  
  22879778.320   120234114.386                                  
  24198238.220                                                  
  25688302.829   134993000.380                                  
  20895853.553   111504261.172                                  
  22656396.794   121323945.679                                  
  19656024.357   105109611.378                                  
  19530167.378   104399985.544                                  
  20795133.471   111278992.712                                  
  22842781.788   122193490.276                                  
 16  8 28 15 35 13.0010000  0 19G 1G 3G 8G11G14G22G28G10R11G27G32R12
                                G17R 6R 4R20R 5R21R19
  20686710.736   108709454.722                                  
  22162214.818   116463140.117                                  
  21427220.943   112600870.328                                  
  20184820.352   106072015.837                                  
  22475038.788   118107197.308                                  
  20929878.454   109987335.748                                  
  23497704.414   123481335.553                                  
  25123838.906   132026671.164                                  
  24845371.764                                                  
  24133864.295   126824362.567                                  
  22879995.523   120235252.974                                  
  24198388.484                                                  
  25687657.441   134989606.195                                  
  20895257.423   111501079.155                                  
  22657145.491   121327959.055                                  
  19656147.991   105110272.501                                  
  19530363.449   104401033.099                                  
  20794603.289   111276156.547                                  
  22843448.989   122197034.717                                  
 16  8 28 15 35 14.0010000  0 19G 1G 3G 8G11G14G22G28G10R11G27G32R12
                                G17R 6R 4R20R 5R21R19
  20686549.874   108708610.143                                  
  22161725.400   116460568.018                                  
  21427683.599   112603300.425                                  
  20184790.562   106071857.903                                  
  22474922.067   118106582.232                                  
  20929630.486   109986033.354                                  
  23497673.023   123481171.812                                  
  25124504.784   132030171.228                                  
  24845976.545                                                  
  24134569.186   126828066.398                                  
  22880212.889   120236393.087                                  
  24198537.853   129264225.6362                                 
  25687012.802   134986212.941                                  
  20894661.467   111497898.616                                  
  22657892.531   121331973.605                                  
  19656271.988   105110935.143                                  
  19530559.991   104402082.336                                  
  20794073.662   111273321.658                                  
  22844111.490   122200580.507                                  
 16  8 28 15 35 15.0010000  0 19G 1G 3G 8G11G14G22G28G10R11G27G32R12
                                G17R 6R 4R20R 5R21R19
  20686389.628   108707766.153                                  
  22161235.533   116457996.553                                  
  21428146.114   112605731.269                                  
  20184760.835   106071700.746                                  
  22474804.977   118105968.009                                  
  20929383.334   109984731.680                                  
  23497642.138   123481008.916                                  
  25125170.805   132033671.574                                  
  24846581.361                                                  
  24135273.795   126831770.630                                  
  22880430.757   120237534.102                                  
  24198685.142   129265016.0152                                 
  25686366.869   134982819.952                                  
  20894065.533   111494718.877                                  
  22658646.223   121335988.631                                  
  19656395.959   105111598.704                                  
  19530756.327   104403132.628                                  
  20793544.271   111270487.363                                  
  22844776.728                                                  
 16  8 28 15 35 16.0010000  0 19G 1G 3G 8G11G14G22G28G10R11G27G32R12
                                G17R 6R 4R20R 5R21R19
  20686229.357   108706922.593                                  
  22160746.188   116455425.578                                  
  21428608.408   112608162.708                                  
  20184731.351   106071544.220                                  
  22474688.056   118105354.464                                  
  20929135.943   109983430.541                                  
  23497611.225   123480846.713                                  
  25125837.274   132037172.049                                  
  24847186.081                                                  
  24135978.123   126835475.123                                  
  22880648.490   120238675.850                                  
  24198834.306   129265807.2722                                 
  25685721.366   134979427.151                                  
  20893469.347   111491539.794                                  
  22659393.550   121340004.045                                  
  19656520.082   105112263.012                                  
  19530952.917   104404183.823                                  
  20793014.608   111267653.502                                  
  22845438.025   122207736.1883                                 
 16  8 28 15 35 17.0010000  0 19G 1G 3G 8G11G14G22G28G10R11G27G32R12
                                G17R 6R 4R20R 5R21R19
  20686068.889   108706079.583                                  
  22160257.294   116452855.192                                  
  21429070.915   112610594.868                                  
  20184701.651   106071388.432                                  
  22474571.517   118104741.812                                  
  20928888.291   109982130.079                                  
  23497580.314   123480685.323                                  
  25126503.332   132040672.779                                  
  24847790.216                                                  
  24136682.708   126839180.025                                  
  22880866.092   120239818.461                                  
  24198982.886   129266599.4912                                 
  25685076.377   134976034.589                                  
  20892873.348   111488361.507                                  
  22660142.226   121344019.888                                  
  19656644.520   105112928.207                                  
  19531149.590   104405236.047                                  
  20792485.164   111264820.185                                  
  22846101.980   122211283.5292                                 
 16  8 28 15 35 18.0010000  0 19G 1G 3G 8G11G14G22G28G10R11G27G32R12
                                G17R 6R 4R20R 5R21R19
  20685908.360   108705237.003                                  
  22159767.974   116450285.239                                  
  21429533.913   112613027.612                                  
  20184671.914   106071233.252                                  
  22474455.239   118104129.844                                  
  20928641.133   109980830.148                                  
  23497549.323   123480524.612                                  
  25127169.657   132044173.631                                  
  24848391.450                                                  
  24137387.535   126842885.185                                  
  22881083.943   120240961.822                                  
  24199131.579   129267392.6552                                 
  25684432.829   134972642.151                                  
  20892277.331   111485183.886                                  
  22660891.499   121348036.087                                  
  19656769.123   105113594.081                                  
  19531346.533   104406289.116                                  
  20791955.511   111261987.331                                  
  22846762.562   122214831.3182                                 
 16  8 28 15 35 19.0010000  0 19G 1G 3G 8G11G14G22G28G10R11G27G32R12
                                G17R 6R 4R20R 5R21R19
  20685748.272   108704394.873                                  
  22159279.185   116447715.787                                  
  21429997.172   112615460.950                                  
  20184642.252   106071078.720                                  
  22474338.707   118103518.566                                  
  20928394.298   109979530.788                                  
  23497518.822   123480364.604                                  
  25127836.624   132047674.612                                  
  24848995.324                                                  
  24138092.696   126846590.631                                  
  22881301.696   120242105.916                                  
  24199281.228   129268186.6792                                 
  25683784.673   134969249.864                                  
  20891681.559   111482006.932                                  
  22661642.683   121352052.648                                  
  19656893.722   105114260.777                                  
  19531543.699   104407343.169                                  
  20791426.063   111259154.943                                  
  22847428.572   122218379.5322                                 
 16  8 28 15 35 20.0010000  0 19G 1G 3G 8G11G14G22G28G10R11G27G32R12
                                G17R 6R 4R20R 5R21R19
  20685588.207   108703553.067                                  
  22158790.018   116445146.715                                  
  21430460.127   112617894.751                                  
  20184612.646   106070924.704                                  
  22474222.482   118102907.912                                  
  20928146.969   109978231.872                                  
  23497488.707   123480205.187                                  
  25128503.004   132051175.611                                  
  24849598.896                                                  
  24138797.875   126850296.242                                  
  22881519.411   120243250.644                                  
  24199429.930   129268981.472                                  
  25683140.620   134965857.645                                  
  20891085.931   111478830.517                                  
  22662391.271   121356069.513                                  
  19657018.360   105114928.076                                  
  19531741.183   104408397.968                                  
  20790896.985   111256322.868                                  
  22848097.482   122221928.1162                                 
 16  8 28 15 35 21.0010000  0 18G 1G 3G 8G11G14G22G28G10G27G32R12G17
                                R 6R 4R20R 5R21R19
  20685428.021   108702711.661                                  
  22158300.898   116442578.028                                  
  21430923.397   112620329.117                                  
  20184583.382   106070771.261                                  
  22474106.135   118102297.917                                  
  20927900.003   109976933.458                                  
  23497459.171   123480046.418                                  
  25129169.177   132054676.696                                  
  24139502.997   126854002.075                                  
  22881737.122   120244396.082                                  
  24199578.065   129269777.194                                  
  25682493.813   134962465.448                                  
  20890490.429   111475654.743                                  
  22663143.938   121360086.606                                  
  19657143.212   105115596.070                                  
  19531938.750   104409453.675                                  
  20790367.690   111253491.200                                  
  22848760.634   122225476.9972                                 
 16  8 28 15 35 22.0010000  0 18G 1G 3G 8G11G14G22G28G10G27G32R12G17
                                R 6R 4R20R 5R21R19
  20685267.994   108701870.227                                  
  22157812.086   116440009.396                                  
  21431386.827   112622763.619                                  
  20184554.223   106070617.988                                  
  22473989.755   118101688.173                                  
  20927652.805   109975635.141                                  
  23497428.703   123479887.895                                  
  25129835.510   132058177.463                                  
  24140208.751   126857707.698                                  
  22881955.197   120245541.799                                  
  24199727.077   129270573.300                                  
  25681852.672   134959073.006                                  
  20889895.075   111472479.158                                  
  22663893.416   121364103.652                                  
  19657268.570   105116264.349                                  
  19532136.251   104410509.794                                  
  20789838.656   111250659.478                                  
  22849423.891   122229025.8612                                 
 16  8 28 15 35 23.0010000  0 18G 1G 3G 8G11G14G22G28G10G27G32R12G17
                                R 6R 4R20R 5R21R19
  20685108.134   108701028.995                                  
  22157323.040   116437440.995                                  
  21431849.925   112625198.485                                  
  20184524.998   106070465.116                                  
  22473873.872   118101078.899                                  
  20927405.701   109974337.150                                  
  23497398.590   123479729.824                                  
  25130501.696   132061678.108                                  
  24140914.240   126861413.385                                  
  22882173.312   120246688.034                                  
  24199875.779   129271370.029                                  
  25681207.106   134955680.447                                  
  20889300.071   111469303.984                                  
  22664643.776   121368120.849                                  
  19657393.920   105116933.180                                  
  19532333.984   104411566.614                                  
  20789309.587   111247828.015                                  
  22850087.457   122232574.9262                                 
 16  8 28 15 35 24.0010000  0 18G 1G 3G 8G11G14G22G28G10G27G32R12G17
                                R 6R 4R20R 5R21R19
  20684947.800   108700187.937                                  
  22156834.130   116434872.755                                  
  21432313.503   112627633.664                                  
  20184495.778   106070312.605                                  
  22473758.256   118100470.068                                  
  20927159.130   109973039.435                                  
  23497368.816   123479572.172                                  
  25131167.799   132065178.611                                  
  24141619.935   126865119.052                                  
  22882391.320   120247834.722                                  
  24200025.899   129272167.479                                  
  25680566.589   134952287.792                                  
  20888704.923   111466129.188                                  
  22665394.035   121372138.101                                  
  19657519.038   105117602.437                                  
  19532531.634   104412624.028                                  
  20788780.313   111244996.673                                  
  22850750.897   122236123.7001                                 
 16  8 28 15 35 25.0010000  0 18G 1G 3G 8G11G14G22G28G10G27G32R12G17
                                R 6R 4R20R 5R21R19
  20684787.648   108699347.023                                  
  22156345.007   116432304.739                                  
  21432776.859   112630069.148                                  
  20184466.987   106070160.423                                  
  22473642.790   118099861.669                                  
  20926912.475   109971742.016                                  
  23497339.142   123479414.922                                  
  25131833.666   132068678.959                                  
  24142325.559   126868824.742                                  
  22882609.688   120248981.893                                  
  24200177.493   129272965.512                                  
  25679922.490   134948895.047                                  
  20888110.106   111462954.766                                  
  22666144.800   121376155.404                                  
  19657644.374   105118272.163                                  
  19532729.406   104413682.052                                  
  20788251.362   111242165.526                                  
  22851414.777   122239673.023                                  
 16  8 28 15 35 26.0010000  0 18G 1G 3G 8G11G14G22G28G10G27G32R12G17
                                R 6R 4R20R 5R21R19
  20684627.833   108698506.316                                  
  22155856.325   116429736.972                                  
  21433240.173   112632505.006                                  
  20184438.144   106070008.661                                  
  22473527.095   118099253.782                                  
  20926665.832   109970444.939                                  
  23497309.210   123479258.162                                  
  25132499.650   132072179.219                                  
  24143031.634   126872530.416                                  
  22882827.815   120250129.558                                  
  24200325.440   129273764.189                                  
  25679281.524   134945502.124                                  
  20887515.206   111459780.768                                  
  22666895.530   121380172.803                                  
  19657769.928   105118942.382                                  
  19532927.418   104414740.750                                  
  20787722.258   111239334.585                                  
  22852078.392   122243222.584                                  
 16  8 28 15 35 27.0010000  0 18G 1G 3G 8G11G14G22G28G10G27G32R12G17
                                R 6R 4R20R 5R21R19
  20684467.999   108697665.921                                  
  22155367.252   116427169.583                                  
  21433703.762   112634941.303                                  
  20184409.334   106069857.386                                  
  22473411.223   118098646.428                                  
  20926419.083   109969148.274                                  
  23497279.327   123479101.950                                  
  25133165.550   132075679.470                                  
  24143736.878   126876236.306                                  
  22883046.532   120251277.861                                  
  24200476.472   129274563.579                                  
  25678637.308   134942109.178                                  
  20886920.415   111456607.282                                  
  22667642.709   121384190.413                                  
  19657895.491   105119613.256                                  
  19533125.556   104415800.201                                  
  20787193.224   111236503.932                                  
  22852742.229   122246772.490                                  
 16  8 28 15 35 28.0010000  0 18G 1G 3G 8G11G14G22G28G10G27G32R12G17
                                R 6R 4R20R 5R21R19
  20684307.898   108696826.265                                  
  22154878.426   116424602.883                                  
  21434167.500   112637378.503                                  
  20184380.794   106069707.058                                  
  22473295.243   118098040.135                                  
  20926172.473   109967852.469                                  
  23497249.607   123478946.747                                  
  25133831.324   132079180.156                                  
  24144442.927   126879942.717                                  
  22883265.177   120252427.188                                  
  24200624.742   129275364.195                                  
  25677990.217   134938716.756                                  
  20886326.035   111453434.796                                  
  22668395.725   121388208.696                                  
  19658021.316   105120285.144                                  
  19533324.083   104416860.845                                  
  20786664.252   111233674.031                                  
  22853406.449   122250323.131                                  
 16  8 28 15 35 29.0010000  0 18G 1G 3G 8G11G14G22G28G10G27G32R12G17
                                R 6R 4R20R 5R21R19
  20684147.923   108695987.285                                  
  22154390.160   116422036.974                                  
  21434631.381   112639816.529                                  
  20184352.215   106069557.600                                  
  22473179.905   118097434.797                                  
  20925925.914   109966557.474                                  
  23497220.011   123478792.486                                  
  25134497.896   132082681.223                                  
  24145149.013   126883649.651                                  
  22883484.212   120253577.516                                  
  24200774.984   129276165.960                                  
  25677342.517   134935324.827                                  
  20885731.541   111450263.201                                  
  22669146.076   121392227.638                                  
  19658147.163   105120958.051                                  
  19533522.841   104417922.674                                  
  20786135.336   111230844.826                                  
  22854070.753   122253874.366                                  
 16  8 28 15 35 30.0010000  0 18G 1G 3G 8G11G14G22G28G10G27G32R12G17
                                R 6R 4R20R 5R21R19
  20683988.714   108695149.036                                  
  22153901.737   116419471.782                                  
  21435095.374   112642255.450                                  
  20184323.923   106069409.040                                  
  22473065.323   118096830.442                                  
  20925680.065   109965263.296                                  
  23497191.199   123478639.198                                  
  25135164.566   132086182.685                                  
  24145854.521   126887357.166                                  
  22883703.592   120254728.875                                  
  24200925.697   129276968.973                                  
  25676699.806   134931933.073                                  
  20885137.518   111447092.572                                  
  22669896.339   121396247.170                                  
  19658273.075   105121632.017                                  
  19533721.630   104418985.646                                  
  20785606.873   111228016.393                                  
  22854734.847   122257426.423                                  
 16  8 28 15 35 31.0010000  0 18G 1G 3G 8G11G14G22G28G10G27G32R12G17
                                R 6R 4R20R 5R21R19
  20683829.077   108694311.679                                  
  22153413.619   116416907.534                                  
  21435559.859   112644695.411                                  
  20184296.239   106069261.575                                  
  22472950.642   118096227.250                                  
  20925434.418   109963970.123                                  
  23497162.172   123478487.047                                  
  25135830.929   132089684.750                                  
  24146560.059   126891065.408                                  
  22883922.862   120255881.419                                  
  24201076.162   129277773.288                                  
  25676053.356   134928570.5933                                 
  20884543.543   111443923.093                                  
  22670647.178   121400267.518                                  
  19658399.131   105122307.176                                  
  19533920.850   104420049.995                                  
  20785078.219   111225188.852                                  
  22855399.020   122260979.307                                  
 16  8 28 15 35 32.0010000  0 18G 1G 3G 8G11G14G22G28G10G27G32R12G17
                                R 6R 4R20R 5R21R19
  20683670.053   108693475.294                                  
  22152925.498   116414344.299                                  
  21436024.135   112647136.501                                  
  20184268.539   106069115.283                                  
  22472836.411   118095625.329                                  
  20925188.815   109962678.046                                  
  23497133.744   123478336.151                                  
  25136497.374   132093187.470                                  
  24147265.768   126894774.457                                  
  22884142.619   120257035.264                                  
  24201226.879   129278579.100                                  
  25675404.694   134925180.3232                                 
  20883949.555   111440754.827                                  
  22671400.011   121404288.810                                  
  19658525.697   105122983.610                                  
  19534120.297   104421115.833                                  
  20784549.787   111222362.287                                  
  22856063.415   122264533.163                                  
 16  8 28 15 35 33.0010000  0 18G 1G 3G 8G11G14G22G28G10G27G32R12G17
                                R 6R 4R20R 5R21R19
  20683510.929   108692639.658                                  
  22152437.982   116411781.855                                  
  21436488.869   112649578.480                                  
  20184240.996   106068969.924                                  
  22472721.900   118095024.407                                  
  20924943.092   109961386.833                                  
  23497105.176   123478186.257                                  
  25137164.156   132096690.627                                  
  24147971.265   126898484.048                                  
  22884362.339   120258190.141                                  
  24201376.995   129279385.986                                  
  25674757.710   134921790.4062                                 
  20883355.837   111437587.535                                  
  22672153.913   121408310.749                                  
  19658652.582   105123661.157                                  
  19534320.002   104422182.856                                  
  20784021.647   111219536.487                                  
  22856727.810   122268087.848                                  
 16  8 28 15 35 34.0010000  0 18G 1G 3G 8G11G14G22G28G10G27G32R12G17
                                R 6R 4R20R 5R21R19
  20683351.497   108691804.451                                  
  22151950.844   116409219.852                                  
  21436954.081   112652021.059                                  
  20184213.708   106068825.189                                  
  22472607.553   118094424.202                                  
  20924697.270   109960096.165                                  
  23497077.220   123478037.052                                  
  25137830.309   132100193.902                                  
  24148676.873   126902193.958                                  
  22884581.955   120259345.767                                  
  24201528.267   129280193.899                                  
  25674110.717   134918400.7422                                 
  20882762.190   111434420.926                                  
  22672906.441   121412333.089                                  
  19658779.606   105124339.392                                  
  19534519.720   104423250.764                                  
  20783493.573   111216711.133                                  
  22857392.882   122271642.932                                  
 16  8 28 15 35 35.0010000  0 18G 1G 3G 8G11G14G22G28G10G27G32R12G17
                                R 6R 4R20R 5R21R19
  20683192.393   108690969.897                                  
  22151463.438   116406658.598                                  
  21437418.768   112654464.443                                  
  20184186.701   106068681.301                                  
  22472493.560   118093824.919                                  
  20924451.877   109958806.270                                  
  23497048.811   123477888.768                                  
  25138496.988   132103697.535                                  
  24149382.344   126905904.347                                  
  22884802.155   120260502.337                                  
  24201679.918   129281002.946                                  
  25673462.319   134915011.3712                                 
  20882168.856   111431255.180                                  
  22673656.944   121416355.957                                  
  19658906.339   105125018.631                                  
  19534719.438   104424319.805                                  
  20782965.818   111213886.452                                  
  22858057.831   122275198.675                                  
 16  8 28 15 35 36.0010000  0 18G 1G 3G 8G11G14G22G28G10G27G32R12G17
                                R 6R 4R20R 5R21R19
  20683033.786   108690135.909                                  
  22150975.769   116404097.886                                  
  21437884.078   112656908.554                                  
  20184159.630   106068538.162                                  
  22472379.582   118093226.496                                  
  20924206.522   109957517.054                                  
  23497020.677   123477741.288                                  
  25139163.827   132107201.419                                  
  24150088.236   126909615.103                                  
  22885022.128   120261659.795                                  
  24201831.185   129281812.982                                  
  25672813.341   134911622.2352                                 
  20881575.819   111428090.241                                  
  22674409.223   121420379.291                                  
  19659033.263   105125698.730                                  
  19534920.041   104425389.876                                  
  20782437.927   111211062.330                                  
  22858722.601   122278754.914                                  
 16  8 28 15 35 37.0010000  0 18G 1G 3G 8G11G14G22G28G10G27G32R12G17
                                R 6R 4R20R 5R21R19
  20682874.949   108689302.534                                  
  22150488.873   116401537.843                                  
  21438349.303   112659353.408                                  
  20184132.641   106068395.831                                  
  22472265.778   118092628.940                                  
  20923961.534   109956228.549                                  
  23496993.217   123477594.680                                  
  25139830.626   132110705.602                                  
  24150793.779   126913326.325                                  
  22885242.197   120262818.158                                  
  24201981.671   129282624.024                                  
  25672167.649   134908233.4942                                 
  20880982.582   111424926.124                                  
  22675162.714   121424403.221                                  
  19659160.501   105126379.766                                  
  19535120.627   104426461.057                                  
  20781910.346   111208238.859                                  
  22859387.782   122282311.790                                  
 16  8 28 15 35 38.0010000  0 18G 1G 3G 8G11G14G22G28G10G27G32R12G17
                                R 6R 4R20R 5R21R19
  20682716.340   108688470.048                                  
  22150001.591   116398978.728                                  
  21438814.643   112661799.317                                  
  20184105.678   106068254.582                                  
  22472151.893   118092032.565                                  
  20923716.424   109954941.067                                  
  23496965.890   123477449.248                                  
  25140497.551   132114210.366                                  
  24151499.830   126917038.279                                  
  22885462.587   120263977.742                                  
  24202135.067   129283436.459                                  
  25671521.729   134904845.2642                                 
  20880389.741   111421763.125                                  
  22675913.925   121428427.889                                  
  19659288.053   105127062.023                                  
  19535321.195   104427533.585                                  
  20781382.712   111205416.300                                  
  22860053.098   122285869.581                                  
 16  8 28 15 35 39.0010000  0 18G 1G 3G 8G11G14G22G28G10G27G32R12G17
                                R 6R 4R20R 5R21R19
  20682558.237   108687638.591                                  
  22149514.794   116396420.654                                  
  21439280.797   112664246.399                                  
  20184079.162   106068114.553                                  
  22472038.181   118091437.469                                  
  20923471.318   109953654.727                                  
  23496938.840   123477305.079                                  
  25141164.592   132117715.847                                  
  24152206.046   126920751.112                                  
  22885683.517   120265138.638                                  
  24202286.169   129284250.454                                  
  25670874.976   134901457.8752                                 
  20879797.184   111418601.402                                  
  22676666.849   121432453.497                                  
  19659416.003   105127745.622                                  
  19535522.309   104428607.641                                  
  20780855.266   111202594.756                                  
  22860718.562   122289428.406                                  
 16  8 28 15 35 40.0010000  0 18G 1G 3G 8G11G14G22G28G10G27G32R12G17
                                R 6R 4R20R 5R21R19
  20682399.784   108686808.115                                  
  22149027.898   116393863.646                                  
  21439747.194   112666694.616                                  
  20184052.690   106067975.704                                  
  22471925.451   118090843.637                                  
  20923226.799   109952369.484                                  
  23496911.989   123477162.172                                  
  25141831.374   132121222.011                                  
  24152912.170   126924464.725                                  
  22885904.649   120266300.839                                  
  24202438.095   129285065.854                                  
  25670229.791   134898071.1052                                 
  20879204.897   111415440.890                                  
  22677418.618   121436480.132                                  
  19659543.786   105128430.526                                  
  19535723.335   104429683.144                                  
  20780327.842   111199774.241                                  
  22861384.113   122292988.178                                  
 16  8 28 15 35 41.0010000  0 18G 1G 3G 8G11G14G22G28G10G27G32R12G17
                                R 6R 4R20R 5R21R19
  20682242.056   108685978.323                                  
  22148540.965   116391307.295                                  
  21440213.132   112669143.652                                  
  20184026.668   106067837.714                                  
  22471812.319   118090250.766                                  
  20922982.769   109951085.033                                  
  23496884.888   123477020.171                                  
  25142498.923   132124728.526                                  
  24153618.395   126928178.846                                  
  22886125.891   120267464.007                                  
  24202592.499   129285882.403                                  
  25669585.293   134894684.8102                                 
  20878612.724   111412281.262                                  
  22678170.600   121440507.334                                  
  19659672.028   105129116.366                                  
  19535924.846   104430759.778                                  
  20779800.758   111196954.419                                  
  22862049.717   122296548.622                                  
 16  8 28 15 35 42.0010000  0 18G 1G 3G 8G11G14G22G28G10G27G32R12G17
                                R 6R 4R20R 5R21R19
  20682083.953   108685149.486                                  
  22148054.426   116388751.990                                  
  21440679.107   112671593.823                                  
  20184001.177   106067700.882                                  
  22471699.566   118089659.116                                  
  20922738.699   109949801.665                                  
  23496857.779   123476879.404                                  
  25143166.060   132128235.719                                  
  24154324.972   126931893.787                                  
  22886347.631   120268628.444                                  
  24202745.637   129286700.359                                  
  25668943.841   134891299.2092                                 
  20878021.302   111409122.816                                  
  22678922.665   121444535.408                                  
  19659800.597   105129803.541                                  
  19536126.492   104431837.832                                  
  20779273.875   111194135.591                                  
  22862715.682   122300110.106                                  
 16  8 28 15 35 43.0010000  0 18G 1G 3G 8G11G14G22G28G10G27G32R12G17
                                R 6R 4R20R 5R21R19
  20681926.454   108684321.641                                  
  22147568.451   116386197.687                                  
  21441145.748   112674045.101                                  
  20183975.403   106067565.205                                  
  22471586.696   118089068.730                                  
  20922494.902   109948519.376                                  
  23496831.011   123476739.858                                  
  25143833.583   132131743.563                                  
  24155031.861   126935609.540                                  
  22886569.849   120269794.157                                  
  24202897.694   129287519.758                                  
  25668298.462   134887913.7001                                 
  20877429.826   111405965.584                                  
  22679675.179   121448564.267                                  
  19659929.537   105130492.000                                  
  19536328.592   104432917.350                                  
  20778747.598   111191317.723                                  
  22863381.718   122303672.473                                  
 16  8 28 15 35 44.0010000  0 18G 1G 3G 8G11G14G22G28G10G27G32R12G17
                                R 6R 4R20R 5R21R19
  20681768.933   108683494.683                                  
  22147081.996   116383644.314                                  
  21441612.264   112676497.459                                  
  20183949.374   106067430.645                                  
  22471474.884   118088479.516                                  
  20922251.380   109947238.135                                  
  23496804.449   123476601.500                                  
  25144501.381   132135252.018                                  
  24155739.166   126939326.026                                  
  22886791.848   120270961.109                                  
  24203051.941   129288340.592                                  
  25667652.147   134884529.347                                  
  20876838.770   111402809.484                                  
  22680427.685   121452594.140                                  
  19660058.463   105131181.679                                  
  19536530.923   104433998.267                                  
  20778221.313   111188500.791                                  
  22864047.666   122307235.830                                  
 16  8 28 15 35 45.0010000  0 18G 1G 3G 8G11G14G22G28G10G27G32R12G17
                                R 6R 4R20R 5R21R19
  20681611.894   108682668.756                                  
  22146596.216   116381092.020                                  
  21442079.090   112678950.982                                  
  20183923.698   106067297.269                                  
  22471362.875   118087891.609                                  
  20922007.858   109945958.012                                  
  23496778.163   123476464.404                                  
  25145169.123   132138761.171                                  
  24156446.698   126943043.354                                  
  22887013.841   120272129.360                                  
  24203203.754   129289162.843                                  
  25667006.751                                                  
  20876247.936   111399654.643                                  
  22681180.562   121456624.854                                  
  19660187.952   105131872.701                                  
  19536733.563   104435080.664                                  
  20777695.067   111185684.890                                  
  22864714.605   122310800.202                                  
 16  8 28 15 35 46.0010000  0 18G 1G 3G 8G11G14G22G28G10G27G32R12G17
                                R 6R 4R20R 5R21R19
  20681454.888   108681843.659                                  
  22146110.420   116378540.568                                  
  21442546.470   112681405.481                                  
  20183898.193   106067164.917                                  
  22471251.065   118087304.795                                  
  20921764.332   109944678.827                                  
  23496752.275   123476328.392                                  
  25145836.681   132142270.829                                  
  24157154.778   126946761.325                                  
  22887236.401   120273298.739                                  
  24203358.092   129289986.447                                  
  25666362.275                                                  
  20875657.774   111396500.846                                  
  22681933.368   121460656.276                                  
  19660317.520   105132564.854                                  
  19536936.405   104436164.320                                  
  20777169.069   111182869.848                                  
  22865381.317   122314365.369                                  
 16  8 28 15 35 47.0010000  0 18G 1G 3G 8G11G14G22G28G10G27G32R12G17
                                R 6R 4R20R 5R21R19
  20681298.327   108681019.721                                  
  22145624.726   116375990.282                                  
  21443013.750   112683861.322                                  
  20183873.274   106067033.934                                  
  22471139.971   118086719.429                                  
  20921520.833   109943400.922                                  
  23496726.748   123476193.815                                  
  25146504.555   132145781.352                                  
  24157863.503   126950480.329                                  
  22887459.110   120274469.591                                  
  24203513.918   129290811.603                                  
  25665720.192                                                  
  20875068.206   111393348.473                                  
  22682686.171   121464688.913                                  
  19660447.171   105133258.507                                  
  19537139.639   104437249.656                                  
  20776643.534   111180056.006                                  
  22866047.736   122317931.734                                  
 16  8 28 15 35 48.0010000  0 18G 1G 3G 8G11G14G22G28G10G27G32R12G17
                                R 6R 4R20R 5R21R19
  20681141.844   108680196.724                                  
  22145139.496   116373441.049                                  
  21443481.331   112686318.243                                  
  20183848.300   106066904.085                                  
  22471028.911   118086135.275                                  
  20921277.750   109942124.091                                  
  23496701.777   123476060.420                                  
  25147172.678   132149292.494                                  
  24158572.100   126954200.085                                  
  22887682.339   120275641.693                                  
  24203665.626   129291638.238                                  
  25665079.274                                                  
  20874478.262   111390197.260                                  
  22683439.209   121468722.277                                  
  19660576.992   105133953.393                                  
  19537343.156   104438336.392                                  
  20776117.776   111177243.106                                  
  22866714.596   122321499.061                                  
 16  8 28 15 35 49.0010000  0 18G 1G 3G 8G11G14G22G28G10G27G32R12G17
                                R 6R 4R20R 5R21R19
  20680985.429   108679374.895                                  
  22144654.707   116370892.997                                  
  21443949.276   112688776.498                                  
  20183823.711   106066775.577                                  
  22470918.525   118085552.577                                  
  20921035.148   109940848.537                                  
  23496676.350   123475928.466                                  
  25147840.950   132152804.516                                  
  24159280.631   126957920.856                                  
  22887905.425   120276815.290                                  
  24203819.977   129292466.497                                  
  25664439.534                                                  
  20873888.309   111387047.459                                  
  22684192.487   121472756.816                                  
  19660707.323   105134649.814                                  
  19537546.691   104439424.805                                  
  20775592.045   111174431.398                                  
  22867381.705   122325067.501                                  
 16  8 28 15 35 50.0010000  0 18G 1G 3G 8G11G14G22G28G10G27G32R12G17
                                R 6R 4R20R 5R21R19
  20680829.568   108678554.455                                  
  22144170.553   116368346.381                                  
  21444417.293   112691236.295                                  
  20183799.787   106066648.671                                  
  22470808.089   118084971.538                                  
  20920792.331   109939574.496                                  
  23496651.066   123475798.159                                  
  25148509.664   132156317.622                                  
  24159989.443   126961642.847                                  
  22888128.762   120277990.566                                  
  24203974.626   129293296.578                                  
  25663795.342                                                  
  20873299.020   111383899.294                                  
  22684945.887   121476792.683                                  
  19660838.274   105135347.956                                  
  19537750.601   104440515.047                                  
  20775066.990   111171621.095                                  
  22868048.888   122328637.392                                  
 16  8 28 15 35 51.0010000  0 18G 1G 3G 8G11G14G22G28G10G27G32R12G17
                                R 6R 4R20R 5R21R19
  20680674.237   108677735.201                                  
  22143686.554   116365800.932                                  
  21444885.731   112693697.418                                  
  20183776.233   106066523.128                                  
  22470698.445   118084391.963                                  
  20920550.292   109938301.752                                  
  23496626.965   123475669.285                                  
  25149178.321   132159831.594                                  
  24160698.917   126965365.838                                  
  22888352.873   120279167.331                                  
  24204129.658   129294128.428                                  
  25663152.351                                                  
  20872710.184   111380752.524                                  
  22685699.631   121480829.650                                  
  19660969.378   105136047.613                                  
  19537955.070   104441606.949                                  
  20774541.886   111168812.012                                  
  22868716.407   122332208.396                                  
 16  8 28 15 35 52.0010000  0 18G 1G 3G 8G11G14G22G28G10G27G32R12G17
                                R 6R 4R20R 5R21R19
  20680518.721   108676916.881                                  
  22143203.076   116363256.517                                  
  21445354.418   112696159.628                                  
  20183752.442   106066398.725                                  
  22470589.176   118083813.572                                  
  20920308.556   109937030.079                                  
  23496602.374   123475541.619                                  
  25149847.120   132163346.184                                  
  24161407.784   126969089.648                                  
  22888576.844   120280345.356                                  
  24204285.903   129294961.519                                  
  25662509.727                                                  
  20872121.069   111377606.941                                  
  22686453.647   121484867.508                                  
  19661100.503   105136748.508                                  
  19538159.870   104442700.244                                  
  20774017.102   111166003.930                                  
  22869383.424   122335780.381                                  
 16  8 28 15 35 53.0010000  0 18G 1G 3G 8G11G14G22G28G10G27G32R12G17
                                R 6R 4R20R 5R21R19
  20680363.006   108676099.330                                  
  22142718.968   116360712.890                                  
  21445822.838   112698622.754                                  
  20183728.960   106066275.276                                  
  22470479.406   118083236.246                                  
  20920066.253   109935759.270                                  
  23496577.981   123475414.969                                  
  25150515.920   132166861.239                                  
  24162116.437   126972814.028                                  
  22888800.828   120281524.431                                  
  24204441.279   129295795.897                                  
  25661868.286                                                  
  20871531.893   111374462.334                                  
  22687207.823   121488906.057                                  
  19661231.598   105137450.493                                  
  19538364.814   104443794.782                                  
  20773492.487   111163196.635                                  
  22870050.166   122339353.166                                  
 16  8 28 15 35 54.0010000  0 18G 1G 3G 8G11G14G22G28G10G27G32R12G17
                                R 6R 4R20R 5R21R19
  20680207.756   108675282.313                                  
  22142235.093   116358169.808                                  
  21446291.678   112701086.562                                  
  20183705.734   106066152.549                                  
  22470369.696   118082659.718                                  
  20919824.304   109934489.118                                  
  23496553.880   123475289.114                                  
  25151184.762   132170376.504                                  
  24162825.387   126976538.721                                  
  22889025.295   120282704.362                                  
  24204596.390   129296631.328                                  
  25661227.084                                                  
  20870943.101   111371318.504                                  
  22687961.934   121492945.030                                  
  19661363.133   105138153.380                                  
  19538569.806   104444890.355                                  
  20772967.951   111160389.826                                  
  22870715.032   122342926.468                                  
 16  8 28 15 35 55.0010000  0 18G 1G 3G 8G11G14G22G28G10G27G32R12G17
                                R 6R 4R20R 5R21R19
  20680052.867   108674465.927                                  
  22141751.347   116355627.393                                  
  21446760.465   112703551.151                                  
  20183682.377   106066030.624                                  
  22470260.299   118082084.083                                  
  20919583.011   109933219.708                                  
  23496530.056   123475164.125                                  
  25151853.987   132173892.088                                  
  24163534.340   126980263.929                                  
  22889250.322   120283885.195                                  
  24204752.984   129297467.743                                  
  25660585.429                                                  
  20870354.204   111368175.532                                  
  22688716.107   121496984.550                                  
  19661494.612   105138857.152                                  
  19538774.925   104445987.001                                  
  20772443.227   111157583.628                                  
  22871383.746   122346500.354                                  
 16  8 28 15 35 56.0010000  0 18G 1G 3G 8G11G14G22G28G10G27G32R12G17
                                R 6R 4R20R 5R21R19
  20679897.345   108673650.365                                  
  22141267.670   116353085.867                                  
  21447229.917   112706016.725                                  
  20183659.578   106065909.747                                  
  22470151.599   118081509.582                                  
  20919341.554   109931951.247                                  
  23496506.197   123475040.231                                  
  25152522.620   132177408.189                                  
  24164243.447   126983989.796                                  
  22889474.981   120285067.198                                  
  24204908.653   129298305.491                                  
  25659944.118                                                  
  20869765.577   111365033.662                                  
  22689470.632   121501024.838                                  
  19661626.274   105139562.067                                  
  19538980.628   104447084.958                                  
  20771918.796   111154778.337                                  
  22872053.460   122350075.048                                  
 16  8 28 15 35 57.0010000  0 18G 1G 3G 8G11G14G22G28G10G27G32R12G17
                                R 6R 4R20R 5R21R19
  20679742.716   108672835.714                                  
  22140784.402   116350545.280                                  
  21447699.123   112708483.357                                  
  20183636.614   106065789.963                                  
  22470042.548   118080936.235                                  
  20919100.381   109930683.800                                  
  23496482.744   123474917.486                                  
  25153192.020   132180924.888                                  
  24164952.392   126987716.408                                  
  22889700.302   120286250.396                                  
  24205065.927   129299144.604                                  
  25659301.119                                                  
  20869177.230   111361892.918                                  
  22690225.550   121505065.930                                  
  19661758.315   105140268.201                                  
  19539186.331   104448184.306                                  
  20771394.474   111151973.994                                  
  22872720.551   122353650.746                                  
 16  8 28 15 35 58.0010000  0 18G 1G 3G 8G11G14G22G28G10G27G32R12G17
                                R 6R 4R20R 5R21R19
  20679588.347   108672021.994                                  
  22140301.617   116348005.662                                  
  21448169.171   112710951.077                                  
  20183613.996   106065671.296                                  
  22469933.733   118080364.116                                  
  20918859.326   109929417.414                                  
  23496459.614   123474795.949                                  
  25153861.748   132184442.225                                  
  24165661.209   126991443.803                                  
  22889925.899   120287434.839                                  
  24205225.662   129299985.156                                  
  25658659.557                                                  
  20868589.359   111358753.364                                  
  22690980.377   121509107.851                                  
  19661890.396   105140975.561                                  
  19539392.261   104449285.042                                  
  20770870.321   111149170.598                                  
  22873386.002   122357227.308                                  
 16  8 28 15 35 59.0010000  0 18G 1G 3G 8G11G14G22G28G10G27G32R12G17
                                R 6R 4R20R 5R21R19
  20679433.910   108671208.719                                  
  22139819.077   116345466.509                                  
  21448638.906   112713419.396                                  
  20183592.053   106065553.263                                  
  22469824.983   118079792.706                                  
  20918618.529   109928151.568                                  
  23496436.592   123474675.111                                  
  25154530.593   132187959.682                                  
  24166370.022   126995171.404                                  
  22890152.005   120288619.994                                  
  24205382.147   129300826.573                                  
  25658019.503                                                  
  20868001.033   111355614.473                                  
  22691735.300   121513150.171                                  
  19662022.489   105141683.690                                  
  19539598.091   104450386.653                                  
  20770346.326   111146367.641                                  
  22874056.518   122360804.322                                  
 16  8 28 15 36  0.0010000  0 18G 1G 3G 8G11G14G22G28G10G27G32R12G17
                                R 6R 4R20R 5R21R19
  20679278.704   108670395.477                                  
  22139336.326   116342927.464                                  
  21449108.230   112715887.908                                  
  20183569.675   106065435.475                                  
  22469716.849   118079221.647                                  
  20918377.606   109926885.914                                  
  23496413.783   123474554.585                                  
  25155199.861   132191476.874                                  
  24167079.011   126998898.953                                  
  22890377.515   120289805.534                                  
  24205539.705   129301668.425                                  
  25657376.783                                                  
  20867412.463   111352475.846                                  
  22692490.087   121517192.462                                  
  19662154.841   105142392.171                                  
  19539804.187   104451488.789                                  
  20769822.754   111143564.723                                  
  22874724.887   122364381.367                                  
 16  8 28 15 36  1.0010000  0 18G 1G 3G 8G11G14G22G28G10G27G32R12G17
                                R 6R 4R20R 5R21R19
  20679123.630   108669582.221                                  
  22138853.201   116340388.281                                  
  21449578.114   112718356.552                                  
  20183547.454   106065317.834                                  
  22469608.668   118078650.765                                  
  20918136.676   109925620.312                                  
  23496390.748   123474434.229                                  
  25155869.114   132194993.725                                  
  24167788.271   127002626.288                                  
  22890603.251   120290991.318                                  
  24205698.223   129302510.896                                  
  25656731.369                                                  
  20866824.365   111349337.313                                  
  22693245.141   121521234.568                                  
  19662287.519   105143100.932                                  
  19540010.409   104452591.348                                  
  20769299.051   111140761.762                                  
  22875393.501   122367958.254                                  
 16  8 28 15 36  2.0010000  0 18G 1G 3G 8G11G14G22G28G10G27G32R12G17
                                R 6R 4R20R 5R21R19
  20678968.952   108668769.103                                  
  22138370.005   116337849.475                                  
  21450048.075   112720825.483                                  
  20183524.972   106065200.528                                  
  22469500.867   118078080.382                                  
  20917896.131   109924355.006                                  
  23496367.758   123474314.373                                  
  25156538.354   132198510.406                                  
  24168496.669   127006353.539                                  
  22890829.093   120292177.583                                  
  24205853.299   129303353.822                                  
  25656088.486                                                  
  20866235.856   111346199.245                                  
  22694000.072   121525276.832                                  
  19662420.010   105143810.162                                  
  19540216.697   104453694.459                                  
  20768775.541   111137959.001                                  
  22876061.971   122371535.401                                  
 16  8 28 15 36  3.0010000  0 18G 1G 3G 8G11G14G22G28G10G27G32R12G17
                                R 6R 4R20R 5R21R19
  20678814.419   108667956.051                                  
  22137887.358   116335310.704                                  
  21450517.776   112723294.609                                  
  20183502.897   106065083.472                                  
  22469392.584   118077510.305                                  
  20917655.268   109923089.880                                  
  23496345.160   123474194.769                                  
  25157207.997   132202026.834                                  
  24169206.494   127010080.670                                  
  22891054.579   120293364.189                                  
  24206012.218   129304197.260                                  
  25655446.180                                                  
  20865647.815   111343061.464                                  
  22694754.955   121529319.013                                  
  19662552.697   105144519.743                                  
  19540423.347   104454798.139                                  
  20768251.864   111135156.261                                  
  22876728.783   122375112.607                                  
 16  8 28 15 36  4.0010000  0 18G 1G 3G 8G11G14G22G28G10G27G32R12G17
                                R 6R 4R20R 5R21R19
  20678660.076   108667143.765                                  
  22137404.157   116332772.674                                  
  21450987.701   112725764.693                                  
  20183480.899   106064967.376                                  
  22469284.208   118076941.195                                  
  20917414.917   109921825.608                                  
  23496322.695   123474076.175                                  
  25157877.281   132205543.753                                  
  24169916.033   127013808.313                                  
  22891280.768   120294551.853                                  
  24206173.008   129305041.923                                  
  25654805.849                                                  
  20865059.781   111339924.670                                  
  22695509.913   121533361.806                                  
  19662685.545   105145230.408                                  
  19540630.084   104455902.972                                  
  20767728.218   111132354.297                                  
  22877394.901                                                  
 16  8 28 15 36  5.0010000  0 17G 1G 3G 8G11G14G22G28G10G32R12G17R 6
                                R 4R20R 5R21R19
  20678505.256   108666330.325                                  
  22136921.395   116330233.589                                  
  21451457.775   112728233.792                                  
  20183458.146   106064850.296                                  
  22469174.867   118076371.201                                  
  20917174.704   109920560.251                                  
  23496300.173   123473956.729                                  
  25158546.279   132209059.132                                  
  22891506.967   120295738.749                                  
  24206327.831   129305885.934                                  
  25654166.667                                                  
  20864471.343   111336786.945                                  
  22696267.697   121537403.237                                  
  19662818.424   105145940.177                                  
  19540836.406   104457007.255                                  
  20767204.249   111129551.132                                  
  22878058.847   122382260.6243                                 
 16  8 28 15 36  6.0010000  0 18G 1G 3G 8G11G14G22G28G10G27G32R12G17
                                R 6R 4R20R 5R21R19
  20678350.204                                                  
  22136438.726                                                  
  21451927.234   112730637.9033                                 
  20183435.635   106064669.8973                                 
  22469065.709                                                  
  20916933.734   109919228.5373                                 
  23496277.638                                                  
  25159214.943   132212566.6573                                 
  24171351.071                                                  
  22891732.487   120296865.3193                                 
  24206484.002                                                  
  25653522.721                                                  
  20863882.987   111333676.8193                                 
  22697020.879                                                  
  19662951.024                                                  
  19541042.637   104458093.2893                                 
  20766680.432   111126744.4853                                 
  22878726.183                                                  
 16  8 28 15 36  7.0010000  0 18G 1G 3G 8G11G14G22G28G10G27G32R12G17
                                R 6R 4R20R 5R21R19
  20678195.320   108664649.4643                                 
  22135956.221   116325234.6503                                 
  21452397.319   112733107.9062                                 
  20183413.591   106064553.8132                                 
  22468956.612   118075163.2583                                 
  20916693.545   109917966.0522                                 
  23496255.795   123473657.1393                                 
  25159883.958   132216082.0932                                 
  24172052.022   127024989.8513                                 
  22891958.421   120298053.3462                                 
  24206648.287   129307527.3083                                 
  25652879.005                                                  
  20863294.919   111330540.1112                                 
  22697774.436   121545579.1843                                 
  19663084.012   105147361.8093                                 
  19541249.370   104459199.0432                                 
  20766156.786   111123942.0042                                 
  22879391.433                                                  
 16  8 28 15 36  8.0010000  0 18G 1G 3G 8G11G14G22G28G10G27G32R12G17
                                R 6R 4R20R 5R21R19
  20678040.713   108663836.9742                                 
  22135473.284   116322696.6052                                 
  21452867.109   112735578.3842                                 
  20183391.986   106064438.3232                                 
  22468848.517   118074595.1402                                 
  20916453.580   109916702.0952                                 
  23496233.603   123473539.4182                                 
  25160552.936   132219597.5472                                 
  24172756.328   127028716.8132                                 
  22892184.620   120299242.0772                                 
  24206808.921   129308417.5253                                 
  25652239.304                                                  
  20862706.781   111327399.9963                                 
  22698526.772   121549601.4643                                 
  19663216.961   105148073.5042                                 
  19541456.461   104460305.5342                                 
  20765633.563   111121141.9213                                 
  22880055.126                                                  
 16  8 28 15 36  9.0010000  0 18G 1G 3G 8G11G14G22G28G10G27G32R12G17
                                R 6R 4R20R 5R21R19
  20677885.738   108663024.9222                                 
  22134990.766   116320159.0142                                 
  21453336.911   112738049.4172                                 
  20183370.180   106064323.3982                                 
  22468740.081   118074027.6872                                 
  20916212.983   109915438.6022                                 
  23496211.445   123473422.3662                                 
  25161221.905   132223113.0942                                 
  24173462.835   127032443.9712                                 
  22892410.860   120300431.4892                                 
  24206964.590   129309264.7072                                 
  25651595.100                                                  
  20862118.320   111324264.5322                                 
  22699281.245   121553644.0822                                 
  19663350.482   105148785.9222                                 
  19541663.560   104461412.9322                                 
  20765109.817   111118340.2482                                 
  22880724.320                                                  
 16  8 28 15 36 10.0010000  0 18G 1G 3G 8G11G14G22G28G10G27G32R12G17
                                R 6R 4R20R 5R21R19
  20677731.445   108662213.5982                                 
  22134507.526   116317622.1972                                 
  21453807.349   112740521.3372                                 
  20183347.948   106064209.4092                                 
  22468632.294   118073461.2462                                 
  20915972.716   109914175.9892                                 
  23496188.882   123473306.2972                                 
  25161890.868   132226629.0712                                 
  24174174.978   127036171.6622                                 
  22892636.762   120301621.9432                                 
  24207124.612   129310113.0712                                 
  25650951.650                                                  
  20861530.392   111321130.0302                                 
  22700037.729   121557687.3262                                 
  19663483.980   105149499.3782                                 
  19541871.130   104462521.5382                                 
  20764586.555   111115539.3132                                 
  22881390.997                                                  
 16  8 28 15 36 11.0010000  0 18G 1G 3G 8G11G14G22G28G10G27G32R12G17
                                R 6R 4R20R 5R21R19
  20677577.072   108661403.3122                                 
  22134025.027   116315086.5012                                 
  21454277.624   112742994.4632                                 
  20183326.602   106064096.6682                                 
  22468524.362   118072896.1302                                 
  20915732.524   109912914.5422                                 
  23496166.271   123473191.5422                                 
  25162559.927   132230145.7892                                 
  24174884.910   127039900.2632                                 
  22892862.977   120302813.7762                                 
  24207282.397   129310962.9022                                 
  25650311.556                                                  
  20860942.957   111317996.8222                                 
  22700793.298   121561731.5182                                 
  19663617.588   105150214.1982                                 
  19542079.006   104463631.6762                                 
  20764063.624   111112739.4222                                 
  22882061.064                                                  
 16  8 28 15 36 12.0010000  0 18G 1G 3G 8G11G14G22G28G10G27G32R12G17
                                R 6R 4R20R 5R21R19
  20677422.587   108660594.1702                                 
  22133543.085   116312551.9832                                 
  21454748.553   112745468.8822                                 
  20183305.127   106063985.2612                                 
  22468416.888   118072332.4232                                 
  20915492.405   109911654.3512                                 
  23496144.321   123473078.1822                                 
  25163229.555   132233663.3292                                 
  24175594.477   127043629.8582                                 
  22893089.699   120304007.0512                                 
  24207439.886   129311814.3752                                 
  25649666.919                                                  
  20860355.766   111314865.0322                                 
  22701549.804   121565776.8092                                 
  19663751.802   105150930.5472                                 
  19542287.366   104464743.3812                                 
  20763540.885   111109940.7132                                 
  22882730.694                                                  
 16  8 28 15 36 13.0010000  0 18G 1G 3G 8G11G14G22G28G10G27G32R12G17
                                R 6R 4R20R 5R21R19
  20677268.722   108659786.3002                                 
  22133061.483   116310018.7462                                 
  21455219.693   112747944.7472                                 
  20183284.311   106063875.3322                                 
  22468310.219   118071770.2802                                 
  20915253.333   109910395.5912                                 
  23496123.080   123472966.3782                                 
  25163899.502   132237181.8422                                 
  24176304.721   127047360.5502                                 
  22893316.796   120305201.9072                                 
  24207604.371   129312667.6052                                 
  25649024.430                                                  
  20859768.609   111311734.7642                                 
  22702305.180   121569823.2952                                 
  19663886.229   105151648.4752                                 
  19542495.918   104465856.8762                                 
  20763018.461   111107143.3452                                 
  22883400.110                                                  
 16  8 28 15 36 14.0010000  0 18G 1G 3G 8G11G14G22G28G10G27G32R12G17
                                R 6R 4R20R 5R21R19
  20677115.267   108658979.7512                                 
  22132580.383   116307486.8692                                 
  21455691.207   112750422.0582                                 
  20183263.528   106063766.8882                                 
  22468202.726   118071209.7232                                 
  20915014.234   109909138.2292                                 
  23496102.661   123472856.1322                                 
  25164569.607   132240701.3722                                 
  24177013.627   127051092.3892                                 
  22893544.092   120306398.3862                                 
  24207764.944   129313522.6252                                 
  25648381.813                                                  
  20859181.990   111308606.0262                                 
  22703061.145   121573870.9922                                 
  19664020.792   105152367.5591                                 
  19542704.566   104466971.6631                                 
  20762496.010   111104347.3022                                 
  22884070.382                                                  
 16  8 28 15 36 15.0010000  0 18G 1G 3G 8G11G14G22G28G10G27G32R12G17
                                R 6R 4R20R 5R21R19
  20676961.640   108658174.8372                                 
  22132099.345   116304956.6802                                 
  21456162.361   112752901.1532                                 
  20183242.909   106063660.2922                                 
  22468096.378   118070651.0682                                 
  20914775.327   109907882.5992                                 
  23496082.152   123472747.7602                                 
  25165239.807   132244222.1942                                 
  24177723.971   127054825.6492                                 
  22893772.631   120307596.7892                                 
  24207920.447   129314379.7042                                 
  25647740.363                                                  
  20858595.981   111305479.1512                                 
  22703817.159   121577920.2192                                 
  19664155.792   105153089.098                                  
  19542913.724   104468089.098                                  
  20761973.821   111101552.9052                                 
  22884738.996                                                  
 16  8 28 15 36 16.0010000  0 18G 1G 3G 8G11G14G22G28G10G27G32R12G17
                                R 6R 4R20R 5R21R19
  20676809.138   108657371.6092                                 
  22131618.132   116302428.2142                                 
  21456634.515   112755382.0962                                 
  20183222.937   106063555.5642                                 
  22467989.855   118070094.4302                                 
  20914536.587   109906628.7962                                 
  23496061.727   123472641.3682                                 
  25165910.031   132247744.4222                                 
  24178434.212   127058560.5052                                 
  22894000.862   120308797.1992                                 
  24208082.245   129315238.5161                                 
  25647098.725                                                  
  20858009.776   111302353.7361                                 
  22704573.346   121581970.6781                                 
  19664291.367   105153812.657                                  
  19543123.218   104469208.658                                  
  20761452.177   111098759.7571                                 
  22885409.485                                                  
 16  8 28 15 36 17.0010000  0 18G 1G 3G 8G11G14G22G28G10G27G32R12G17
                                R 6R 4R20R 5R21R19
  20676656.359   108656570.0402                                 
  22131137.278   116299901.4092                                 
  21457107.312   112757864.8212                                 
  20183203.342   106063452.7022                                 
  22467884.314   118069539.7142                                 
  20914298.212   109905376.7822                                 
  23496041.628   123472536.8572                                 
  25166580.509   132251267.9762                                 
  24179145.206   127062296.8402                                 
  22894229.731   120309999.5762                                 
  24208244.367   129316099.978                                  
  25646457.658                                                  
  20857424.478   111299230.707                                  
  22705330.079   121586023.203                                  
  19664426.999   105154538.190                                  
  19543333.323   104470330.351                                  
  20760930.874   111095968.829                                  
  22886083.077                                                  
 16  8 28 15 36 18.0010000  0 18G 1G 3G 8G11G14G22G28G10G27G32R12G17
                                R 6R 4R20R 5R21R19
  20676503.958   108655769.3642                                 
  22130656.522   116297375.5882                                 
  21457580.457   112760348.5762                                 
  20183184.040   106063350.8992                                 
  22467778.535   118068986.0642                                 
  20914059.914   109904125.7542                                 
  23496022.167   123472433.5112                                 
  25167251.097   132254792.1052                                 
  24179856.159   127066033.9292                                 
  22894458.763   120311203.1062                                 
  24208406.937   129316962.780                                  
  25645816.982                                                  
  20856839.115   111296108.780                                  
  22706086.651   121590076.520                                  
  19664562.639   105155264.877                                  
  19543543.083   104471453.400                                  
  20760409.426   111093178.783                                  
  22886755.408                                                  
 16  8 28 15 36 19.0010000  0 18G 1G 3G 8G11G14G22G28G10G27G32R12G17
                                R 6R 4R20R 5R21R19
  20676351.528   108654968.0141                                 
  22130175.878   116294849.1101                                 
  21458053.297   112762832.321                                  
  20183164.865   106063248.5861                                 
  22467673.269   118068432.1171                                 
  20913821.983   109902874.1461                                 
  23496002.959   123472330.237                                  
  25167921.574   132258315.2381                                 
  24180566.766   127069770.4722                                 
  22894688.017   120312406.2661                                 
  24208569.538   129317825.814                                  
  25645174.709                                                  
  20856253.939   111292986.899                                  
  22706843.297   121594129.552                                  
  19664698.629   105155991.717                                  
  19543752.988   104472576.745                                  
  20759888.188   111090388.538                                  
  22887429.243                                                  
 16  8 28 15 36 20.0010000  0 18G 1G 3G 8G11G14G22G28G10G27G32R12G17
                                R 6R 4R20R 5R21R19
  20676198.917   108654167.474                                  
  22129695.519   116292324.028                                  
  21458526.280   112765317.941                                  
  20183145.299   106063147.729                                  
  22467568.365   118067880.499                                  
  20913584.099   109901624.034                                  
  23495983.096   123472227.052                                  
  25168592.524   132261839.461                                  
  24181277.747   127073509.2142                                 
  22894918.081   120313611.260                                  
  24208727.315   129318688.887                                  
  25644534.354                                                  
  20855669.418   111289866.579                                  
  22707600.383   121598183.122                                  
  19664834.697   105156720.078                                  
  19543963.472   104473701.386                                  
  20759367.103   111087598.214                                  
  22888099.380                                                  
 16  8 28 15 36 21.0010000  0 18G 1G 3G 8G11G14G22G28G10G27G32R12G17
                                R 6R 4R20R 5R21R19
  20676046.252   108653366.490                                  
  22129215.341   116289800.505                                  
  21458999.705   112767806.313                                  
  20183126.097   106063047.435                                  
  22467463.526   118067330.789                                  
  20913345.827   109900375.234                                  
  23495963.609   123472122.818                                  
  25169263.439   132265363.261                                  
  24181989.483                                                  
  22895147.806   120314816.827                                  
  24208887.447   129319549.717                                  
  25643893.907                                                  
  20855085.560   111286749.062                                  
  22708357.033   121602235.392                                  
  19664971.371   105157449.773                                  
  19544174.022   104474826.955                                  
  20758845.402   111084806.380                                  
  22888773.774                                                  
 16  8 28 15 36 22.0010000  0 18G 1G 3G 8G11G14G22G28G10G27G32R12G17
                                R 6R 4R20R 5R21R19
  20675894.328   108652566.607                                  
  22128737.637                                                  
  21459473.740   112770295.750                                  
  20183107.205   106062948.303                                  
  22467358.774   118066781.501                                  
  20913108.090   109899127.900                                  
  23495944.136   123472020.511                                  
  25169934.917   132268887.665                                  
  24182708.392                                                  
  22895378.361   120316023.134                                  
  24209049.223                                                  
  25643248.805                                                  
  20854501.676   111283632.945                                  
  22709113.736   121606288.095                                  
  19665108.006   105158180.422                                  
  19544384.721   104475953.721                                  
  20758324.212   111082015.855                                  
  22889447.889   122443159.0973                                 
 16  8 28 15 36 23.0010000  0 18G 1G 3G 8G11G14G22G28G10G27G32R12G17
                                R 6R 4R20R 5R21R19
  20675742.005   108651767.930                                  
  22128254.153   116284759.6793                                 
  21459947.483   112772785.978                                  
  20183088.230   106062850.371                                  
  22467253.683   118066214.7633                                 
  20912870.523   109897881.452                                  
  23495924.350   123471919.837                                  
  25170602.185   132272407.2383                                 
  24183437.643                                                  
  22895608.449   120317230.640                                  
  24209201.638                                                  
  25642608.973                                                  
  20853918.114   111280517.644                                  
  22709870.700   121610341.559                                  
  19665244.873   105158912.363                                  
  19544595.903   104477081.925                                  
  20757803.428   111079226.600                                  
  22890128.037                                                  
 16  8 28 15 36 24.0010000  0 18G 1G 3G 8G11G14G22G28G10G27G32R12G17
                                R 6R 4R20R 5R21R19
  20675590.258   108650970.765                                  
  22127775.345   116282238.3792                                 
  21460420.885   112775275.277                                  
  20183070.189   106062753.528                                  
  22467144.844   118065667.0462                                 
  20912633.667   109896635.268                                  
  23495905.292   123471821.317                                  
  25171270.500                                                  
  24184145.219   127088540.3093                                 
  22895839.507   120318439.562                                  
  24209366.499                                                  
  25641960.580   134749411.8603                                 
  20853334.156   111277401.748                                  
  22710627.778   121614397.505                                  
  19665382.053   105159645.003                                  
  19544807.212   104478211.533                                  
  20757282.884   111076439.802                                  
  22890802.659   122450406.7113                                 
 16  8 28 15 36 25.0010000  0 18G 1G 3G 8G11G14G22G28G10G27G32R12G17
                                R 6R 4R20R 5R21R19
  20675439.202   108650174.443                                  
  22127297.582   116279717.3652                                 
  21460894.650   112777764.726                                  
  20183052.032   106062657.487                                  
  22467049.862   118065119.9492                                 
  20912397.762   109895389.581                                  
  23495886.289   123471724.017                                  
  25171944.931   132279445.2372                                 
  24184856.693   127092279.0133                                 
  22896069.483   120319649.689                                  
  24209532.350                                                  
  25641310.797   134746046.0332                                 
  20852750.529   111274286.119                                  
  22711385.043   121618454.412                                  
  19665519.343   105160378.456                                  
  19545019.045   104479342.242                                  
  20756762.545   111073654.078                                  
  22891475.151   122454001.1392                                 
 16  8 28 15 36 26.0010000  0 18G 1G 3G 8G11G14G22G28G10G27G32R12G17
                                R 6R 4R20R 5R21R19
  20675288.199   108649378.487                                  
  22126817.476   116277196.5462                                 
  21461368.011   112780254.427                                  
  20183033.986   106062561.965                                  
  22466948.775   118064573.3132                                 
  20912161.224   109894144.235                                  
  23495866.664   123471627.453                                  
  25172610.013   132282971.5942                                 
  24185563.689   127096019.5292                                 
  22896299.599   120320860.409                                  
  24209702.293                                                  
  25640664.227   134742680.4992                                 
  20852167.199   111271170.831                                  
  22712142.911   121622511.800                                  
  19665656.598   105161112.424                                  
  19545230.746   104480473.754                                  
  20756242.148   111070868.895                                  
  22892153.126   122457630.4563                                 
 16  8 28 15 36 27.0010000  0 18G 1G 3G 8G11G14G22G28G10G27G32R12G17
                                R 6R 4R20R 5R21R19
  20675136.513   108648582.840                                  
  22126337.626   116274676.0872                                 
  21461841.680   112782744.570                                  
  20183016.062   106062466.917                                  
  22466844.226   118064027.2632                                 
  20911924.568   109892899.295                                  
  23495847.728   123471531.408                                  
  25173283.699   132286497.9722                                 
  24186272.861   127099760.0092                                 
  22896530.119   120322071.700                                  
  24209866.286                                                  
  25640024.513   134739314.9682                                 
  20851583.484   111268056.037                                  
  22712900.459   121626569.407                                  
  19665793.974   105161847.046                                  
  19545442.596   104481606.005                                  
  20755721.539   111068084.028                                  
  22892838.767   122461224.9072                                 
 16  8 28 15 36 28.0010000  0 18G 1G 3G 8G11G14G22G28G10G27G32R12G17
                                R 6R 4R20R 5R21R19
  20674985.333   108647787.400                                  
  22125857.160   116272155.8052                                 
  21462315.750   112785235.035                                  
  20182998.034   106062372.250                                  
  22466739.316   118063481.7102                                 
  20911687.802   109891654.657                                  
  23495828.803   123471435.814                                  
  25173956.466   132290024.2252                                 
  24186984.961   127103500.6432                                 
  22896760.569   120323283.498                                  
  24210029.380                                                  
  25639375.919   134735949.3062                                 
  20850999.840   111264941.660                                  
  22713657.991   121630627.066                                  
  19665931.399   105162582.103                                  
  19545654.852   104482738.886                                  
  20755201.195   111065299.334                                  
  22893517.105   122464819.6222                                 
 16  8 28 15 36 29.0010000  0 18G 1G 3G 8G11G14G22G28G10G27G32R12G17
                                R 6R 4R20R 5R21R19
  20674839.349   108646992.064                                  
  22125385.935   116269635.6002                                 
  21462792.226   112787725.738                                  
  20182982.484   106062277.842                                  
  22466640.742   118062936.5362                                 
  20911455.011   109890410.230                                  
  23495820.953   123471340.550                                  
  25174636.638   132293550.0892                                 
  24187695.946   127107241.0752                                 
  22896993.080                                                  
  24210192.697                                                  
  25638741.436   134732583.5692                                 
  20850416.305   111261827.697                                  
  22714415.836   121634684.702                                  
  19666068.842   105163317.626                                  
  19545867.003   104483872.365                                  
  20754680.672   111062514.868                                  
  22894185.811                                                  
 16  8 28 15 36 30.0010000  0 18G 1G 3G 8G11G14G22G28G10G27G32R12G17
                                R 6R 4R20R 5R21R19
  20674691.046   108646196.746                                  
  22124908.263   116267115.6352                                 
  21463269.282   112790216.691                                  
  20182967.549   106062183.763                                  
  22466539.978   118062391.6232                                 
  20911221.150   109889165.955                                  
  23495802.379   123471245.641                                  
  25175307.898   132297075.9732                                 
  24188408.968   127110981.3882                                 
  22897227.765   120325722.9223                                 
  24210357.248   129327371.8233                                 
  25638106.955   134729217.4962                                 
  20849832.477   111258713.870                                  
  22715173.241   121638742.227                                  
  19666206.498   105164053.507                                  
  19546079.756   104485006.314                                  
  20754160.333   111059730.306                                  
  22894848.474   122472048.5563                                 
 16  8 28 15 36 31.0010000  0 18G 1G 3G 8G11G14G22G28G10G27G32R12G17
                                R 6R 4R20R 5R21R19
  20674541.546   108645401.389                                  
  22124429.689   116264595.5922                                 
  21463745.394   112792707.731                                  
  20182952.310   106062089.775                                  
  22466436.458   118061846.4401                                 
  20910986.301   109887921.762                                  
  23495783.793   123471150.935                                  
  25175981.236   132300601.3372                                 
  24189123.755   127114721.4922                                 
  22897458.983   120326935.7412                                 
  24210521.507   129328245.8382                                 
  25637465.439   134725850.5811                                 
  20849248.933   111255600.287                                  
  22715930.855   121642799.664                                  
  19666344.245   105164789.594                                  
  19546292.173   104486140.632                                  
  20753639.806   111056945.724                                  
  22895523.662   122475643.2702                                 
 16  8 28 15 36 32.0010000  0 18G 1G 3G 8G11G14G22G28G10G27G32R12G17
                                R 6R 4R20R 5R21R19
  20674390.968   108644605.883                                  
  22123950.842   116262075.4252                                 
  21464220.156   112795198.767                                  
  20182935.285   106061995.837                                  
  22466333.099   118061301.898                                  
  20910750.611   109886677.558                                  
  23495768.860   123471056.371                                  
  25176654.786   132304126.2602                                 
  24189833.393   127118461.3162                                 
  22897689.221   120328148.7062                                 
  24210688.937   129329120.1822                                 
  25636826.150   134722483.762                                  
  20848665.228   111252486.770                                  
  22716688.313   121646856.861                                  
  19666481.862   105165525.867                                  
  19546504.577   104487275.229                                  
  20753119.096   111054161.013                                  
  22896191.953   122479237.7662                                 
 16  8 28 15 36 33.0010000  0 18G 1G 3G 8G11G14G22G28G10G27G32R12G17
                                R 6R 4R20R 5R21R19
  20674240.117   108643809.917                                  
  22123471.530   116259554.9152                                 
  21464694.549   112797689.586                                  
  20182917.959   106061901.640                                  
  22466229.658   118060757.222                                  
  20910514.056   109885433.028                                  
  23495750.993   123470961.587                                  
  25177327.394   132307650.3822                                 
  24190546.574   127122200.5602                                 
  22897918.731   120329361.5182                                 
  24210852.577   129329994.4292                                 
  25636184.809   134719116.093                                  
  20848081.932   111249373.112                                  
  22717445.700   121650913.435                                  
  19666619.771   105166261.995                                  
  19546716.960   104488409.860                                  
  20752598.107   111051375.842                                  
  22896861.265   122482831.9302                                 
 16  8 28 15 36 34.0010000  0 18G 1G 3G 8G11G14G22G28G10G27G32R12G17
                                R 6R 4R20R 5R21R19
  20674088.318   108643012.384                                  
  22122991.606   116257035.8512                                 
  21465169.718   112800182.637                                  
  20182900.180   106061806.927                                  
  22466125.454   118060212.764                                  
  20910277.652   109884189.284                                  
  23495731.632   123470865.135                                  
  25177994.863   132311255.2233                                 
  24191254.128                                                  
  22898151.916   120330572.8572                                 
  24211015.165                                                  
  25635550.655                                                  
  20847499.462   111246261.830                                  
  22718202.634   121654966.734                                  
  19666757.261   105166998.094                                  
  19546929.010   104489543.943                                  
  20752076.781   111048587.900                                  
  22897528.382   122486428.1112                                 
 16  8 28 15 36 35.0010000  0 18G 1G 3G 8G11G14G22G28G10G27G32R12G17
                                R 6R 4R20R 5R21R19
  20673936.202   108642214.182                                  
  22122511.871   116254518.8442                                 
  21465644.626   112802676.214                                  
  20182881.909   106061711.610                                  
  22466021.209   118059666.089                                  
  20910040.843   109882946.464                                  
  23495716.073   123470769.659                                  
  25178667.647                                                  
  24191964.854   127129640.6623                                 
  22898382.165   120331780.8962                                 
  24211179.192                                                  
  25634914.919                                                  
  20846916.869   111243152.563                                  
  22718953.521   121658985.8523                                 
  19666895.166   105167733.118                                  
  19547140.847   104490676.770                                  
  20751555.369   111045798.729                                  
  22898198.301   122490023.4182                                 
 16  8 28 15 36 36.0010000  0 18G 1G 3G 8G11G14G22G28G10G27G32R12G17
                                R 6R 4R20R 5R21R19
  20673784.027   108641415.955                                  
  22122032.677   116252001.8622                                 
  21466118.868   112805167.868                                  
  20182863.661   106061615.685                                  
  22465916.555   118059116.789                                  
  20909804.162   109881703.318                                  
  23495698.601   123470675.681                                  
  25179337.493                                                  
  24192676.799   127133379.6922                                 
  22898612.274   120332986.9662                                 
  24211340.507                                                  
  25634283.688                                                  
  20846334.167   111240042.652                                  
  22719708.387   121663027.2903                                 
  19667032.150   105168466.569                                  
  19547352.470   104491808.665                                  
  20751033.136   111043010.515                                  
  22898868.812   122493614.9522                                 
 16  8 28 15 36 37.0010000  0 18G 1G 3G 8G11G14G22G28G10G27G32R12G17
                                R 6R 4R20R 5R21R19
  20673632.219   108640618.067                                  
  22121552.925   116249484.2582                                 
  21466592.901   112807657.635                                  
  20182845.524   106061519.610                                  
  22465811.848   118058565.971                                  
  20909567.269   109880459.725                                  
  23495681.281   123470583.464                                  
  25180005.485                                                  
  24193386.623   127137115.5452                                 
  22898840.783   120334192.481                                  
  24211505.477                                                  
  25633641.117                                                  
  20845751.102   111236931.484                                  
  22720464.274   121667075.0052                                 
  19667169.169   105169199.334                                  
  19547564.111   104492940.478                                  
  20750517.138   111040223.202                                  
  22899533.988                                                  
 16  8 28 15 36 38.0010000  0 18G 1G 3G 8G11G14G22G28G10G27G32R12G17
                                R 6R 4R20R 5R21R19
  20673479.962   108639819.763                                  
  22121073.207   116246964.9592                                 
  21467066.829   112810145.861                                  
  20182827.432   106061423.004                                  
  22465706.442   118058014.672                                  
  20909330.360   109879214.808                                  
  23495663.096   123470490.906                                  
  25180668.978                                                  
  24194097.244   127140849.4012                                 
  22899069.747   120335398.315                                  
  24211668.056                                                  
  25632994.287                                                  
  20845168.021   111233818.547                                  
  22721219.371                                                  
  19667306.010   105169931.539                                  
  19547775.852   104494072.116                                  
  20749993.339   111037435.994                                  
  22900203.955                                                  
 16  8 28 15 36 39.0010000  0 18G 1G 3G 8G11G14G22G28G10G27G32R12G17
                                R 6R 4R20R 5R21R19
  20673327.237   108639019.766                                  
  22120593.239   116244442.9652                                 
  21467540.302   112812633.031                                  
  20182808.782   106061325.375                                  
  22465601.448   118057464.198                                  
  20909092.832   109877967.938                                  
  23495645.539   123470395.929                                  
  25181345.324                                                  
  24194807.403   127144582.1732                                 
  22899299.161   120336605.079                                  
  24211830.247                                                  
  25632353.033                                                  
  20844584.625   111230703.548                                  
  22721977.936   121675181.5283                                 
  19667442.828   105170663.495                                  
  19547987.126   104495203.524                                  
  20749472.934   111034647.089                                  
  22900872.516                                                  
 16  8 28 15 36 40.0010000  0 18G 1G 3G 8G11G14G22G28G10G27G32R12G17
                                R 6R 4R20R 5R21R19
  20673172.921   108638219.033                                  
  22120111.591   116241919.9112                                 
  21468011.423   112815119.530                                  
  20182788.544   106061227.089                                  
  22465494.677   118056913.282                                  
  20908853.518   109876720.310                                  
  23495625.391   123470300.155                                  
  25182006.567                                                  
  24195515.550   127148314.2642                                 
  22899527.266   120337811.504                                  
  24211992.730                                                  
  25631718.665                                                  
  20844000.902   111227587.876                                  
  22722733.827   121679229.1122                                 
  19667579.856   105171395.052                                  
  19548198.815   104496334.756                                  
  20748952.608   111031857.216                                  
  22901545.920                                                  
 16  8 28 15 36 41.0010000  0 17G 1G 3G 8G11G14G22G28G27G32R12G17R 6
                                R 4R20R 5R21R19
  20673019.758   108637417.570                                  
  22119630.572   116239396.3712                                 
  21468483.503   112817605.782                                  
  20182768.596   106061128.497                                  
  22465389.208   118056362.517                                  
  20908615.211   109875472.133                                  
  23495606.150   123470203.744                                  
  24196227.237   127152045.9532                                 
  22899756.446   120339018.018                                  
  24212159.231                                                  
  25631068.963                                                  
  20843416.543   111224471.767                                  
  22723489.854                                                  
  19667716.583   105172126.594                                  
  19548410.525   104497465.966                                  
  20748432.003   111029066.661                                  
  22902218.656                                                  
 16  8 28 15 36 42.0010000  0 17G 1G 3G 8G11G14G22G28G27G32R12G17R 6
                                R 4R20R 5R21R19
  20672866.951   108636617.174                                  
  22119149.864   116236874.0052                                 
  21468956.287   112820092.894                                  
  20182749.159   106061030.942                                  
  22465284.212   118055812.385                                  
  20908377.543   109874225.144                                  
  23495587.391   123470108.835                                  
  24196936.390   127155777.7812                                 
  22899985.262   120340225.156                                  
  24212321.950                                                  
  25630432.022                                                  
  20842832.798   111221356.927                                  
  22724245.457   121687325.0032                                 
  19667853.392   105172859.044                                  
  19548621.956   104498598.387                                  
  20747909.805   111026277.160                                  
  22902889.299                                                  
 16  8 28 15 36 43.0010000  0 17G 1G 3G 8G11G14G22G28G27G32R12G17R 6
                                R 4R20R 5R21R19
  20672714.102   108635814.342                                  
  22118669.348   116234349.077                                  
  21469429.238   112822577.750                                  
  20182730.544   106060931.149                                  
  22465179.229   118055260.128                                  
  20908140.004   109872975.806                                  
  23495568.917   123470011.836                                  
  24197649.716   127159507.118                                  
  22900215.027   120341430.226                                  
  24212483.688                                                  
  25629778.332                                                  
  20842248.630   111218239.952                                  
  22724997.190                                                  
  19667990.272   105173589.365                                  
  19548833.466   104499728.695                                  
  20747386.669   111023485.132                                  
  22903556.996                                                  
 16  8 28 15 36 44.0010000  0 17G 1G 3G 8G11G14G22G28G27G32R12G17R 6
                                R 4R20R 5R21R19
  20672561.668   108635010.329                                  
  22118188.863   116231823.161                                  
  21469902.577   112825061.818                                  
  20182711.617   106060830.459                                  
  22465075.051   118054707.181                                  
  20907902.505   109871725.463                                  
  23495550.880   123469913.866                                  
  24198356.031   127163235.205                                  
  22900444.475   120342634.650                                  
  24212651.712                                                  
  25629139.951                                                  
  20841663.982   111215122.020                                  
  22725755.681                                                  
  19668126.698   105174318.929                                  
  19549045.011   104500858.393                                  
  20746865.021   111020691.983                                  
  22904230.719                                                  
 16  8 28 15 36 45.0010000  0 18G 1G 3G 8G11G14G22G28G10G27G32R12G17
                                R 6R 4R20R 5R21R19
  20672408.734   108634206.056                                  
  22117708.469   116229297.073                                  
  21470375.648   112827545.922                                  
  20182692.727   106060729.744                                  
  22464969.914   118054154.380                                  
  20907664.444   109870475.031                                  
  23495532.337   123469815.818                                  
  25185336.010                                                  
  24199070.670   127166973.8473                                 
  22900673.893   120343839.205                                  
  24212815.787                                                  
  25628490.687                                                  
  20841079.771   111212004.210                                  
  22726507.864                                                  
  19668263.228   105175048.629                                  
  19549256.778   104501988.382                                  
  20746343.382   111017898.498                                  
  22904899.961   122525817.7003                                 
 16  8 28 15 36 46.0010000  0 17G 1G 3G 8G11G14G22G28G27G32R12G17R 6
                                R 4R20R 5R21R19
  20672255.687   108633400.999                                  
  22117227.528   116226770.273                                  
  21470848.093   112830029.222                                  
  20182673.425   106060628.354                                  
  22464864.584   118053600.841                                  
  20907426.295   109869223.999                                  
  23495513.786   123469717.466                                  
  24199776.660   127170700.6632                                 
  22900903.233   120345043.018                                  
  24212977.472                                                  
  25627853.041                                                  
  20840495.311   111208885.702                                  
  22727263.140                                                  
  19668399.410   105175777.588                                  
  19549467.986   104503117.842                                  
  20745821.118   111015104.287                                  
  22905569.979   122529401.6942                                 
 16  8 28 15 36 47.0010000  0 18G 1G 3G 8G11G14G22G28G10G27G32R12G17
                                R 6R 4R20R 5R21R19
  20672102.311   108632595.413                                  
  22116746.428   116224242.450                                  
  21471320.870   112832511.124                                  
  20182654.175   106060526.310                                  
  22464759.013   118053046.419                                  
  20907188.060   109867971.943                                  
  23495495.103   123469618.994                                  
  25186679.243                                                  
  24200485.132   127174425.6082                                 
  22901132.734   120346246.354                                  
  24213141.347                                                  
  25627211.460                                                  
  20839910.986   111205766.045                                  
  22728019.293                                                  
  19668535.661   105176505.886                                  
  19549679.173   104504246.991                                  
  20745299.305   111012309.821                                  
  22906237.956   122532982.1112                                 
 16  8 28 15 36 48.0010000  0 18G 1G 3G 8G11G14G22G28G10G27G32R12G17
                                R 6R 4R20R 5R21R19
  20671948.866   108631789.586                                  
  22116265.363   116221714.021                                  
  21471792.547   112834992.080                                  
  20182634.622   106060424.067                                  
  22464653.640   118052491.396                                  
  20906950.238   109866719.469                                  
  23495476.084   123469520.812                                  
  25187344.098   132360397.5022                                 
  24201191.595   127178148.9732                                 
  22901361.436   120347449.437                                  
  24213301.658                                                  
  25626565.847   134668511.8433                                 
  20839326.098   111202645.688                                  
  22728776.039                                                  
  19668672.126   105177233.802                                  
  19549890.360   104505376.103                                  
  20744777.342   111009515.450                                  
  22906903.809   122536561.0612                                 
 16  8 28 15 36 49.0010000  0 18G 1G 3G 8G11G14G22G28G10G27G32R12G17
                                R 6R 4R20R 5R21R19
  20671795.228   108630982.694                                  
  22115784.360   116219184.445                                  
  21472264.416   112837471.933                                  
  20182615.229   106060320.883                                  
  22464547.621   118051935.349                                  
  20906711.972   109865465.850                                  
  23495457.280   123469421.832                                  
  25188011.019                                                  
  24201898.635   127181870.4082                                 
  22901590.006   120348651.626                                  
  24213465.297                                                  
  25625924.548                                                  
  20838741.398   111199524.329                                  
  22729533.204                                                  
  19668808.386   105177960.818                                  
  19550101.451   104506504.467                                  
  20744254.865   111006719.990                                  
  22907574.831   122540138.6422                                 
 16  8 28 15 36 50.0010000  0 18G 1G 3G 8G11G14G22G28G10G27G32R12G17
                                R 6R 4R20R 5R21R19
  20671642.198   108630173.698                                  
  22115302.861   116216653.692                                  
  21472736.675   112839951.200                                  
  20182595.425   106060216.094                                  
  22464441.628   118051377.968                                  
  20906473.168   109864211.172                                  
  23495438.455   123469320.794                                  
  25188677.753   132367391.1653                                 
  24202606.983   127185591.4022                                 
  22901818.647   120349851.818                                  
  24213628.483                                                  
  25625283.062                                                  
  20838156.318   111196402.509                                  
  22730288.118                                                  
  19668944.494   105178686.570                                  
  19550312.424   104507631.412                                  
  20743731.983   111003921.905                                  
  22908242.986   122543715.5352                                 
 16  8 28 15 36 51.0010000  0 18G 1G 3G 8G11G14G22G28G10G27G32R12G17
                                R 6R 4R20R 5R21R19
  20671487.701   108629362.514                                  
  22114820.921   116214121.731                                  
  21473208.889   112842429.904                                  
  20182575.501   106060109.774                                  
  22464335.579   118050819.958                                  
  20906234.214   109862955.131                                  
  23495418.832   123469217.383                                  
  25189342.229   132370889.8122                                 
  24203316.615   127189312.4792                                 
  22902047.066   120351050.928                                  
  24213791.350                                                  
  25624637.886   134658383.5442                                 
  20837570.685   111193279.889                                  
  22731042.801                                                  
  19669080.370   105179411.206                                  
  19550523.175   104508757.074                                  
  20743208.450   111001121.172                                  
  22908909.641   122547292.1272                                 
 16  8 28 15 36 52.0010000  0 18G 1G 3G 8G11G14G22G28G10G27G32R12G17
                                R 6R 4R20R 5R21R19
  20671333.953   108628551.224                                  
  22114339.831   116211590.631                                  
  21473681.018   112844910.579                                  
  20182555.490   106060004.044                                  
  22464229.586   118050263.480                                  
  20905995.724   109861699.894                                  
  23495399.655                                                  
  25190004.798   132374388.1252                                 
  24204025.074   127193035.3052                                 
  22902276.024   120352250.540                                  
  24213954.052                                                  
  25623994.826                                                  
  20836983.092                                                  
  22731798.958                                                  
  19669215.958   105180137.108                                  
  19550734.152   104509883.685                                  
  20742685.035   110998319.594                                  
  22909580.336                                                  
 16  8 28 15 36 53.0010000  0 18G 1G 3G 8G11G14G22G28G10G27G32R12G17
                                R 6R 4R20R 5R21R19
  20671179.279   108627779.6963                                 
  22113858.282   116209108.8783                                 
  21474152.800   112847434.4053                                 
  20182535.254   106059896.500                                  
  22464124.148   118049706.974                                  
  20905756.859   109860493.4693                                 
  23495379.301   123469050.6743                                 
  25190672.546   132377885.2552                                 
  24204733.782   127196758.0242                                 
  22902504.360   120353449.997                                  
  24214115.514                                                  
  25623349.026                                                  
  20836402.550   111187035.8853                                 
  22732556.930                                                  
  19669351.734   105180879.0033                                 
  19550944.781   104511025.2013                                 
  20742161.053   110995536.1903                                 
  22910250.075   122554437.6273                                 
 16  8 28 15 36 54.0010000  0 18G 1G 3G 8G11G14G22G28G10G27G32R12G17
                                R 6R 4R20R 5R21R19
  20671024.648   108626965.4372                                 
  22113376.701   116206574.7342                                 
  21474624.414   112849913.5602                                 
  20182515.125   106059788.666                                  
  22464018.253   118049149.959                                  
  20905518.004   109859235.7742                                 
  23495359.229   123468943.2472                                 
  25191338.776   132381381.5052                                 
  24205440.374                                                  
  22902732.801   120354649.019                                  
  24214275.733                                                  
  25622701.078                                                  
  20835816.314   111183912.7632                                 
  22733309.580                                                  
  19669487.317   105181603.5642                                 
  19551155.161   104512150.5152                                 
  20741637.106   110992731.2512                                 
  22910916.944                                                  
 16  8 28 15 36 55.0010000  0 18G 1G 3G 8G11G14G22G28G10G27G32R12G17
                                R 6R 4R20R 5R21R19
  20670869.315   108626151.1472                                 
  22112894.369   116204040.5992                                 
  21475095.814   112852392.3462                                 
  20182494.390   106059680.875                                  
  22463912.114   118048592.396                                  
  20905278.345   109857978.0562                                 
  23495338.666   123468836.5742                                 
  25192003.917   132384876.8272                                 
  24206146.122                                                  
  22902960.417   120355847.621                                  
  24214438.234                                                  
  25622054.331                                                  
  20835230.916   111180789.6512                                 
  22734057.522   121739893.1262                                 
  19669623.194   105182327.9432                                 
  19551365.868   104513276.0132                                 
  20741112.797   110989926.4602                                 
  22911583.381                                                  
 16  8 28 15 36 56.0010000  0 18G 1G 3G 8G11G14G22G28G10G27G32R12G17
                                R 6R 4R20R 5R21R19
  20670714.464   108625336.4322                                 
  22112411.975   116201505.9402                                 
  21475567.733   112854870.3192                                 
  20182473.860   106059572.552                                  
  22463805.912   118048033.709                                  
  20905038.944   109856719.7912                                 
  23495318.886   123468729.7042                                 
  25192669.239   132388370.7082                                 
  24206853.371                                                  
  22903185.800   120357045.154                                  
  24214596.765                                                  
  25621415.309                                                  
  20834641.910   111177665.9772                                 
  22734804.383   121743924.1572                                 
  19669758.699   105183051.7312                                 
  19551576.466   104514401.0992                                 
  20740588.466   110987121.4032                                 
  22912255.786   122565165.9412                                 
 16  8 28 15 36 57.0010000  0 18G 1G 3G 8G11G14G22G28G10G27G32R12G17
                                R 6R 4R20R 5R21R19
  20670559.611   108624521.1702                                 
  22111929.932   116198970.5052                                 
  21476039.153   112857346.8072                                 
  20182453.177   106059463.700                                  
  22463699.446   118047474.238                                  
  20904799.363   109855460.7812                                 
  23495298.317   123468623.3042                                 
  25193333.970   132391863.5532                                 
  24207565.126   127211589.4723                                 
  22903416.714   120358242.459                                  
  24214756.657                                                  
  25620765.096                                                  
  20834058.610   111174541.2552                                 
  22735554.685                                                  
  19669894.108   105183774.6782                                 
  19551786.623   104515525.8372                                 
  20740064.100   110984316.1932                                 
  22912924.169   122568739.3922                                 
 16  8 28 15 36 58.0010000  0 18G 1G 3G 8G11G14G22G28G10G27G32R12G17
                                R 6R 4R20R 5R21R19
  20670404.550   108623706.8152                                 
  22111447.796   116196435.2052                                 
  21476510.095   112859822.9882                                 
  20182432.512   106059355.465                                  
  22463593.190   118046914.628                                  
  20904559.894   109854202.0462                                 
  23495278.683   123468518.4512                                 
  25193998.638   132395356.6482                                 
  24208277.114                                                  
  22903643.107   120359440.243                                  
  24214919.878                                                  
  25620124.706                                                  
  20833472.453   111171416.3682                                 
  22736310.337                                                  
  19670029.627   105184498.1782                                 
  19551997.304   104516651.5582                                 
  20739540.371   110981512.4182                                 
  22913591.544                                                  
 16  8 28 15 36 59.0010000  0 18G 1G 3G 8G11G14G22G28G10G27G32R12G17
                                R 6R 4R20R 5R21R19
  20670249.883   108622893.8082                                 
  22110965.280   116193900.4112                                 
  21476981.450   112862299.1342                                 
  20182411.918   106059248.462                                  
  22463486.750   118046355.570                                  
  20904320.200   109852944.0742                                 
  23495259.108   123468415.8052                                 
  25194666.255   132398850.6872                                 
  24208978.973   127219020.1012                                 
  22903875.269   120360639.369                                  
  24215082.112                                                  
  25619476.720                                                  
  20832886.379   111168291.9952                                 
  22737064.051                                                  
  19670165.001                                                  
  19552207.387                                                  
  20739016.563   110978710.5112                                 
  22914256.506   122575883.6083                                 
 16  8 28 15 37  0.0010000  0 18G 1G 3G 8G11G14G22G28G10G27G32R12G17
                                R 6R 4R20R 5R21R19
  20670095.322   108622080.9482                                 
  22110482.175   116191365.2712                                 
  21477453.421   112864774.7412                                 
  20182391.532   106059141.225                                  
  22463380.507   118045796.617                                  
  20904080.711   109851685.7432                                 
  23495239.333   123468313.2602                                 
  25195326.890   132402344.6732                                 
  24209684.773   127222734.0992                                 
  22904100.165   120361838.615                                  
  24215245.695                                                  
  25618826.778                                                  
  20832301.360   111165167.262                                  
  22737813.926                                                  
  19670299.773   105185948.6033                                 
  19552414.822   104518883.6883                                 
  20738492.882   110975907.8381                                 
  22914924.635   122579455.1242                                 
 16  8 28 15 37  1.0010000  0 18G 1G 3G 8G11G14G22G28G10G27G32R12G17
                                R 6R 4R20R 5R21R19
  20669940.109   108621265.8461                                 
  22109999.578   116188829.361                                  
  21477924.416   112867250.060                                  
  20182371.022   106059033.266                                  
  22463274.113   118045236.963                                  
  20903841.117   109850426.723                                  
  23495219.514   123468209.553                                  
  25195991.427                                                  
  24210392.336   127226447.6192                                 
  22904328.881   120363036.970                                  
  24215408.117                                                  
  25618183.007                                                  
  20831715.050   111162041.693                                  
  22738566.863                                                  
  19670439.563   105186672.1592                                 
  19552629.726   104520010.1702                                 
  20737971.094                                                  
  22915593.659   122583026.0642                                 
 16  8 28 15 37  2.0010000  0 18G 1G 3G 8G11G14G22G28G10G27G32R12G17
                                R 6R 4R20R 5R21R19
  20669784.782   108620448.788                                  
  22109517.226                                                  
  21478395.325   112869723.833                                  
  20182348.866   106058922.691                                  
  22463167.470   118044675.364                                  
  20903601.349   109849165.741                                  
  23495199.121   123468103.139                                  
  25196656.328   132409322.6813                                 
  24211098.930   127230159.8292                                 
  22904556.471   120364232.902                                  
  24215571.338                                                  
  25617533.894                                                  
  20831125.508   111158915.124                                  
  22739318.820                                                  
  19670574.025   105187393.6202                                 
  19552843.116   104521173.3583                                 
  20737450.694                                                  
  22916263.185   122586595.4492                                 
 16  8 28 15 37  3.0010000  0 18G 1G 3G 8G11G14G22G28G10G27G32R12G17
                                R 6R 4R20R 5R21R19
  20669628.864   108619629.402                                  
  22109032.620                                                  
  21478865.711   112872197.381                                  
  20182327.285   106058810.852                                  
  22463060.177   118044113.054                                  
  20903361.548   109847903.455                                  
  23495178.488   123467994.557                                  
  25197319.325   132412809.2382                                 
  24211805.786   127233871.4772                                 
  22904783.710   120365427.548                                  
  24215733.847                                                  
  25616892.084                                                  
  20830543.456   111155787.242                                  
  22740069.907                                                  
  19670703.052   105188114.2072                                 
  19553051.576   104522296.3922                                 
  20736922.236   110967520.3793                                 
  22916932.475   122590164.6372                                 
 16  8 28 15 37  4.0010000  0 18G 1G 3G 8G11G14G22G28G10G27G32R12G17
                                R 6R 4R20R 5R21R19
  20669472.955   108618808.950                                  
  22108550.791   116181210.0103                                 
  21479336.095   112874669.573                                  
  20182308.057   106058698.001                                  
  22462953.013   118043550.021                                  
  20903121.213   109846640.023                                  
  23495158.048                                                  
  25197986.574   132416294.2832                                 
  24212511.078   127237581.8512                                 
  22905011.271   120366621.407                                  
  24215894.088                                                  
  25616246.053                                                  
  20829955.375   111152632.1621                                 
  22740820.354   121776081.6113                                 
  19670837.162   105188833.8622                                 
  19553260.896   104523418.7582                                 
  20736393.913   110964674.7483                                 
  22917598.672   122593732.3892                                 
 16  8 28 15 37  5.0010000  0 17G 3G 8G11G14G22G28G10G27G32R12G17R 6
                                R 4R20R 5R21R19
  22108068.616   116178670.1192                                 
  21479806.753   112877142.176                                  
  20182288.534   106058585.191                                  
  22462846.111   118042987.065                                  
  20902880.705   109845376.792                                  
  23495138.213                                                  
  25198646.244                                                  
  24213217.310   127241292.3882                                 
  22905238.166   120367815.018                                  
  24216054.884                                                  
  25615600.787                                                  
  20829373.480   111149504.403                                  
  22741570.975   121780104.9422                                 
  19670970.311   105189553.6792                                 
  19553468.484   104524541.3732                                 
  20735872.858                                                  
  22918264.428                                                  
 16  8 28 15 37  6.0010000  0 17G 1G 3G 8G11G14G22G10G27G32R12G17R 6
                                R 4R20R 5R21R19
  20669155.217                                                  
  22107586.017   116176129.2752                                 
  21480277.102   112879614.223                                  
  20182265.539   106058520.3223                                 
  22462738.775   118042423.779                                  
  20902640.791   109844113.119                                  
  25199307.516                                                  
  24213923.296   127245001.8562                                 
  22905465.115   120369008.721                                  
  24216217.633                                                  
  25614954.281                                                  
  20828788.592   111146376.5863                                 
  22742322.054   121784127.9612                                 
  19671106.589   105190273.3192                                 
  19553680.827   104525663.8322                                 
  20735350.874                                                  
  22918926.241   122600848.5813                                 
 16  8 28 15 37  7.0010000  0 18G 1G 3G 8G11G14G22G28G10G27G32R12G17
                                R 6R 4R20R 5R21R19
  20669007.894   108616321.5713                                 
  22107100.619   116173587.5772                                 
  21480747.772   112882085.558                                  
  20182243.055   106058406.7422                                 
  22462631.838   118041860.372                                  
  20902400.143   109842848.686                                  
  23495097.751   123467571.1693                                 
  25199973.602                                                  
  24214629.221   127248710.484                                  
  22905692.711   120370202.487                                  
  24216380.234                                                  
  25614307.392                                                  
  20828197.462   111143247.3912                                 
  22743072.636   121788142.3193                                 
  19671241.649   105190992.6002                                 
  19553890.382   104526786.2552                                 
  20734819.786   110956281.9532                                 
  22919598.148   122604415.1492                                 
 16  8 28 15 37  8.0010000  0 18G 1G 3G 8G11G14G22G28G10G27G32R12G17
                                R 6R 4R20R 5R21R19
  20668844.924   108615498.7012                                 
  22106618.817   116171044.7852                                 
  21481218.498   112884556.714                                  
  20182221.905   106058292.5302                                 
  22462525.036   118041297.073                                  
  20902159.320   109841583.515                                  
  23495076.407   123467459.5163                                 
  25200636.897                                                  
  24215335.647   127252418.794                                  
  22905920.225   120371396.123                                  
  24216543.149                                                  
  25613659.296                                                  
  20827613.058   111140117.5932                                 
  22743825.539   121792164.3352                                 
  19671375.767   105191711.706                                  
  19554100.535   104527908.4022                                 
  20734299.368   110953466.1573                                 
  22920260.781   122607981.6712                                 
 16  8 28 15 37  9.0010000  0 18G 1G 3G 8G11G14G22G28G10G27G32R12G17
                                R 6R 4R20R 5R21R19
  20668687.925   108614676.8472                                 
  22106135.020   116168503.3662                                 
  21481689.165   112887029.062                                  
  20182201.120   106058179.4562                                 
  22462418.404   118040735.207                                  
  20901918.847   109840319.491                                  
  23495056.917   123467349.2912                                 
  25201299.321                                                  
  24216040.880   127256127.706                                  
  22906147.355   120372591.369                                  
  24216707.173                                                  
  25613001.213                                                  
  20827027.268   111136989.1652                                 
  22744578.128   121796187.4782                                 
  19671510.723   105192432.132                                  
  19554311.072   104529032.0822                                 
  20733770.207   110950654.2652                                 
  22920928.064   122611549.5032                                 
 16  8 28 15 37 10.0010000  0 17G 1G 8G11G14G22G28G10G27G32R12G17R 6
                                R 4R20R 5R21R19
  20668537.488   108613856.4482                                 
  21482159.510   112889502.521                                  
  20182179.665   106058067.9272                                 
  22462311.722   118040174.367                                  
  20901681.310                                                  
  23495030.796   123467240.9322                                 
  25201962.161   132437205.2153                                 
  24216750.092   127259837.751                                  
  22906374.792   120373787.621                                  
  24216866.685                                                  
  25612351.842                                                  
  20826441.058   111133862.0862                                 
  22745325.577   121800211.6132                                 
  19671645.975   105193153.930                                  
  19554521.687   104530156.8571                                 
  20733242.984   110947843.8482                                 
  22921598.894   122615118.0002                                 
 16  8 28 15 37 11.0010000  0 17G 1G 8G11G14G22G28G10G27G32R12G17R 6
                                R 4R20R 5R21R19
  20668379.106   108613035.6222                                 
  21482630.227   112891975.532                                  
  20182159.292   106057956.0742                                 
  22462205.466   118039613.284                                  
  20901437.151   109837793.3693                                 
  23495010.848   123467132.5222                                 
  25202626.602   132440688.5702                                 
  24217450.727   127263546.751                                  
  22906602.666   120374983.728                                  
  24217028.025                                                  
  25611706.302   134590424.7773                                 
  20825854.726   111130734.6862                                 
  22746075.718   121804235.0902                                 
  19671780.856   105193875.509                                  
  19554732.102   104531282.137                                  
  20732717.466   110945033.2002                                 
  22922269.258   122618685.9042                                 
 16  8 28 15 37 12.0010000  0 18G 1G 3G 8G11G14G22G28G10G27G32R12G17
                                R 6R 4R20R 5R21R19
  20668223.934   108612215.2122                                 
  22104697.447                                                  
  21483100.844   112894449.147                                  
  20182137.337   106057844.9082                                 
  22462098.758   118039052.865                                  
  20901194.541   109836530.7472                                 
  23494992.039   123467024.6672                                 
  25203287.649   132444171.9132                                 
  24218160.608   127267256.145                                  
  22906829.964   120376180.450                                  
  24217189.217                                                  
  25611058.557   134587021.3672                                 
  20825269.341   111127607.4921                                 
  22746826.086                                                  
  19671916.252   105194597.781                                  
  19554943.040   104532408.266                                  
  20732192.590   110942223.0222                                 
  22922935.398   122622254.0472                                 
 16  8 28 15 37 13.0010000  0 18G 1G 3G 8G11G14G22G28G10G27G32R12G17
                                R 6R 4R20R 5R21R19
  20668067.532   108611394.8382                                 
  22104196.018                                                  
  21483571.915   112896923.074                                  
  20182117.069   106057733.978                                  
  22461991.751   118038492.791                                  
  20900959.512   109835268.3712                                 
  23494972.135   123466917.1152                                 
  25203951.414   132447654.9702                                 
  24218871.303   127271027.4523                                 
  22907058.282   120377377.610                                  
  24217350.335                                                  
  25610408.656   134583617.5742                                 
  20824683.354   111124481.184                                  
  22747580.625   121812282.5992                                 
  19672051.291   105195320.519                                  
  19555153.765   104533534.972                                  
  20731666.872   110939412.7312                                 
  22923602.110   122625822.3142                                 
 16  8 28 15 37 14.0010000  0 18G 1G 3G 8G11G14G22G28G10G27G32R12G17
                                R 6R 4R20R 5R21R19
  20667910.539   108610573.4942                                 
  22103723.082   116155792.9483                                 
  21484042.043   112899396.221                                  
  20182094.889   106057622.265                                  
  22461885.080   118037931.944                                  
  20900717.860   109834005.2372                                 
  23494949.131   123466808.8282                                 
  25204613.148   132451136.4872                                 
  24219573.247   127274735.6102                                 
  22907285.992   120378573.928                                  
  24217512.753                                                  
  25609760.705   134580212.5832                                 
  20824097.236   111121354.223                                  
  22748331.447   121816304.988                                  
  19672186.452   105196042.550                                  
  19555364.424   104534661.080                                  
  20731141.411   110936601.4902                                 
  22924269.000   122629389.0511                                 
 16  8 28 15 37 15.0010000  0 18G 1G 3G 8G11G14G22G28G10G27G32R12G17
                                R 6R 4R20R 5R21R19
  20667754.406   108609751.9092                                 
  22103233.016   116153251.9042                                 
  21484512.026   112901869.278                                  
  20182073.142   106057510.472                                  
  22461778.745   118037371.138                                  
  20900476.719   109832741.9862                                 
  23494930.488   123466700.6472                                 
  25205276.097   132454617.4202                                 
  24220275.790   127278407.8333                                 
  22907513.729   120379770.244                                  
  24217677.867                                                  
  25609113.503                                                  
  20823511.371   111118227.230                                  
  22749083.521   121820326.992                                  
  19672321.743   105196764.649                                  
  19555575.471   104535787.327                                  
  20730616.150   110933789.9382                                 
  22924935.965   122632955.946                                  
 16  8 28 15 37 16.0010000  0 18G 1G 3G 8G11G14G22G28G10G27G32R12G17
                                R 6R 4R20R 5R21R19
  20667598.322   108608930.5522                                 
  22102748.426   116150710.9612                                 
  21484983.212   112904342.490                                  
  20182051.837   106057399.101                                  
  22461672.154   118036810.742                                  
  20900235.752   109831478.9892                                 
  23494909.447   123466593.1602                                 
  25205937.458   132458098.5862                                 
  24220978.236   127282115.4162                                 
  22907741.122   120380967.174                                  
  24217840.381                                                  
  25608468.475                                                  
  20822925.454   111115100.607                                  
  22749835.350                                                  
  19672456.913   105197487.170                                  
  19555786.121   104536914.210                                  
  20730090.925   110930978.816                                  
  22925602.589   122636523.053                                  
 16  8 28 15 37 17.0010000  0 18G 1G 3G 8G11G14G22G28G10G27G32R12G17
                                R 6R 4R20R 5R21R19
  20667441.545   108608107.6852                                 
  22102264.621                                                  
  21485453.742   112906813.953                                  
  20182030.247   106057286.329                                  
  22461565.119   118036249.188                                  
  20899994.548   109830214.3222                                 
  23494889.059   123466484.1802                                 
  25206599.652   132461577.9752                                 
  24221684.239   127285820.8742                                 
  22907968.793   120382163.084                                  
  24218000.626                                                  
  25607815.970   134570001.5863                                 
  20822338.935   111111972.159                                  
  22750584.205   121828366.7673                                 
  19672591.724   105198208.474                                  
  19555996.558   104538040.025                                  
  20729565.416   110928166.195                                  
  22926269.149   122640088.114                                  
 16  8 28 15 37 18.0010000  0 18G 1G 3G 8G11G14G22G28G10G27G32R12G17
                                R 6R 4R20R 5R21R19
  20667284.676   108607285.9032                                 
  22101780.604   116145640.7063                                 
  21485924.021   112909286.120                                  
  20182009.008   106057174.923                                  
  22461458.644   118035690.496                                  
  20899754.191   109828949.7432                                 
  23494868.001   123466375.5902                                 
  25207262.675   132465060.9102                                 
  24222389.996   127289526.9162                                 
  22908197.330   120383362.651                                  
  24218161.784                                                  
  25607172.917   134566601.0343                                 
  20821752.664   111108843.274                                  
  22751332.732   121832391.0932                                 
  19672727.064   105198931.794                                  
  19556207.435   104539168.155                                  
  20729039.754   110925354.874                                  
  22926936.249   122643655.056                                  
 16  8 28 15 37 19.0010000  0 18G 1G 3G 8G11G14G22G28G10G27G32R12G17
                                R 6R 4R20R 5R21R19
  20667128.362   108606463.3592                                 
  22101299.022   116143096.2882                                 
  21486394.158   112911757.523                                  
  20181987.939   106057062.904                                  
  22461352.113   118035131.225                                  
  20899513.707   109827684.568                                  
  23494847.274   123466266.604                                  
  25207926.407   132468542.5262                                 
  24223097.508   127293232.0062                                 
  22908425.481   120384561.587                                  
  24218323.534                                                  
  25606517.375   134563193.7722                                 
  20821166.263   111105713.853                                  
  22752090.503   121836414.5512                                 
  19672862.325   105199654.615                                  
  19556418.199   104540296.000                                  
  20728514.189   110922542.920                                  
  22927603.004   122647221.053                                  
 16  8 28 15 37 20.0010000  0 18G 1G 3G 8G11G14G22G28G10G27G32R12G17
                                R 6R 4R20R 5R21R19
  20666971.628   108605641.5412                                 
  22100818.190   116140551.5992                                 
  21486864.902   112914229.320                                  
  20181966.386   106056951.845                                  
  22461245.758   118034573.684                                  
  20899273.084   109826419.553                                  
  23494826.923   123466158.037                                  
  25208581.814   132472026.0212                                 
  24223801.736   127296937.2182                                 
  22908654.175   120385762.772                                  
  24218482.942                                                  
  25605871.111   134559786.8342                                 
  20820579.822   111102584.362                                  
  22752842.826   121840440.0822                                 
  19672998.149   105200378.732                                  
  19556629.521   104541425.394                                  
  20727988.584   110919731.854                                  
  22928270.479   122650787.944                                  
 16  8 28 15 37 21.0010000  0 18G 1G 3G 8G11G14G22G28G10G27G32R12G17
                                R 6R 4R20R 5R21R19
  20666815.296   108604820.0002                                 
  22100335.456   116138007.2592                                 
  21487335.840   112916701.548                                  
  20181944.894   106056841.241                                  
  22461139.768   118034016.673                                  
  20899032.481   109825154.944                                  
  23494806.386   123466049.962                                  
  25209245.144   132475509.6162                                 
  24224506.142   127300642.4712                                 
  22908883.132   120386964.451                                  
  24218645.569                                                  
  25605228.024   134556379.9942                                 
  20819993.887   111099455.364                                  
  22753592.373   121844465.6972                                 
  19673133.951   105201103.411                                  
  19556840.926   104542555.555                                  
  20727463.214   110916921.089                                  
  22928937.457   122654355.068                                  
 16  8 28 15 37 22.0010000  0 18G 1G 3G 8G11G14G22G28G10G27G32R12G17
                                R 6R 4R20R 5R21R19
  20666658.940   108603998.6082                                 
  22099852.460   116135463.1022                                 
  21487806.369   112919174.119                                  
  20181923.650   106056730.992                                  
  22461033.771   118033460.067                                  
  20898791.768   109823890.631                                  
  23494785.710   123465942.340                                  
  25209908.307   132478992.8502                                 
  24225211.425   127304347.7752                                 
  22909111.793   120388166.592                                  
  24218804.728                                                  
  25604580.434   134552972.9552                                 
  20819407.922   111096326.803                                  
  22754344.840   121848491.3662                                 
  19673269.652   105201828.545                                  
  19557052.453   104543686.270                                  
  20726937.884   110914110.512                                  
  22929604.635   122657922.298                                  
 16  8 28 15 37 23.0010000  0 18G 1G 3G 8G11G14G22G28G10G27G32R12G17
                                R 6R 4R20R 5R21R19
  20666502.712   108603177.3842                                 
  22099367.174   116132919.1562                                 
  21488276.954   112921646.991                                  
  20181902.730   106056621.096                                  
  22460927.841   118032903.918                                  
  20898550.911   109822626.587                                  
  23494765.625   123465835.141                                  
  25210569.832   132482475.9602                                 
  24225915.945   127308053.0342                                 
  22909340.577   120389369.200                                  
  24218967.368                                                  
  25603930.553   134549565.8402                                 
  20818822.153   111093198.601                                  
  22755095.531   121852517.0062                                 
  19673405.493   105202554.133                                  
  19557264.098   104544817.601                                  
  20726412.624   110911300.074                                  
  22930271.744   122661489.697                                  
 16  8 28 15 37 24.0010000  0 18G 1G 3G 8G11G14G22G28G10G27G32R12G17
                                R 6R 4R20R 5R21R19
  20666346.282   108602356.1842                                 
  22098883.301   116130375.2672                                 
  21488747.634   112924120.020                                  
  20181881.741   106056511.429                                  
  22460821.792   118032348.054                                  
  20898310.404   109821362.668                                  
  23494745.079   123465728.188                                  
  25211230.920   132485958.8082                                 
  24226620.897   127311758.1542                                 
  22909569.085   120390572.116                                  
  24219131.121                                                  
  25603279.773   134546158.4372                                 
  20818236.149   111090070.637                                  
  22755847.801   121856542.0461                                 
  19673541.413   105203280.063                                  
  19557475.765   104545949.395                                  
  20725887.704   110908489.675                                  
  22930938.945   122665057.057                                  
 16  8 28 15 37 25.0010000  0 18G 1G 3G 8G11G14G22G28G10G27G32R12G17
                                R 6R 4R20R 5R21R19
  20666190.423   108601535.458                                  
  22098401.114   116127831.8942                                 
  21489218.103   112926593.674                                  
  20181860.912   106056402.405                                  
  22460716.207   118031792.929                                  
  20898069.988   109820099.337                                  
  23494724.676   123465622.005                                  
  25211894.072   132489441.8352                                 
  24227326.184   127315463.504                                  
  22909797.755   120391775.801                                  
  24219294.473                                                  
  25602631.168   134542751.184                                  
  20817650.402   111086943.383                                  
  22756599.408   121860567.990                                  
  19673677.163   105204006.795                                  
  19557687.645   104547082.122                                  
  20725362.597   110905679.776                                  
  22931606.018   122668624.898                                  
 16  8 28 15 37 26.0010000  0 18G 1G 3G 8G11G14G22G28G10G27G32R12G17
                                R 6R 4R20R 5R21R19
  20666034.370   108600715.223                                  
  22097917.355   116125289.0402                                 
  21489688.812   112929067.975                                  
  20181840.044   106056294.095                                  
  22460610.810   118031238.594                                  
  20897829.689   109818836.630                                  
  23494704.545   123465516.518                                  
  25212558.092   132492924.9512                                 
  24228031.402   127319169.248                                  
  22910026.543   120392980.286                                  
  24219459.107                                                  
  25601987.464   134539344.287                                  
  20817064.423   111083816.844                                  
  22757351.203   121864594.324                                  
  19673813.401   105204734.307                                  
  19557899.657   104548215.792                                  
  20724837.633   110902870.435                                  
  22932273.415   122672193.199                                  
 16  8 28 15 37 27.0010000  0 18G 1G 3G 8G11G14G22G28G10G27G32R12G17
                                R 6R 4R20R 5R21R19
  20665878.466   108599895.834                                  
  22097433.489   116122747.0662                                 
  21490160.207   112931543.241                                  
  20181819.470   106056186.790                                  
  22460505.502   118030685.358                                  
  20897590.037   109817574.858                                  
  23494684.774   123465412.141                                  
  25213221.305   132496408.6332                                 
  24228737.209   127322875.627                                  
  22910256.161   120394185.914                                  
  24219624.884                                                  
  25601337.258   134535937.740                                  
  20816478.432   111080691.374                                  
  22758103.368   121868621.466                                  
  19673949.897   105205463.011                                  
  19558111.808   104549350.756                                  
  20724312.983   110900061.914                                  
  22932940.873   122675762.335                                  
 16  8 28 15 37 28.0010000  0 18G 1G 3G 8G11G14G22G28G10G27G32R12G17
                                R 6R 4R20R 5R21R19
  20665722.934   108599077.114                                  
  22096949.575   116120205.8302                                 
  21490631.241   112934019.326                                  
  20181799.339   106056080.375                                  
  22460400.149   118030133.084                                  
  20897350.090   109816313.884                                  
  23494665.496   123465308.721                                  
  25213884.481   132499892.7512                                 
  24229442.902   127326582.478                                  
  22910486.016   120395392.512                                  
  24219789.627                                                  
  25600685.111   134532531.636                                  
  20815892.711   111077566.845                                  
  22758855.521   121872649.182                                  
  19674086.309   105206192.690                                  
  19558324.142   104550486.869                                  
  20723787.941   110897254.067                                  
  22933608.579   122679332.150                                  
 16  8 28 15 37 29.0010000  0 18G 1G 3G 8G11G14G22G28G10G27G32R12G17
                                R 6R 4R20R 5R21R19
  20665567.488   108598259.001                                  
  22096465.802   116117665.2102                                 
  21491102.397   112936496.172                                  
  20181779.710   106055974.731                                  
  22460295.533   118029581.682                                  
  20897110.607   109815053.625                                  
  23494645.929   123465206.137                                  
  25214547.587   132503376.9472                                 
  24230148.831   127330289.793                                  
  22910716.025   120396600.016                                  
  24219954.859                                                  
  25600026.141   134529125.898                                  
  20815307.361   111074443.141                                  
  22759607.839   121876677.397                                  
  19674223.014   105206923.311                                  
  19558536.899   104551624.012                                  
  20723263.257   110894446.833                                  
  22934276.246   122682902.497                                  
 16  8 28 15 37 30.0010000  0 18G 1G 3G 8G11G14G22G28G10G27G32R12G17
                                R 6R 4R20R 5R21R19
  20665412.327   108597440.844                                  
  22095982.556   116115124.6252                                 
  21491574.271   112938973.127                                  
  20181760.135   106055869.249                                  
  22460191.359   118029030.547                                  
  20896871.288   109813793.513                                  
  23494626.767   123465103.721                                  
  25215211.040   132506861.0142                                 
  24230855.063   127333996.944                                  
  22910946.488   120397807.804                                  
  24220118.101                                                  
  25599391.367   134525719.778                                  
  20814722.120   111071319.712                                  
  22760360.030   121880705.442                                  
  19674359.449   105207654.133                                  
  19558749.522   104552761.607                                  
  20722738.524   110891639.565                                  
  22934943.948   122686472.907                                  
 16  8 28 15 37 31.0010000  0 18G 1G 3G 8G11G14G22G28G10G27G32R12G17
                                R 6R 4R20R 5R21R19
  20665256.813   108596623.417                                  
  22095498.936   116112584.7092                                 
  21492046.048   112941450.925                                  
  20181739.889   106055764.716                                  
  22460086.678   118028480.360                                  
  20896631.926   109812534.115                                  
  23494608.025   123465002.358                                  
  25215874.103   132510344.9131                                 
  24231560.397   127337704.548                                  
  22911176.963   120399016.572                                  
  24220285.676                                                  
  25598744.621   134522314.171                                  
  20814137.232   111068197.151                                  
  22761112.453   121884734.100                                  
  19674496.258   105208386.062                                  
  19558962.707   104553900.323                                  
  20722214.163   110888833.094                                  
  22935611.157   122690043.946                                  
 16  8 28 15 37 32.0010000  0 18G 1G 3G 8G11G14G22G28G10G27G32R12G17
                                R 6R 4R20R 5R21R19
  20665101.431   108595806.792                                  
  22095015.750   116110045.7042                                 
  21492517.826   112943929.696                                  
  20181720.512   106055661.162                                  
  22459981.835   118027931.295                                  
  20896392.437   109811275.700                                  
  23494589.037   123464902.111                                  
  25216537.488   132513829.768                                  
  24232266.193   127341412.776                                  
  22911406.781   120400226.477                                  
  24220450.227                                                  
  25598096.646   134518909.093                                  
  20813552.231   111065075.666                                  
  22761864.793   121888763.472                                  
  19674633.422   105209119.065                                  
  19559176.101   104555040.318                                  
  20721689.692   110886027.495                                  
  22936278.916   122693615.821                                  
 16  8 28 15 37 33.0010000  0 18G 1G 3G 8G11G14G22G28G10G27G32R12G17
                                R 6R 4R20R 5R21R19
  20664946.186   108594991.417                                  
  22094532.377   116107508.0522                                 
  21492989.573   112946409.856                                  
  20181701.044   106055559.033                                  
  22459877.757   118027383.758                                  
  20896153.249   109810018.642                                  
  23494570.647   123464803.259                                  
  25217200.363   132517315.531                                  
  24232972.069   127345122.173                                  
  22911637.298   120401437.904                                  
  24220615.934                                                  
  25597448.338   134515504.929                                  
  20812967.239   111061955.693                                  
  22762617.486   121892794.040                                  
  19674770.929   105209853.676                                  
  19559389.744   104556182.027                                  
  20721165.675   110883223.159                                  
  22936946.867   122697188.877                                  
 16  8 28 15 37 34.0010000  0 18G 1G 3G 8G11G14G22G28G10G27G32R12G17
                                R 6R 4R20R 5R21R19
  20664791.123   108594177.120                                  
  22094049.202   116104971.4282                                 
  21493461.725   112948891.251                                  
  20181682.176   106055458.193                                  
  22459773.736   118026837.563                                  
  20895914.449   109808762.788                                  
  23494552.180   123464705.796                                  
  25217863.530   132520802.158                                  
  24233678.171   127348832.392                                  
  22911868.114   120402650.729                                  
  24220780.376                                                  
  25596800.980   134512101.571                                  
  20812382.534   111058837.048                                  
  22763370.110   121896825.580                                  
  19674908.537   105210589.648                                  
  19559603.500   104557325.263                                  
  20720641.872   110880419.918                                  
  22937615.411   122700763.080                                  
 16  8 28 15 37 35.0010000  0 18G 1G 3G 8G11G14G22G28G10G27G32R12G17
                                R 6R 4R20R 5R21R19
  20664636.241   108593363.713                                  
  22093566.374   116102435.7632                                 
  21493933.841   112951373.668                                  
  20181663.064   106055358.439                                  
  22459670.213   118026292.539                                  
  20895675.940   109807507.937                                  
  23494533.982   123464609.463                                  
  25218526.758   132524289.205                                  
  24234384.289   127352543.355                                  
  22912098.906   120403864.738                                  
  24220946.895                                                  
  25596151.941   134508698.867                                  
  20811798.423   111055719.524                                  
  22764123.087   121900857.941                                  
  19675046.263   105211326.842                                  
  19559817.772   104558469.885                                  
  20720117.990   110877617.569                                  
  22938283.938   122704338.155                                  
 16  8 28 15 37 36.0010000  0 18G 1G 3G 8G11G14G22G28G10G27G32R12G17
                                R 6R 4R20R 5R21R19
  20664481.589   108592551.517                                  
  22093083.719   116099901.3712                                 
  21494406.574   112953857.446                                  
  20181644.698   106055260.077                                  
  22459566.740   118025749.006                                  
  20895437.446   109806254.411                                  
  23494516.019   123464514.602                                  
  25219189.958   132527777.261                                  
  24235090.491   127356255.323                                  
  22912330.377   120405080.260                                  
  24221111.276                                                  
  25595505.873   134505297.056                                  
  20811214.399   111052603.450                                  
  22764876.452   121904891.402                                  
  19675184.547   105212065.605                                  
  19560032.353   104559616.176                                  
  20719594.335   110874816.480                                  
  22938952.521   122707914.400                                  
 16  8 28 15 37 37.0010000  0 18G 1G 3G 8G11G14G22G28G10G27G32R12G17
                                R 6R 4R20R 5R21R19
  20664327.152   108591740.463                                  
  22092601.401   116097367.5941                                 
  21494879.549   112956342.502                                  
  20181626.495   106055163.037                                  
  22459463.423   118025206.887                                  
  20895199.206   109805002.131                                  
  23494498.475   123464421.102                                  
  25219853.941   132531266.093                                  
  24235797.244   127359968.261                                  
  22912561.981   120406297.191                                  
  24221275.784                                                  
  25594858.983   134501896.093                                  
  20810630.886   111049488.765                                  
  22765629.656   121908925.864                                  
  19675322.967   105212805.823                                  
  19560247.483   104560764.076                                  
  20719070.995   110872016.556                                  
  22939621.126   122711491.817                                  
 16  8 28 15 37 38.0010000  0 18G 1G 3G 8G11G14G22G28G10G27G32R12G17
                                R 6R 4R20R 5R21R19
  20664173.089   108590930.613                                  
  22092119.232   116094835.601                                  
  21495352.653   112958828.922                                  
  20181608.449   106055067.399                                  
  22459360.530   118024666.253                                  
  20894961.231   109803751.177                                  
  23494481.029   123464329.098                                  
  25220517.721   132534755.808                                  
  24236504.052   127363682.238                                  
  22912793.813   120407515.661                                  
  24221442.486                                                  
  25594211.874   134498496.018                                  
  20810047.713   111046375.546                                  
  22766383.309   121912961.450                                  
  19675461.788   105213547.575                                  
  19560462.775   104561913.637                                  
  20718547.846   110869217.930                                  
  22940290.294   122715070.417                                  
 16  8 28 15 37 39.0010000  0 18G 1G 3G 8G11G14G22G28G10G27G32R12G17
                                R 6R 4R20R 5R21R19
  20664018.909   108590121.905                                  
  22091637.584   116092304.779                                  
  21495826.428   112961316.612                                  
  20181590.519   106054973.103                                  
  22459258.215   118024127.024                                  
  20894723.418   109802501.473                                  
  23494463.579   123464238.482                                  
  25221181.693   132538246.389                                  
  24237211.046   127367397.164                                  
  22913025.642   120408735.559                                  
  24221607.700                                                  
  25593565.043   134495096.834                                  
  20809464.644   111043263.703                                  
  22767136.849   121916998.156                                  
  19675601.058   105214290.825                                  
  19560678.150   104563064.826                                  
  20718024.954   110866420.461                                  
  22940959.483   122718650.147                                  
 16  8 28 15 37 40.0010000  0 18G 1G 3G 8G11G14G22G28G10G27G32R12G17
                                R 6R 4R20R 5R21R19
  20663865.265   108589314.436                                  
  22091156.074   116089775.254                                  
  21496300.021   112963805.672                                  
  20181573.030   106054880.230                                  
  22459155.822   118023589.316                                  
  20894485.820   109801253.117                                  
  23494446.338   123464149.329                                  
  25221845.838   132541737.883                                  
  24237917.989   127371113.158                                  
  22913257.765   120409956.991                                  
  24221778.633                                                  
  25592918.728   134491698.602                                  
  20808882.112   111040153.362                                  
  22767890.890   121921035.968                                  
  19675740.119   105215035.623                                  
  19560894.018   104564217.693                                  
  20717502.591   110863624.226                                  
  22941628.481   122722231.143                                  
 16  8 28 15 37 41.0010000  0 18G 1G 3G 8G11G14G22G28G10G27G32R12G17
                                R 6R 4R20R 5R21R19
  20663712.043   108588508.384                                  
  22090674.952   116087247.184                                  
  21496774.012   112966296.320                                  
  20181555.660   106054788.982                                  
  22459053.614   118023053.298                                  
  20894248.211   109800006.311                                  
  23494430.088   123464061.893                                  
  25222510.015   132545230.399                                  
  24238625.285   127374830.415                                  
  22913490.254   120411180.144                                  
  24221948.982                                                  
  25592272.581   134488301.500                                  
  20808299.410   111037044.705                                  
  22768644.787   121925075.174                                  
  19675879.773   105215782.182                                  
  19561110.322   104565372.462                                  
  20716980.035   110860829.482                                  
  22942298.050   122725813.563                                  
 16  8 28 15 37 42.0010000  0 18G 1G 3G 8G11G14G22G28G10G27G32R12G17
                                R 6R 4R20R 5R21R19
  20663559.015   108587703.550                                  
  22090194.048   116084720.348                                  
  21497248.058   112968788.305                                  
  20181538.605   106054699.126                                  
  22458951.840   118022518.780                                  
  20894011.204   109798760.819                                  
  23494413.748   123463975.904                                  
  25223175.202   132548723.890                                  
  24239333.005   127378548.677                                  
  22913723.312   120412404.797                                  
  24222113.211                                                  
  25591626.275   134484905.340                                  
  20807716.922   111033937.480                                  
  22769398.916   121929115.447                                  
  19676019.741   105216530.227                                  
  19561326.736   104566528.870                                  
  20716458.030   110858035.990                                  
  22942967.781   122729397.154                                  
 16  8 28 15 37 43.0010000  0 18G 1G 3G 8G11G14G22G28G10G27G32R12G17
                                R 6R 4R20R 5R21R19
  20663406.141   108586899.800                                  
  22089713.102   116082194.638                                  
  21497722.752   112971281.530                                  
  20181521.560   106054610.565                                  
  22458850.227   118021985.628                                  
  20893774.387   109797516.542                                  
  23494397.384   123463891.257                                  
  25223840.070   132552218.155                                  
  24240040.788   127382267.864                                  
  22913956.659   120413630.858                                  
  24222279.607                                                  
  25590980.140   134481509.948                                  
  20807134.826   111030831.599                                  
  22770153.655   121933156.753                                  
  19676159.696   105217279.714                                  
  19561543.393   104567686.861                                  
  20715936.063   110855243.608                                  
  22943637.704   122732981.883                                  
 16  8 28 15 37 44.0010000  0 18G 1G 3G 8G11G14G22G28G10G27G32R12G17
                                R 6R 4R20R 5R21R19
  20663253.312   108586097.390                                  
  22089232.332   116079670.309                                  
  21498197.385   112973776.242                                  
  20181505.192   106054523.533                                  
  22458749.036   118021454.102                                  
  20893537.922   109796273.721                                  
  23494382.163   123463808.226                                  
  25224505.478   132555713.350                                  
  24240748.654   127385988.221                                  
  22914190.051   120414858.557                                  
  24222446.842                                                  
  25590334.377   134478115.659                                  
  20806553.285   111027727.298                                  
  22770908.526   121937199.305                                  
  19676300.149   105218030.831                                  
  19561760.421   104568846.660                                  
  20715414.507   110852452.588                                  
  22944307.945   122736567.958                                  
 16  8 28 15 37 45.0010000  0 18G 1G 3G 8G11G14G22G28G10G27G32R12G17
                                R 6R 4R20R 5R21R19
  20663100.980   108585296.331                                  
  22088751.835   116077147.356                                  
  21498672.426   112976272.439                                  
  20181489.347   106054438.043                                  
  22458648.119   118020924.183                                  
  20893301.537   109795032.357                                  
  23494366.665   123463726.776                                  
  25225170.865   132559209.639                                  
  24241456.867   127389709.747                                  
  22914423.666   120416087.886                                  
  24222612.305                                                  
  25589688.695   134474722.412                                  
  20805971.948   111024624.583                                  
  22771663.863   121941243.085                                  
  19676441.015   105218783.625                                  
  19561977.790   104570008.289                                  
  20714893.133   110849662.942                                  
  22944978.413   122740155.312                                  
 16  8 28 15 37 46.0010000  0 18G 1G 3G 8G11G14G22G28G10G27G32R12G17
                                R 6R 4R20R 5R21R19
  20662949.006   108584496.662                                  
  22088271.671   116074625.882                                  
  21499147.587   112978770.181                                  
  20181473.276   106054354.136                                  
  22458547.922   118020395.946                                  
  20893065.699   109793792.516                                  
  23494351.584   123463646.990                                  
  25225836.369   132562707.000                                  
  24242165.361   127393432.494                                  
  22914657.780   120417318.914                                  
  24222781.506                                                  
  25589043.589   134471330.296                                  
  20805390.533   111021523.524                                  
  22772419.348   121945288.219                                  
  19676582.114   105219538.139                                  
  19562195.198   104571171.787                                  
  20714371.948   110846874.748                                  
  22945649.229   122743744.134                                  
 16  8 28 15 37 47.0010000  0 18G 1G 3G 8G11G14G22G28G10G27G32R12G17
                                R 6R 4R20R 5R21R19
  20662796.951   108583698.193                                  
  22087791.434   116072105.606                                  
  21499623.133   112981269.257                                  
  20181458.146   106054271.621                                  
  22458447.949   118019869.185                                  
  20892830.145   109792553.975                                  
  23494336.766   123463568.640                                  
  25226502.760   132566205.229                                  
  24242874.398   127397156.239                                  
  22914892.660   120418551.429                                  
  24222947.894                                                  
  25588398.072   134467939.052                                  
  20804809.528   111018423.884                                  
  22773174.772   121949334.436                                  
  19676723.574   105220294.181                                  
  19562413.077   104572336.939                                  
  20713850.963   110844087.793                                  
  22946320.064   122747334.102                                  
 16  8 28 15 37 48.0010000  0 18G 1G 3G 8G11G14G22G28G10G27G32R12G17
                                R 6R 4R20R 5R21R19
  20662645.148   108582901.158                                  
  22087311.689   116069586.792                                  
  21500099.014   112983769.907                                  
  20181442.417   106054190.727                                  
  22458347.977   118019344.125                                  
  20892594.432   109791316.984                                  
  23494322.250   123463491.980                                  
  25227169.384   132569704.589                                  
  24243583.287   127400881.240                                  
  22915127.361   120419785.675                                  
  24223115.931                                                  
  25587753.091   134464548.970                                  
  20804228.658   111015325.921                                  
  22773930.851   121953382.080                                  
  19676865.064   105221052.027                                  
  19562631.209   104573503.999                                  
  20713330.287   110841302.301                                  
  22946991.282   122750925.525                                  
 16  8 28 15 37 49.0010000  0 18G 1G 3G 8G11G14G22G28G10G27G32R12G17
                                R 6R 4R20R 5R21R19
  20662493.983   108582105.300                                  
  22086832.381   116067069.216                                  
  21500575.427   112986271.878                                  
  20181427.514   106054111.194                                  
  22458248.378   118018820.532                                  
  20892359.465   109790081.285                                  
  23494307.989   123463416.755                                  
  25227835.969   132573204.794                                  
  24244292.034   127404607.248                                  
  22915362.719   120421021.407                                  
  24223280.460                                                  
  25587108.192   134461159.807                                  
  20803647.967   111012229.373                                  
  22774686.886   121957430.732                                  
  19677007.349   105221811.358                                  
  19562849.677   104574672.662                                  
  20712809.974   110838518.034                                  
  22947662.522   122754518.096                                  
 16  8 28 15 37 50.0010000  0 18G 1G 3G 8G11G14G22G28G10G27G32R12G17
                                R 6R 4R20R 5R21R19
  20662343.060   108581310.981                                  
  22086353.576   116064553.212                                  
  21501051.680   112988775.525                                  
  20181413.050   106054033.397                                  
  22458149.252   118018298.749                                  
  20892124.653   109788847.241                                  
  23494294.092   123463343.332                                  
  25228503.076   132576706.257                                  
  24245001.562   127408334.611                                  
  22915597.922   120422258.965                                  
  24223449.125                                                  
  25586463.498   134457771.877                                  
  20803068.075   111009134.622                                  
  22775443.143   121961480.808                                  
  19677150.009   105222572.598                                  
  19563068.459   104575843.342                                  
  20712289.906   110835735.342                                  
  22948334.116   122758112.234                                  
 16  8 28 15 37 51.0010000  0 18G 1G 3G 8G11G14G22G28G10G27G32R12G17
                                R 6R 4R20R 5R21R19
  20662192.109   108580517.769                                  
  22085874.299   116062038.338                                  
  21501528.217   112991280.433                                  
  20181398.397   106053956.902                                  
  22458050.113   118017778.353                                  
  20891890.161   109787614.417                                  
  23494280.131   123463271.265                                  
  25229170.388   132580208.427                                  
  24245711.300   127412062.926                                  
  22915833.550   120423497.936                                  
  24223617.930                                                  
  25585819.220   134454384.756                                  
  20802488.684   111006041.229                                  
  22776199.977   121965531.902                                  
  19677292.634   105223335.233                                  
  19563287.713   104577015.565                                  
  20711770.094   110832953.796                                  
  22949005.966   122761707.442                                  
 16  8 28 15 37 52.0010000  0 18G 1G 3G 8G11G14G22G28G10G27G32R12G17
                                R 6R 4R20R 5R21R19
  20662041.276   108579725.793                                  
  22085395.432   116059524.775                                  
  21502005.191   112993786.715                                  
  20181384.107   106053881.844                                  
  22457951.467   118017259.465                                  
  20891655.846   109786382.944                                  
  23494266.765   123463200.680                                  
  25229837.688   132583711.595                                  
  24246421.083   127415792.265                                  
  22916069.662   120424738.437                                  
  24223788.201                                                  
  25585174.677   134450998.611                                  
  20801908.988   111002949.324                                  
  22776956.662   121969584.192                                  
  19677435.547   105224099.445                                  
  19563507.127   104578189.480                                  
  20711250.658   110830173.530                                  
  22949677.922   122765303.902                                  
 16  8 28 15 37 53.0010000  0 18G 1G 3G 8G11G14G22G28G10G27G32R12G17
                                R 6R 4R20R 5R21R19
  20661890.816   108578935.091                                  
  22084916.882   116057012.503                                  
  21502482.467   112996294.410                                  
  20181370.127   106053808.243                                  
  22457852.891   118016742.133                                  
  20891421.784   109785152.849                                  
  23494253.254   123463131.612                                  
  25230504.900   132587215.674                                  
  24247130.897   127419522.704                                  
  22916305.942   120425980.507                                  
  24223960.870                                                  
  25584530.472   134447613.470                                  
  20801329.728   110999858.931                                  
  22777713.910   121973637.655                                  
  19677578.861   105224865.240                                  
  19563727.039   104579365.127                                  
  20710731.174   110827394.543                                  
  22950349.934   122768901.602                                  
 16  8 28 15 37 54.0010000  0 18G 1G 3G 8G11G14G22G28G10G27G32R12G17
                                R 6R 4R20R 5R21R19
  20661740.328   108578145.489                                  
  22084438.560   116054501.389                                  
  21502959.770   112998803.358                                  
  20181356.320   106053735.937                                  
  22457754.445   118016226.172                                  
  20891187.918   109783923.969                                  
  23494240.458   123463063.913                                  
  25231172.571   132590720.533                                  
  24247840.447   127423254.068                                  
  22916542.676   120427223.974                                  
  24224132.803                                                  
  25583886.419   134444229.135                                  
  20800750.677   110996769.900                                  
  22778471.441   121977692.178                                  
  19677722.224   105225632.451                                  
  19563947.104   104580542.363                                  
  20710212.117   110824616.712                                  
  22951022.370   122772500.409                                  
 16  8 28 15 37 55.0010000  0 18G 1G 3G 8G11G14G22G28G10G27G32R12G17
                                R 6R 4R20R 5R21R19
  20661590.275   108577356.662                                  
  22083960.333   116051991.028                                  
  21503437.533   113001313.244                                  
  20181342.750   106053664.617                                  
  22457656.545   118015711.278                                  
  20890954.504   109782695.995                                  
  23494227.652   123462997.249                                  
  25231839.741   132594225.868                                  
  24248550.393   127426986.038                                  
  22916780.017   120428468.540                                  
  24224304.169                                                  
  25583242.787   134440845.302                                  
  20800171.766   110993681.897                                  
  22779228.698   121981747.356                                  
  19677866.122   105226400.764                                  
  19564167.299   104581720.856                                  
  20709693.235   110821839.695                                  
  22951694.796   122776100.036                                  
 16  8 28 15 37 56.0010000  0 18G 1G 3G 8G11G14G22G28G10G27G32R12G17
                                R 6R 4R20R 5R21R19
  20661440.291   108576568.707                                  
  22083482.699   116049481.626                                  
  21503915.296   113003824.118                                  
  20181329.135   106053594.336                                  
  22457558.909   118015197.508                                  
  20890720.748   109781468.980                                  
  23494215.273   123462931.709                                  
  25232507.273   132597731.744                                  
  24249260.676   127430718.690                                  
  22917016.873   120429714.233                                  
  24224478.317                                                  
  25582599.127   134437461.984                                  
  20799592.986   110990594.994                                  
  22779986.172   121985803.239                                  
  19678009.995   105227170.225                                  
  19564387.901   104582900.686                                  
  20709174.383   110819063.554                                  
  22952367.550   122779700.497                                  
 16  8 28 15 37 57.0010000  0 18G 1G 3G 8G11G14G22G28G10G27G32R12G17
                                R 6R 4R20R 5R21R19
  20661290.406   108575781.651                                  
  22083005.156   116046973.183                                  
  21504393.321   113006336.053                                  
  20181316.029   106053525.167                                  
  22457461.244   118014684.920                                  
  20890487.748   109780243.005                                  
  23494203.287   123462867.324                                  
  25233174.453   132601238.170                                  
  24249970.966   127434452.084                                  
  22917254.397   120430961.159                                  
  24224650.979                                                  
  25581955.129   134434079.355                                  
  20799014.599   110987509.239                                  
  22780744.070   121989859.951                                  
  19678154.116   105227940.940                                  
  19564608.986   104584081.889                                  
  20708655.863   110816288.366                                  
  22953040.557   122783301.876                                  
 16  8 28 15 37 58.0010000  0 18G 1G 3G 8G11G14G22G28G10G27G32R12G17
                                R 6R 4R20R 5R21R19
  20661140.856   108574995.660                                  
  22082527.818   116044465.813                                  
  21504871.653   113008849.182                                  
  20181303.147   106053457.249                                  
  22457363.901   118014173.697                                  
  20890254.428   109779018.208                                  
  23494191.109   123462804.261                                  
  25233842.121   132604745.404                                  
  24250681.571   127438186.373                                  
  22917492.110   120432209.433                                  
  24224824.957                                                  
  25581311.724   134430697.490                                  
  20798436.425   110984424.796                                  
  22781501.829   121993917.662                                  
  19678298.456   105228713.039                                  
  19564829.954   104585264.611                                  
  20708137.526   110813514.282                                  
  22953713.555   122786904.279                                  
 16  8 28 15 37 59.0010000  0 18G 1G 3G 8G11G14G22G28G10G27G32R12G17
                                R 6R 4R20R 5R21R19
  20660991.473   108574210.690                                  
  22082050.594   116041959.498                                  
  21505349.917   113011363.454                                  
  20181290.319   106053390.545                                  
  22457266.888   118013663.747                                  
  20890021.539   109777794.545                                  
  23494179.234   123462742.469                                  
  25234509.888   132608253.250                                  
  24251392.089   127441921.466                                  
  22917729.989   120433459.008                                  
  24225000.624                                                  
  25580668.649   134427316.349                                  
  20797858.631   110981341.615                                  
  22782260.058   121997976.366                                  
  19678443.114   105229486.487                                  
  19565051.419   104586448.771                                  
  20707619.398   110810741.249                                  
  22954386.785   122790507.711                                  
 16  8 28 15 38  0.0010000  0 18G 1G 3G 8G11G14G22G28G10G27G32R12G17
                                R 6R 4R20R 5R21R19
  20660842.209   108573427.057                                  
  22081573.413   116039454.569                                  
  21505828.464   113013879.203                                  
  20181277.787   106053325.349                                  
  22457170.345   118013155.419                                  
  20889788.777   109776572.320                                  
  23494167.985   123462682.259                                  
  25235177.610   132611762.193                                  
  24252102.883   127445657.739                                  
  22917967.764   120434710.236                                  
  24225175.576                                                  
  25580025.626   134423936.273                                  
  20797280.911   110978260.016                                  
  22783018.130   122002036.212                                  
  19678587.890   105230261.600                                  
  19565273.403   104587634.741                                  
  20707101.764   110807969.580                                  
  22955060.280   122794112.476                                  
 16  8 28 15 38  1.0010000  0 18G 1G 3G 8G11G14G22G28G10G27G32R12G17
                                R 6R 4R20R 5R21R19
  20660693.068   108572644.353                                  
  22081096.959   116036950.645                                  
  21506307.341   113016396.042                                  
  20181265.631   106053261.288                                  
  22457074.098   118012648.288                                  
  20889556.371   109775351.145                                  
  23494156.926   123462623.244                                  
  25235845.508   132615271.724                                  
  24252814.049   127449394.768                                  
  22918206.147   120435962.679                                  
  24225348.499                                                  
  25579382.755   134420556.828                                  
  20796703.684   110975179.610                                  
  22783776.800   122006096.953                                  
  19678732.718   105231037.985                                  
  19565495.510   104588822.095                                  
  20706584.164   110805198.877                                  
  22955733.837   122797718.117                                  
 16  8 28 15 38  2.0010000  0 18G 1G 3G 8G11G14G22G28G10G27G32R12G17
                                R 6R 4R20R 5R21R19
  20660544.240   108571862.640                                  
  22080621.005   116034447.680                                  
  21506786.371   113018914.008                                  
  20181253.259   106053198.413                                  
  22456977.725   118012142.444                                  
  20889323.928   109774131.082                                  
  23494146.051   123462565.464                                  
  25236513.516   132618781.889                                  
  24253524.888   127453132.577                                  
  22918444.464   120437216.421                                  
  24225524.157                                                  
  25578739.706   134417178.106                                  
  20796126.605   110972100.446                                  
  22784535.501   122010158.535                                  
  19678878.113   105231815.695                                  
  19565717.682   104590010.901                                  
  20706066.486   110802429.206                                  
  22956407.904   122801324.793                                  
 16  8 28 15 38  3.0010000  0 18G 1G 3G 8G11G14G22G28G10G27G32R12G17
                                R 6R 4R20R 5R21R19
  20660396.057   108571081.994                                  
  22080145.087   116031945.834                                  
  21507265.910   113021433.170                                  
  20181241.766   106053136.781                                  
  22456881.572   118011637.925                                  
  20889091.872   109772912.194                                  
  23494135.282   123462509.007                                  
  25237181.708   132622292.835                                  
  24254236.390   127456871.280                                  
  22918683.340   120438471.510                                  
  24225698.999                                                  
  25578096.709   134413800.115                                  
  20795549.727   110969022.598                                  
  22785294.524   122014221.028                                  
  19679023.757   105232594.755                                  
  19565940.582   104591201.224                                  
  20705549.078   110799660.621                                  
  22957082.119   122804932.511                                  
 16  8 28 15 38  4.0010000  0 18G 1G 3G 8G11G14G22G28G10G27G32R12G17
                                R 6R 4R20R 5R21R19
  20660247.909   108570302.119                                  
  22079668.934   116029444.818                                  
  21507745.128   113023953.260                                  
  20181230.065   106053076.119                                  
  22456785.895   118011134.463                                  
  20888859.606   109771694.193                                  
  23494124.964   123462453.575                                  
  25237850.204   132625804.224                                  
  24254947.981   127460610.572                                  
  22918922.380   120439727.674                                  
  24225874.645                                                  
  25577454.208   134410422.695                                  
  20794973.285   110965945.739                                  
  22786053.491   122018284.241                                  
  19679169.366   105233374.909                                  
  19566163.268   104592392.787                                  
  20705031.902   110796892.839                                  
  22957756.622   122808540.992                                  
 16  8 28 15 38  5.0010000  0 18G 1G 3G 8G11G14G22G28G10G27G32R12G17
                                R 6R 4R20R 5R21R19
  20660099.505   108569522.567                                  
  22079192.846   116026944.151                                  
  21508224.697   113026473.839                                  
  20181218.546   106053015.977                                  
  22456690.067   118010631.612                                  
  20888627.651   109770476.640                                  
  23494114.501   123462398.738                                  
  25238518.663   132629315.613                                  
  24255659.728   127464350.033                                  
  22919161.620   120440984.469                                  
  24226050.242                                                  
  25576811.773   134407045.276                                  
  20794396.516   110962869.442                                  
  22786812.549   122022347.719                                  
  19679315.298   105234155.702                                  
  19566386.396   104593585.112                                  
  20704514.926   110794125.417                                  
  22958431.091   122812149.826                                  
 16  8 28 15 38  6.0010000  0 18G 1G 3G 8G11G14G22G28G10G27G32R12G17
                                R 6R 4R20R 5R21R19
  20659951.379   108568743.505                                  
  22078716.649   116024444.082                                  
  21508704.637   113028995.030                                  
  20181207.153   106052956.514                                  
  22456594.547   118010129.522                                  
  20888396.226   109769259.691                                  
  23494104.349   123462344.635                                  
  25239186.874   132632827.164                                  
  24256371.858   127468089.796                                  
  22919400.852   120442242.051                                  
  24226226.088                                                  
  25576169.019   134403668.078                                  
  20793819.961   110959793.871                                  
  22787571.193   122026411.557                                  
  19679461.613   105234937.292                                  
  19566609.575   104594778.352                                  
  20703997.976   110791358.516                                  
  22959105.485   122815759.094                                  
 16  8 28 15 38  7.0010000  0 18G 1G 3G 8G11G14G22G28G10G27G32R12G17
                                R 6R 4R20R 5R21R19
  20659803.240   108567964.777                                  
  22078240.701   116021944.309                                  
  21509184.367   113031516.699                                  
  20181196.103   106052897.570                                  
  22456498.845   118009628.033                                  
  20888164.616   109768043.176                                  
  23494094.184   123462291.129                                  
  25239855.337   132636338.762                                  
  24257083.408   127471829.713                                  
  22919640.066   120443500.255                                  
  24226400.847                                                  
  25575526.044   134400290.901                                  
  20793244.017   110956718.888                                  
  22788329.806   122030475.648                                  
  19679608.064   105235719.543                                  
  19566833.270   104595972.394                                  
  20703481.341   110788591.966                                  
  22959780.071   122819368.670                                  
 16  8 28 15 38  8.0010000  0 18G 1G 3G 8G11G14G22G28G10G27G32R12G17
                                R 6R 4R20R 5R21R19
  20659655.125   108567185.951                                  
  22077764.799   116019444.445                                  
  21509664.680   113034038.408                                  
  20181184.808   106052838.720                                  
  22456403.665   118009126.737                                  
  20887933.180   109766826.682                                  
  23494084.163   123462237.767                                  
  25240524.034   132639849.896                                  
  24257794.945   127475569.332                                  
  22919879.788   120444758.654                                  
  24226576.248                                                  
  25574883.250   134396913.347                                  
  20792667.710   110953644.012                                  
  22789093.310   122034539.462                                  
  19679753.935   105236501.973                                  
  19567056.615   104597166.748                                  
  20702964.527   110785825.317                                  
  22960454.954   122822978.124                                  
 16  8 28 15 38  9.0010000  0 18G 1G 3G 8G11G14G22G28G10G27G32R12G17
                                R 6R 4R20R 5R21R19
  20659507.167   108566407.183                                  
  22077288.772   116016944.768                                  
  21510144.369   113036560.320                                  
  20181173.666   106052780.127                                  
  22456308.141   118008625.764                                  
  20887701.288   109765610.359                                  
  23494073.981   123462184.726                                  
  25241192.630   132643360.783                                  
  24258506.530   127479308.837                                  
  22920119.325   120446017.414                                  
  24226752.726                                                  
  25574240.384   134393535.577                                  
  20792091.522   110950569.415                                  
  22789849.459   122038603.261                                  
  19679900.063   105237284.779                                  
  19567280.152   104598361.600                                  
  20702447.577   110783058.723                                  
  22961129.728   122826587.591                                  
 16  8 28 15 38 10.0010000  0 18G 1G 3G 8G11G14G22G28G10G27G32R12G17
                                R 6R 4R20R 5R21R19
  20659358.864   108565628.479                                  
  22076812.996   116014445.185                                  
  21510624.226   113039082.449                                  
  20181162.699   106052721.795                                  
  22456212.847   118008125.135                                  
  20887469.787   109764394.216                                  
  23494063.819   123462131.991                                  
  25241860.871   132646871.428                                  
  24259217.790   127483048.234                                  
  22920358.921   120447276.552                                  
  24226928.276                                                  
  25573597.467   134390157.636                                  
  20791515.381   110947495.110                                  
  22790609.424   122042667.027                                  
  19680046.732   105238067.960                                  
  19567503.550   104599556.988                                  
  20701930.802   110780292.244                                  
  22961804.292   122830197.116                                  
 16  8 28 15 38 11.0010000  0 18G 1G 3G 8G11G14G22G28G10G27G32R12G17
                                R 6R 4R20R 5R21R19
  20659210.714   108564849.941                                  
  22076336.804   116011945.757                                  
  21511103.917   113041604.883                                  
  20181151.627   106052663.817                                  
  22456117.687   118007624.963                                  
  20887238.369   109763178.357                                  
  23494053.676   123462079.677                                  
  25242529.376   132650381.895                                  
  24259929.355   127486787.609                                  
  22920598.569   120448536.120                                  
  24227103.546                                                  
  25572954.601   134386779.537                                  
  20790939.471   110944421.202                                  
  22791370.507   122046730.777                                  
  19680193.065   105238851.604                                  
  19567727.026   104600752.954                                  
  20701414.062   110777525.934                                  
  22962478.616   122833806.801                                  
 16  8 28 15 38 12.0010000  0 18G 1G 3G 8G11G14G22G28G10G27G32R12G17
                                R 6R 4R20R 5R21R19
  20659062.432   108564071.537                                  
  22075860.736   116009446.549                                  
  21511584.036   113044127.588                                  
  20181140.153   106052606.163                                  
  22456022.651   118007125.191                                  
  20887007.200   109761962.748                                  
  23494044.119   123462027.760                                  
  25243197.902   132653892.200                                  
  24260640.674   127490526.940                                  
  22920838.562   120449796.145                                  
  24227280.185                                                  
  25572311.744   134383401.269                                  
  20790363.256   110941347.667                                  
  22792131.079   122050794.647                                  
  19680339.647   105239635.701                                  
  19567951.000   104601949.532                                  
  20700897.378   110774759.796                                  
  22963153.504   122837416.579                                  
 16  8 28 15 38 13.0010000  0 18G 1G 3G 8G11G14G22G28G10G27G32R12G17
                                R 6R 4R20R 5R21R19
  20658914.551   108563293.560                                  
  22075385.252   116006947.793                                  
  21512063.991   113046650.842                                  
  20181129.188   106052549.104                                  
  22455927.892   118006626.108                                  
  20886775.681   109760747.662                                  
  23494034.310   123461976.499                                  
  25243866.352   132657402.598                                  
  24261351.950   127494266.484                                  
  22921078.546   120451056.861                                  
  24227455.163                                                  
  25571668.845   134380023.157                                  
  20789787.478   110938274.804                                  
  22792888.078   122054858.808                                  
  19680486.146   105240420.531                                  
  19568175.235   104603146.954                                  
  20700380.564   110771994.071                                  
  22963828.277   122841026.750                                  
 16  8 28 15 38 14.0010000  0 18G 1G 3G 8G11G14G22G28G10G27G32R12G17
                                R 6R 4R20R 5R21R19
  20658766.684   108562515.983                                  
  22074909.721   116004449.442                                  
  21512544.206   113049174.648                                  
  20181118.652   106052492.663                                  
  22455833.023   118006127.722                                  
  20886544.607   109759533.108                                  
  23494024.654   123461925.912                                  
  25244534.968   132660913.079                                  
  24262063.395   127498006.288                                  
  22921318.517   120452318.291                                  
  24227630.376                                                  
  25571026.230   134376645.192                                  
  20789211.647   110935202.591                                  
  22793651.220   122058923.296                                  
  19680632.819   105241206.082                                  
  19568399.675   104604345.243                                  
  20699863.780   110769228.767                                  
  22964503.221   122844637.302                                  
 16  8 28 15 38 15.0010000  0 18G 1G 3G 8G11G14G22G28G10G27G32R12G17
                                R 6R 4R20R 5R21R19
  20658618.769   108561738.539                                  
  22074434.300   116001951.287                                  
  21513024.597   113051698.732                                  
  20181107.779   106052436.554                                  
  22455738.376   118005629.751                                  
  20886313.573   109758318.808                                  
  23494014.908   123461875.708                                  
  25245203.135   132664423.335                                  
  24262775.061   127501746.052                                  
  22921559.040   120453580.168                                  
  24227805.088                                                  
  25570383.665   134373267.077                                  
  20788635.680   110932130.770                                  
  22794405.549   122062987.705                                  
  19680779.838   105241992.077                                  
  19568623.937   104605544.117                                  
  20699347.101   110766463.661                                  
  22965177.777   122848247.986                                  
 16  8 28 15 38 16.0010000  0 18G 1G 3G 8G11G14G22G28G10G27G32R12G17
                                R 6R 4R20R 5R21R19
  20658470.702   108560961.342                                  
  22073959.138   115999453.408                                  
  21513505.091   113054223.198                                  
  20181096.964   106052380.860                                  
  22455643.721   118005132.290                                  
  20886082.663   109757104.861                                  
  23494005.633   123461826.000                                  
  25245871.057   132667933.556                                  
  24263486.809   127505485.850                                  
  22921799.493   120454842.566                                  
  24227979.481                                                  
  25569741.048   134369888.880                                  
  20788060.033   110929059.417                                  
  22795165.458   122067052.289                                  
  19680926.755   105242778.618                                  
  19568848.460   104606743.695                                  
  20698830.531   110763698.826                                  
  22965852.638   122851858.910                                  
 16  8 28 15 38 17.0010000  0 18G 1G 3G 8G11G14G22G28G10G27G32R12G17
                                R 6R 4R20R 5R21R19
  20658322.598   108560184.416                                  
  22073483.687   115996955.873                                  
  21513985.598   113056748.076                                  
  20181086.304   106052325.645                                  
  22455549.174   118004635.397                                  
  20885851.949   109755891.300                                  
  23493996.166   123461776.822                                  
  25246538.766   132671443.708                                  
  24264198.370   127509225.743                                  
  22922040.114   120456105.540                                  
  24228153.765                                                  
  25569098.313   134366510.700                                  
  20787484.668   110925988.553                                  
  22795925.537   122071117.078                                  
  19681073.970   105243565.721                                  
  19569073.428   104607943.971                                  
  20698313.987   110760934.278                                  
  22966527.887   122855470.062                                  
 16  8 28 15 38 18.0010000  0 18G 1G 3G 8G11G14G22G28G10G27G32R12G17
                                R 6R 4R20R 5R21R19
  20658174.520   108559407.869                                  
  22073008.332   115994458.757                                  
  21514466.020   113059273.466                                  
  20181075.463   106052271.008                                  
  22455454.703   118004139.158                                  
  20885621.329   109754678.246                                  
  23493986.870   123461728.281                                  
  25247206.797   132674953.937                                  
  24264909.785   127512965.858                                  
  22922280.345   120457369.184                                  
  24228331.260                                                  
  25568455.416   134363132.607                                  
  20786909.256   110922918.299                                  
  22796678.026   122075182.044                                  
  19681221.380   105244353.525                                  
  19569298.069   104609145.083                                  
  20697797.452   110758170.103                                  
  22967203.019   122859081.585                                  
 16  8 28 15 38 19.0010000  0 18G 1G 3G 8G11G14G22G28G10G27G32R12G17
                                R 6R 4R20R 5R21R19
  20658026.657   108558631.871                                  
  22072533.389   115991962.166                                  
  21514946.822   113061799.561                                  
  20181064.923   106052217.099                                  
  22455360.600   118003643.721                                  
  20885390.537   109753465.839                                  
  23493977.473   123461680.530                                  
  25247875.071   132678464.353                                  
  24265621.691   127516706.341                                  
  22922520.903   120458633.685                                  
  24228506.958                                                  
  25567813.063   134359754.809                                  
  20786334.058   110919848.834                                  
  22797430.640   122079247.568                                  
  19681368.817   105245142.195                                  
  19569522.968   104610347.205                                  
  20697280.847   110755406.475                                  
  22967878.669   122862693.626                                  
 16  8 28 15 38 20.0010000  0 18G 1G 3G 8G11G14G22G28G10G27G32R12G17
                                R 6R 4R20R 5R21R19
  20657879.144   108557856.386                                  
  22072058.514   115989466.167                                  
  21515427.405   113064326.294                                  
  20181054.804   106052163.901                                  
  22455266.557   118003149.090                                  
  20885160.053   109752254.067                                  
  23493968.285   123461633.558                                  
  25248543.283   132681975.000                                  
  24266333.417   127520447.131                                  
  22922761.825   120459898.983                                  
  24228683.554                                                  
  25567170.482   134356377.221                                  
  20785758.960   110916780.126                                  
  22798193.302   122083313.416                                  
  19681516.664   105245931.680                                  
  19569748.093   104611550.245                                  
  20696764.630   110752643.413                                  
  22968553.888   122866306.173                                  
 16  8 28 15 38 21.0010000  0 18G 1G 3G 8G11G14G22G28G10G27G32R12G17
                                R 6R 4R20R 5R21R19
  20657731.851   108557081.636                                  
  22071583.716   115986970.930                                  
  21515908.433   113066853.906                                  
  20181045.176   106052111.626                                  
  22455172.864   118002655.466                                  
  20884929.721   109751043.143                                  
  23493959.338   123461587.571                                  
  25249211.581   132685486.040                                  
  24267045.338   127524188.488                                  
  22923003.002   120461165.312                                  
  24228855.748                                                  
  25566527.403   134353000.083                                  
  20785183.892   110913712.385                                  
  22798952.897   122087379.840                                  
  19681664.817   105246722.233                                  
  19569973.358   104612754.487                                  
  20696248.836   110749881.123                                  
  22969229.600   122869919.457                                  
 16  8 28 15 38 22.0010000  0 18G 1G 3G 8G11G14G22G28G10G27G32R12G17
                                R 6R 4R20R 5R21R19
  20657584.552   108556307.702                                  
  22071108.980   115984476.556                                  
  21516389.769   113069382.476                                  
  20181035.098   106052060.371                                  
  22455078.995   118002162.937                                  
  20884699.349   109749833.144                                  
  23493950.650   123461542.647                                  
  25249880.118   132688997.594                                  
  24267757.458   127527930.456                                  
  22923243.940   120462432.750                                  
  24229031.332                                                  
  25565884.532   134349623.452                                  
  20784609.073   110910645.730                                  
  22799713.439   122091447.111                                  
  19681813.113   105247513.913                                  
  19570198.692   104613960.009                                  
  20695732.711   110747119.689                                  
  22969905.512   122873533.531                                  
 16  8 28 15 38 23.0010000  0 18G 1G 3G 8G11G14G22G28G10G27G32R12G17
                                R 6R 4R20R 5R21R19
  20657437.553   108555534.436                                  
  22070634.875   115981982.900                                  
  21516871.158   113071911.871                                  
  20181025.431   106052009.969                                  
  22454985.711   118001671.370                                  
  20884469.412   109748623.930                                  
  23493942.147   123461498.653                                  
  25250548.392   132692509.494                                  
  24268469.529   127531672.934                                  
  22923485.547   120463701.162                                  
  24229207.854                                                  
  25565241.607   134346247.269                                  
  20784034.773   110907579.982                                  
  22800470.983   122095514.875                                  
  19681961.418   105248306.578                                  
  19570424.647   104615166.648                                  
  20695216.647   110744358.932                                  
  22970581.385   122877148.257                                  
 16  8 28 15 38 24.0010000  0 18G 1G 3G 8G11G14G22G28G10G27G32R12G17
                                R 6R 4R20R 5R21R19
  20657290.448   108554762.004                                  
  22070160.472   115979490.071                                  
  21517352.753   113074442.222                                  
  20181016.333   106051960.582                                  
  22454892.500   118001180.883                                  
  20884239.621   109747415.655                                  
  23493934.565   123461455.737                                  
  25251216.993   132696021.895                                  
  24269182.117   127535416.053                                  
  22923727.001   120464970.682                                  
  24229383.046                                                  
  25564599.007   134342871.587                                  
  20783460.469   110904515.285                                  
  22801231.664   122099583.443                                  
  19682110.325   105249100.399                                  
  19570650.679   104616374.538                                  
  20694700.719   110741599.027                                  
  22971257.498   122880763.773                                  
 16  8 28 15 38 25.0010000  0 18G 1G 3G 8G11G14G22G28G10G27G32R12G17
                                R 6R 4R20R 5R21R19
  20657143.966   108553990.393                                  
  22069686.779   115976998.168                                  
  21517834.536   113076973.561                                  
  20181007.261   106051912.217                                  
  22454799.430   118000691.504                                  
  20884009.944   109746208.320                                  
  23493926.509   123461413.887                                  
  25251885.628   132699534.756                                  
  24269894.811   127539159.799                                  
  22923968.542   120466241.323                                  
  24229562.216                                                  
  25563956.835   134339496.443                                  
  20782886.527   110901451.635                                  
  22801992.568   122103652.668                                  
  19682259.040   105249895.365                                  
  19570876.952   104617583.752                                  
  20694185.182   110738840.000                                  
  22971933.760   122884380.130                                  
 16  8 28 15 38 26.0010000  0 18G 1G 3G 8G11G14G22G28G10G27G32R12G17
                                R 6R 4R20R 5R21R19
  20656997.382   108553219.697                                  
  22069212.800   115974507.199                                  
  21518316.688   113079505.951                                  
  20180998.451   106051864.979                                  
  22454706.695   118000203.337                                  
  20883780.355   109745002.036                                  
  23493918.491   123461373.227                                  
  25252553.919   132703048.280                                  
  24270607.702   127542904.322                                  
  22924210.830   120467513.201                                  
  24229738.254                                                  
  25563314.530   134336121.941                                  
  20782312.476   110898389.181                                  
  22802755.976   122107722.715                                  
  19682407.973   105250691.584                                  
  19571103.325   104618794.297                                  
  20693669.882   110736081.940                                  
  22972610.091   122887997.365                                  
 16  8 28 15 38 27.0010000  0 18G 1G 3G 8G11G14G22G28G10G27G32R12G17
                                R 6R 4R20R 5R21R19
  20656850.825   108552449.687                                  
  22068739.169   115972016.928                                  
  21518798.667   113082039.151                                  
  20180989.494   106051818.592                                  
  22454614.019   117999716.117                                  
  20883550.887   109743796.525                                  
  23493910.946   123461333.480                                  
  25253222.343   132706562.130                                  
  24271320.478   127546649.299                                  
  22924452.941   120468786.034                                  
  24229917.341                                                  
  25562672.532   134332747.852                                  
  20781738.909   110895327.614                                  
  22803514.105   122111793.333                                  
  19682557.186   105251488.741                                  
  19571330.134   104620006.005                                  
  20693155.061   110733324.577                                  
  22973286.627   122891615.272                                  
 16  8 28 15 38 28.0010000  0 18G 1G 3G 8G11G14G22G28G10G27G32R12G17
                                R 6R 4R20R 5R21R19
  20656704.413   108551680.562                                  
  22068265.552   115969527.628                                  
  21519281.063   113084573.382                                  
  20180980.802   106051773.291                                  
  22454521.397   117999230.070                                  
  20883321.779   109742592.026                                  
  23493903.560   123461294.900                                  
  25253891.066   132710076.565                                  
  24272033.457   127550395.015                                  
  22924695.599   120470060.062                                  
  24230093.710                                                  
  25562030.512   134329374.365                                  
  20781165.491   110892267.196                                  
  22804270.262   122115864.751                                  
  19682706.904   105252287.146                                  
  19571557.057   104621219.082                                  
  20692640.389   110730568.120                                  
  22973963.058   122895234.055                                  
 16  8 28 15 38 29.0010000  0 18G 1G 3G 8G11G14G22G28G10G27G32R12G17
                                R 6R 4R20R 5R21R19
  20656558.016   108550912.028                                  
  22067791.884   115967038.899                                  
  21519763.274   113087108.351                                  
  20180972.557   106051728.788                                  
  22454429.147   117998744.880                                  
  20883092.878   109741388.227                                  
  23493896.312   123461257.146                                  
  25254559.704   132713591.256                                  
  24272746.405   127554141.141                                  
  22924938.166   120471334.973                                  
  24230273.199                                                  
  25561388.440   134326001.182                                  
  20780592.194   110889207.606                                  
  22805034.180   122119936.721                                  
  19682856.291   105253086.434                                  
  19571784.472   104622433.176                                  
  20692125.202   110727812.277                                  
  22974639.944   122898853.400                                  
 16  8 28 15 38 30.0010000  0 18G 1G 3G 8G11G14G22G28G10G27G32R12G17
                                R 6R 4R20R 5R21R19
  20656412.104   108550144.193                                  
  22067318.743   115964550.931                                  
  21520245.748   113089644.155                                  
  20180964.255   106051685.177                                  
  22454337.090   117998260.678                                  
  20882864.121   109740185.251                                  
  23493888.699   123461220.345                                  
  25255228.763   132717106.301                                  
  24273459.668   127557887.773                                  
  22925180.890   120472610.885                                  
  24230452.138                                                  
  25560746.601   134322628.456                                  
  20780018.998   110886148.984                                  
  22805794.713   122124009.220                                  
  19683005.748   105253886.761                                  
  19572011.757   104623648.412                                  
  20691610.403   110725057.193                                  
  22975316.667   122902473.461                                  
 16  8 28 15 38 31.0010000  0 18G 1G 3G 8G11G14G22G28G10G27G32R12G17
                                R 6R 4R20R 5R21R19
  20656266.260   108549377.108                                  
  22066845.689   115962063.795                                  
  21520728.694   113092180.832                                  
  20180956.051   106051642.479                                  
  22454245.309   117997777.491                                  
  20882635.329   109738983.126                                  
  23493881.673   123461184.550                                  
  25255897.708   132720621.790                                  
  24274172.893   127561634.975                                  
  22925424.137   120473887.845                                  
  24230631.286                                                  
  25560105.068   134319256.158                                  
  20779446.252   110883091.342                                  
  22806553.771   122128082.342                                  
  19683155.384   105254688.154                                  
  19572239.299   104624864.818                                  
  20691095.595   110722302.884                                  
  22975993.657   122906094.279                                  
 16  8 28 15 38 32.0010000  0 18G 1G 3G 8G11G14G22G28G10G27G32R12G17
                                R 6R 4R20R 5R21R19
  20656120.186   108548610.615                                  
  22066372.749   115959577.280                                  
  21521211.448   113094718.232                                  
  20180948.432   106051600.578                                  
  22454153.634   117997295.165                                  
  20882406.539   109737781.707                                  
  23493875.066   123461149.609                                  
  25256566.804   132724137.593                                  
  24274886.098   127565382.589                                  
  22925667.349   120475165.676                                  
  24230811.137                                                  
  25559463.755   134315884.182                                  
  20778873.854   110880034.527                                  
  22807312.140   122132155.952                                  
  19683305.408   105255490.481                                  
  19572466.924   104626082.262                                  
  20690580.853   110719549.189                                  
  22976670.922   122909715.662                                  
 16  8 28 15 38 33.0010000  0 18G 1G 3G 8G11G14G22G28G10G27G32R12G17
                                R 6R 4R20R 5R21R19
  20655974.405   108547844.793                                  
  22065900.110   115957091.422                                  
  21521694.804   113097256.457                                  
  20180940.928   106051559.551                                  
  22454062.055   117996813.800                                  
  20882178.273   109736581.087                                  
  23493868.804   123461115.579                                  
  25257235.560   132727653.701                                  
  24275599.634   127569130.686                                  
  22925910.917   120476444.486                                  
  24230990.124                                                  
  25558822.139   134312512.600                                  
  20778301.613   110876978.649                                  
  22808079.863   122136230.234                                  
  19683455.811   105256293.767                                  
  19572694.575   104627300.835                                  
  20690066.394   110716796.195                                  
  22977348.405   122913337.717                                  
 16  8 28 15 38 34.0010000  0 18G 1G 3G 8G11G14G22G28G10G27G32R12G17
                                R 6R 4R20R 5R21R19
  20655828.654   108547079.532                                  
  22065427.578   115954606.216                                  
  21522177.874   113099795.377                                  
  20180933.425   106051519.260                                  
  22453970.832   117996333.270                                  
  20881950.048   109735381.137                                  
  23493862.794   123461082.369                                  
  25257904.169   132731170.009                                  
  24276313.070   127572879.155                                  
  22926154.608   120477724.141                                  
  24231171.959                                                  
  25558180.477   134309141.273                                  
  20777729.024   110873923.586                                  
  22808838.253   122140304.904                                  
  19683605.957   105257097.954                                  
  19572922.322   104628520.416                                  
  20689551.962   110714043.775                                  
  22978025.905   122916960.270                                  
 16  8 28 15 38 35.0010000  0 18G 1G 3G 8G11G14G22G28G10G27G32R12G17
                                R 6R 4R20R 5R21R19
  20655682.973   108546314.946                                  
  22064955.211   115952121.701                                  
  21522661.083   113102335.118                                  
  20180926.117   106051479.850                                  
  22453879.443   117995853.699                                  
  20881721.779   109734181.972                                  
  23493856.573   123461050.093                                  
  25258573.383   132734686.747                                  
  24277026.664   127576628.109                                  
  22926398.138   120479004.768                                  
  24231353.581                                                  
  25557539.356   134305770.360                                  
  20777156.836   110870869.450                                  
  22809604.248   122144380.153                                  
  19683756.592   105257903.118                                  
  19573150.728   104629741.137                                  
  20689037.661   110711292.085                                  
  22978703.031   122920583.503                                  
 16  8 28 15 38 36.0010000  0 18G 1G 3G 8G11G14G22G28G10G27G32R12G17
                                R 6R 4R20R 5R21R19
  20655537.654   108545551.231                                  
  22064483.002   115949638.109                                  
  21523144.574   113104875.863                                  
  20180918.880   106051441.482                                  
  22453788.368   117995375.270                                  
  20881493.930   109732983.783                                  
  23493850.610   123461018.928                                  
  25259242.751   132738203.936                                  
  24277740.012   127580377.752                                  
  22926641.938   120480286.546                                  
  24231534.383                                                  
  25556897.882   134302400.005                                  
  20776585.018   110867816.402                                  
  22810361.675   122148456.100                                  
  19683907.676   105258709.480                                  
  19573379.178   104630963.167                                  
  20688523.747   110708541.287                                  
  22979380.631   122924207.572                                  
 16  8 28 15 38 37.0010000  0 18G 1G 3G 8G11G14G22G28G10G27G32R12G17
                                R 6R 4R20R 5R21R19
  20655392.523   108544788.327                                  
  22064010.805   115947155.323                                  
  21523628.386   113107417.577                                  
  20180911.828   106051404.148                                  
  22453697.782   117994897.954                                  
  20881266.523   109731786.534                                  
  23493845.063   123460988.842                                  
  25259911.723   132741721.712                                  
  24278453.652   127584128.046                                  
  22926885.946   120481569.463                                  
  24231717.898                                                  
  25556256.632   134299030.204                                  
  20776013.388   110864764.423                                  
  22811124.655   122152532.841                                  
  19684058.611   105259516.968                                  
  19573607.693   104632186.496                                  
  20688009.838   110705791.368                                  
  22980058.411   122927832.441                                  
