     2.11           OBSERVATION DATA    M (MIXED)           RINEX VERSION / TYPE
CONVBIN 2.4.3                           20160924 105118 UTC PGM / RUN BY / DATE 
log: Rover.ubx                                              COMMENT             
format: u-blox                                              COMMENT             
                                                            MARKER NAME         
                                                            MARKER NUMBER       
                                                            OBSERVER / AGENCY   
                                                            REC # / TYPE / VERS 
                                                            ANT # / TYPE        
  4658390.6639    96903.9830  4341451.4364                  APPROX POSITION XYZ 
        0.0000        0.0000        0.0000                  ANTENNA: DELTA H/E/N
     1     1                                                WAVELENGTH FACT L1/2
     4    C1    L1    C2    L2                              # / TYPES OF OBSERV 
  2016     9    24    10    39   14.0010000     GPS         TIME OF FIRST OBS   
  2016     9    24    10    51   35.0010000     GPS         TIME OF LAST OBS    
                                                            END OF HEADER       
 16  9 24 10 39 14.0010000  0 17G10G16G18G26G27G 8G21R13R21R22R 7R 5
                                R11R23G 7R12R 6
  21365611.706   112277041.481                                  
  21168197.498   111239622.034                                  
  22351168.838   117456188.516                                  
  22909236.957   120388856.253                                  
  20498265.700   107719114.525                                  
  22338446.024   117389294.140                                  
  24521933.765   128863640.004                                  
  22366556.578   119436143.1922                                 
  21166606.553   113266827.578                                  
  20015359.704   106843349.159                                  
  22045388.408   118010733.898                                  
  23699335.156   126686538.7692                                 
  23454700.121   125334805.5722                                 
  23379983.005                                                  
  24340934.907   127912416.837                                  
  21113408.431                                                  
  21052718.762   112341357.415                                  
 16  9 24 10 39 15.0010000  0 17G10G16G18G26G27G 8G21R13R21R22R 7R 5
                                R11R23G 7R12R 6
  21365424.779   112276058.991                                  
  21168629.460   111241890.811                                  
  22351447.658   117457654.118                                  
  22909925.334   120392472.732                                  
  20498207.207   107718807.371                                  
  22338027.637   117387089.488                                  
  24522487.949   128866552.632                                  
  22366255.422   119434534.2572                                 
  21167043.716   113269166.473                                  
  20015271.092   106842876.311                                  
  22044739.435   118007260.062                                  
  23699972.682   126689948.7292                                 
  23455572.248   125339452.2602                                 
  23379479.322                                                  
  24341010.291   127912813.815                                  
  21113791.568                                                  
  21052679.918   112341148.833                                  
 16  9 24 10 39 16.0010000  0 17G10G16G18G26G27G 8G21R13R21R22R 7R 5
                                R11R23G 7R12R 6
  21365238.062   112275077.652                                  
  21169061.597   111244160.678                                  
  22351726.617   117459120.784                                  
  22910613.570   120396090.055                                  
  20498148.958   107718501.117                                  
  22337606.180   117384885.569                                  
  24523042.063   128869465.821                                  
  22365954.476   119432926.1791                                 
  21167480.809   113271506.173                                  
  20015183.108   106842404.331                                  
  22044090.636   118003787.174                                  
  23700609.371   126693359.7102                                 
  23456437.465   125344099.5992                                 
  23378975.708                                                  
  24341086.165   127913211.880                                  
  21114174.670                                                  
  21052641.248   112340941.707                                  
 16  9 24 10 39 17.0010000  0 17G10G16G18G26G27G 8G21R13R21R22R 7R 5
                                R11R23G 7R12R 6
  21365051.519   112274097.475                                  
  21169493.525   111246431.625                                  
  22352005.785   117460588.502                                  
  22911302.225   120399708.189                                  
  20498091.093   107718195.772                                  
  22337186.083   117382682.291                                  
  24523596.561   128872379.577                                  
  22365653.809   119431319.966                                  
  21167918.286   113273846.652                                  
  20015095.054   106841933.204                                  
  22043442.290   118000315.220                                  
  23701247.002   126696771.9472                                 
  23457306.974   125348747.5882                                 
  23378474.468                                                  
  24341161.829   127913611.098                                  
  21114558.471                                                  
  21052602.962   112340736.027                                  
 16  9 24 10 39 18.0010000  0 17G10G16G18G26G27G 8G21R13R21R22R 7R 5
                                R11R23G 7R12R 6
  21364865.186   112273118.409                                  
  21169925.977   111248703.610                                  
  22352285.268   117462057.211                                  
  22911991.265   120403327.110                                  
  20498032.949   107717891.285                                  
  22336768.569   117380479.761                                  
  24524150.711   128875293.868                                  
  22365353.176   119429715.071                                  
  21168355.659   113276187.862                                  
  20015007.245   106841462.896                                  
  22042793.910   117996844.132                                  
  23701883.760   126700185.1832                                 
  23458175.437   125353396.1442                                 
  23377975.881                                                  
  24341237.982   127914011.375                                  
  21114941.782                                                  
  21052565.130   112340531.754                                  
 16  9 24 10 39 19.0010000  0 17G10G16G18G26G27G 8G21R13R21R22R 7R 5
                                R11R23G 7R12R 6
  21364678.992   112272140.862                                  
  21170358.533   111250977.025                                  
  22352564.995   117463527.315                                  
  22912680.234   120406947.193                                  
  20497975.398   107717588.050                                  
  22336349.869   117378278.217                                  
  24524705.593   128878209.083                                  
  22365052.928   119428111.879                                  
  21168792.996   113278530.144                                  
  20014919.575   106840993.798                                  
  22042145.774   117993374.376                                  
  23702521.252   126703599.8652                                 
  23459040.444   125358045.6482                                 
  23377479.562                                                  
  24341314.239   127914413.164                                  
  21115325.442                                                  
  21052527.752   112340329.290                                  
 16  9 24 10 39 20.0010000  0 17G10G16G18G26G27G 8G21R13R21R22R 7R 5
                                R11R23G 7R12R 6
  21364493.322   112271164.429                                  
  21170791.368   111253251.487                                  
  22352844.827   117464998.423                                  
  22913369.308   120410568.079                                  
  20497918.022   107717285.685                                  
  22335927.713   117376077.424                                  
  24525260.509   128881124.810                                  
  22364752.924   119426510.015                                  
  21169230.612   113280873.144                                  
  20014832.150   106840525.519                                  
  22041497.847   117989905.557                                  
  23703159.651   126707015.1121                                 
  23459908.453   125362695.8062                                 
  23376982.719                                                  
  24341390.741   127914816.045                                  
  21115710.464                                                  
  21052490.653   112340128.222                                  
 16  9 24 10 39 21.0010000  0 17G10G16G18G26G27G 8G21R13R21R22R 7R 5
                                R11R23G 7R12R 6
  21364307.826   112270188.820                                  
  21171224.063   111255526.682                                  
  22353124.868   117466470.246                                  
  22914058.732   120414189.459                                  
  20497860.610   107716983.875                                  
  22335507.093   117373876.948                                  
  24525815.322   128884040.786                                  
  22364453.094   119424909.138                                  
  21169668.194   113283216.587                                  
  20014744.759   106840057.732                                  
  22040850.340   117986437.343                                  
  23703799.376   126710431.571                                  
  23460773.774   125367346.1682                                 
  23376489.297   125048502.1692                                 
  24341467.487   127915219.681                                  
  21116097.231                                                  
  21052453.589   112339928.250                                  
 16  9 24 10 39 22.0010000  0 17G10G16G18G26G27G 8G21R13R21R22R 7R 5
                                R11R23G 7R12R 6
  21364121.807   112269214.189                                  
  21171657.178   111257802.776                                  
  22353405.014   117467942.940                                  
  22914748.155   120417811.488                                  
  20497803.304   107716682.795                                  
  22335089.335   117371676.983                                  
  24526370.343   128886957.093                                  
  22364153.544   119423309.451                                  
  21170105.846   113285560.618                                  
  20014657.333   106839590.628                                  
  22040202.622   117982969.904                                  
  23704436.937   126713848.975                                  
  23461640.317   125371996.4341                                 
  23375995.316   125045845.1612                                 
  24341544.233   127915624.324                                  
  21116483.334                                                  
  21052417.013   112339729.549                                  
 16  9 24 10 39 23.0010000  0 17G10G16G18G26G27G 8G21R13R21R22R 7R 5
                                R11R23G 7R12R 6
  21363936.485   112268240.504                                  
  21172090.432   111260079.733                                  
  22353685.229   117469416.460                                  
  22915437.648   120421434.123                                  
  20497745.788   107716382.396                                  
  22334669.971   117369477.518                                  
  24526925.260   128889873.824                                  
  22363854.272   119421710.891                                  
  21170543.357   113287905.172                                  
  20014570.187   106839124.144                                  
  22039554.905   117979503.166                                  
  23705078.232   126717267.330                                  
  23462510.315   125376647.648                                  
  23375503.639   125043188.6202                                 
  24341621.363   127916029.841                                  
  21116869.822                                                  
  21052380.123   112339532.069                                  
 16  9 24 10 39 24.0010000  0 18G10G16G18G26G27G 8G21R13R21R22R 7R 5
                                R11R23G 7G11R12R 6
  21363751.408   112267267.716                                  
  21172523.965   111262357.508                                  
  22353965.654   117470890.755                                  
  22916127.455   120425057.311                                  
  20497688.342   107716082.642                                  
  22334251.096   117367278.480                                  
  24527480.456   128892790.824                                  
  22363555.001   119420113.421                                  
  21170981.253   113290250.221                                  
  20014482.761   106838658.250                                  
  22038907.223   117976037.115                                  
  23705717.573   126720686.418                                  
  23463390.016   125381299.209                                  
  23375010.740   125040532.2992                                 
  24341698.772   127916436.258                                  
  24912324.138                                                  
  21117254.739                                                  
  21052343.443   112339335.772                                  
 16  9 24 10 39 25.0010000  0 18G10G16G18G26G27G 8G21R13R21R22R 7R 5
                                R11R23G 7G11R12R 6
  21363566.541   112266295.972                                  
  21172957.882   111264636.259                                  
  22354246.568   117472365.997                                  
  22916817.332   120428681.219                                  
  20497631.384   107715783.683                                  
  22333833.303   117365080.035                                  
  24528035.687   128895708.315                                  
  22363255.835   119418517.201                                  
  21171419.393   113292595.948                                  
  20014395.510   106838193.091                                  
  22038259.820   117972571.910                                  
  23706358.415   126724106.569                                  
  23464272.229   125385951.258                                  
  23374517.282   125037876.4702                                 
  24341776.182   127916843.670                                  
  24911727.096                                                  
  21117642.901                                                  
  21052307.426   112339140.802                                  
 16  9 24 10 39 26.0010000  0 18G10G16G18G26G27G 8G21R13R21R22R 7R 5
                                R11R23G 7G11R12R 6
  21363381.848   112265325.719                                  
  21173391.904   111266916.426                                  
  22354527.516   117473842.610                                  
  22917507.069   120432306.312                                  
  20497574.636   107715485.947                                  
  22333418.302   117362882.622                                  
  24528591.198   128898626.659                                  
  22362957.017   119416926.1753                                 
  21171857.603   113294942.785                                  
  20014308.294   106837729.118                                  
  22037612.591   117969108.006                                  
  23706999.920   126727528.172                                  
  23465141.529   125390604.314                                  
  23374025.047   125035221.6702                                 
  24341853.800   127917252.529                                  
  24911131.381                                                  
  21118025.899                                                  
  21052271.478   112338947.597                                  
 16  9 24 10 39 27.0010000  0 18G10G16G18G26G27G 8G21R13R21R22R 7R 5
                                R11R23G 7G11R12R 6
  21363197.329   112264357.004                                  
  21173825.786   111269198.035                                  
  22354808.884   117475320.647                                  
  22918197.435   120435932.587                                  
  20497518.132   107715189.490                                  
  22332996.670   117360686.328                                  
  24529146.778   128901545.915                                  
  22362658.479   119415333.3612                                 
  21172296.197   113297290.747                                  
  20014221.113   106837266.374                                  
  22036965.363   117965645.407                                  
  23707641.495   126730951.250                                  
  23466016.343   125395258.259                                  
  23373529.391   125032567.8452                                 
  24341931.907   127917662.917                                  
  24910538.981                                                  
  21118412.805                                                  
  21052235.321   112338756.213                                  
 16  9 24 10 39 28.0010000  0 18G10G16G18G26G27G 8G21R13R21R22R 7R 5
                                R11R23G 7G11R12R 6
  21363013.543   112263389.536                                  
  21174260.296   111271480.831                                  
  22355090.146   117476799.826                                  
  22918887.905   120439559.788                                  
  20497461.873   107714894.047                                  
  22332577.795   117358490.810                                  
  24529702.672   128904465.893                                  
  22362360.185   119413742.0342                                 
  21172734.756   113299639.559                                  
  20014134.420   106836804.585                                  
  22036318.169   117962183.861                                  
  23708284.535   126734375.566                                  
  23466883.759   125399912.969                                  
  23373031.431   125029914.721                                  
  24342010.154   127918074.516                                  
  24909945.255                                                  
  21118801.735                                                  
  21052199.758   112338566.339                                  
 16  9 24 10 39 29.0010000  0 17G10G16G18G26G27G 8G21R13R21R22R 7R 5
                                R11R23G 7R12R 6
  21362829.967   112262423.339                                  
  21174694.772   111273764.827                                  
  22355371.932   117478280.177                                  
  22919578.515   120443187.916                                  
  20497405.893   107714599.603                                  
  22332160.141   117356296.054                                  
  24530258.706   128907386.544                                  
  22362062.065   119412152.1772                                 
  21173173.803   113301989.266                                  
  20014047.937   106836343.777                                  
  22035671.255   117958723.354                                  
  23708924.993   126737801.069                                  
  23467757.282   125404568.431                                  
  23372532.041   125027262.352                                  
  24342088.645   127918487.380                                  
  21119188.921                                                  
  21052164.055   112338378.039                                  
 16  9 24 10 39 30.0010000  0 17G10G16G18G26G27G 8G21R13R21R22R 7R 5
                                R11R23G 7R12R 6
  21362646.077   112261458.641                                  
  21175129.666   111276050.242                                  
  22355653.788   117479761.897                                  
  22920269.229   120446817.209                                  
  20497349.982   107714306.400                                  
  22331739.347   117354102.395                                  
  24530814.809   128910308.077                                  
  22361764.748   119410560.0073                                 
  21173612.990   113304340.084                                  
  20013961.419   106835884.162                                  
  22035024.759   117955264.173                                  
  23709565.521   126741228.028                                  
  23468628.676   125409224.824                                  
  23372035.896   125024610.908                                  
  24342167.834   127918901.682                                  
  21119577.153                                                  
  21052128.840   112338191.506                                  
 16  9 24 10 39 31.0010000  0 17G10G16G18G26G27G 8G21R13R21R22R 7R 5
                                R11R23G 7R12R 6
  21362462.605   112260495.289                                  
  21175564.665   111278336.927                                  
  22355936.098   117481244.845                                  
  22920960.153   120450447.534                                  
  20497294.630   107714014.299                                  
  22331322.182   117351909.666                                  
  24531370.878   128913230.387                                  
  22361467.152   119408973.3912                                 
  21174052.212   113306691.865                                  
  20013875.494   106835425.590                                  
  22034378.333   117951806.152                                  
  23710206.223   126744656.326                                  
  23469500.907   125413882.001                                  
  23371544.045   125021960.260                                  
  24342247.023   127919317.301                                  
  21119966.956                                                  
  21052093.870   112338006.619                                  
 16  9 24 10 39 32.0010000  0 17G10G16G18G26G27G 8G21R13R21R22R 7R 5
                                R11R23G 7R12R 6
  21362279.727   112259533.332                                  
  21176000.188   111280624.904                                  
  22356218.617   117482729.069                                  
  22921651.252   120454078.895                                  
  20497238.999   107713723.319                                  
  22330907.146   117349717.824                                  
  24531927.260   128916153.476                                  
  22361170.603   119407388.3642                                 
  21174491.713   113309044.607                                  
  20013789.569   106834968.097                                  
  22033731.977   117948349.290                                  
  23710849.194   126748085.860                                  
  23470372.616   125418540.085                                  
  23371057.288   125019310.417                                  
  24342326.387   127919734.293                                  
  21120356.375   112821136.5122                                 
  21052059.353   112337823.384                                  
 16  9 24 10 39 33.0010000  0 17G10G16G18G26G27G 8G21R13R21R22R 7R 5
                                R11R23G 7R12R 6
  21362096.674   112258572.395                                  
  21176435.710   111282913.855                                  
  22356501.276   117484214.217                                  
  22922342.664   120457710.965                                  
  20497183.821   107713433.099                                  
  22330492.075   117347526.615                                  
  24532483.643   128919077.024                                  
  22360873.845   119405804.5582                                 
  21174931.808   113311397.977                                  
  20013703.784   106834511.339                                  
  22033085.830   117944893.234                                  
  23711489.756   126751516.436                                  
  23471244.289   125423198.613                                  
  23370566.239   125016661.082                                  
  24342405.995   127920152.305                                  
  21120747.923   112823213.1872                                 
  21052024.941   112337641.496                                  
 16  9 24 10 39 34.0010000  0 17G10G16G18G26G27G 8G21R13R21R22R 7R 5
                                R11R23G 7R12R 6
  21361914.145   112257612.731                                  
  21176871.861   111285203.984                                  
  22356784.004   117485700.528                                  
  22923034.112   120461343.946                                  
  20497128.958   107713143.919                                  
  22330077.667   117345336.175                                  
  24533040.270   128922001.241                                  
  22360577.645   119404222.2262                                 
  21175372.112   113313752.246                                  
  20013618.626   106834055.557                                  
  22032440.033   117941438.268                                  
  23712134.437   126754948.172                                  
  23472116.416   125427857.898                                  
  23370073.236   125014012.460                                  
  24342486.126   127920571.560                                  
  21121137.517   112825291.4122                                 
  21051990.704   112337461.170                                  
 16  9 24 10 39 35.0010000  0 17G10G16G18G26G27G 8G21R13R21R22R 7R 5
                                R11R23G 7R12R 6
  21361731.825   112256654.103                                  
  21177307.872   111287495.060                                  
  22357066.837   117487187.741                                  
  22923725.315   120464977.645                                  
  20497074.164   107712855.512                                  
  22329661.200   117343146.315                                  
  24533596.583   128924925.882                                  
  22360281.201   119402641.1042                                 
  21175812.206   113316107.154                                  
  20013533.818   106833600.484                                  
  22031794.165   117937984.095                                  
  23712775.733   126758380.919                                  
  23472988.333   125432517.624                                  
  23369578.312   125011364.382                                  
  24342566.083   127920991.778                                  
  21121527.843   112827370.7562                                 
  21051957.025   112337282.159                                  
 16  9 24 10 39 36.0010000  0 17G10G16G18G26G27G 8G21R13R21R22R 7R 5
                                R11R23G 7R12R 6
  21361549.644   112255696.587                                  
  21177744.093   111289787.160                                  
  22357349.775   117488675.973                                  
  22924416.832   120468612.122                                  
  20497019.684   107712567.948                                  
  22329246.862   117340957.169                                  
  24534153.140   128927851.049                                  
  22359985.385   119401061.2942                                 
  21176252.231   113318462.773                                  
  20013449.045   106833146.208                                  
  22031148.507   117934530.854                                  
  23713419.052   126761814.606                                  
  23473860.495   125437177.918                                  
  23369092.045   125008716.860                                  
  24342646.563   127921413.084                                  
  21121918.484   112829451.4312                                 
  21051923.346   112337104.543                                  
 16  9 24 10 39 37.0010000  0 17G10G16G18G26G27G 8G21R13R21R22R 7R 5
                                R11R23G 7R12R 6
  21361367.569   112254740.190                                  
  21178180.313   111292080.301                                  
  22357633.481   117490165.184                                  
  22925108.489   120472247.389                                  
  20496965.275   107712281.243                                  
  22328831.652   117338768.658                                  
  24534709.872   128930776.742                                  
  22359690.127   119399482.8012                                 
  21176693.058   113320819.097                                  
  20013364.167   106832692.744                                  
  22030503.058   117931078.553                                  
  23714061.046   126765249.507                                  
  23474732.483   125441838.794                                  
  23368617.050   125006069.881                                  
  24342726.834   127921835.455                                  
  21122307.798   112831533.4112                                 
  21051890.086   112336928.343                                  
 16  9 24 10 39 38.0010000  0 17G10G16G18G26G27G 8G21R13R21R22R 7R 5
                                R11R23G 7R12R 6
  21361185.947   112253785.402                                  
  21178616.674   111294374.986                                  
  22357917.186   117491655.910                                  
  22925800.844   120475883.935                                  
  20496910.865   107711995.916                                  
  22328416.511   117336581.253                                  
  24535266.674   128933703.443                                  
  22359394.974   119397905.6411                                 
  21177133.956   113323176.638                                  
  20013279.743   106832240.589                                  
  22029858.238   117927627.668                                  
  23714707.193   126768685.906                                  
  23475605.028   125446500.717                                  
  23368128.758   125003423.935                                  
  24342807.420   127922259.468                                  
  21122700.428   112833616.8101                                 
  21051857.384   112336754.060                                  
 16  9 24 10 39 39.0010000  0 17G10G16G18G26G27G 8G21R13R21R22R 7R 5
                                R11R23G 7R12R 6
  21361004.395   112252831.947                                  
  21179053.557   111296670.919                                  
  22358201.136   117493147.854                                  
  22926493.303   120479521.469                                  
  20496856.630   107711711.641                                  
  22328002.138   117334394.761                                  
  24535823.685   128936630.898                                  
  22359100.135   119396330.513                                  
  21177574.992   113325535.122                                  
  20013195.598   106831789.462                                  
  22029213.418   117924177.863                                  
  23715351.140   126772123.657                                  
  23476477.644   125451163.498                                  
  23367634.882   125000778.777                                  
  24342888.563   127922684.737                                  
  21123090.824   112835702.191                                  
  21051824.927   112336581.393                                  
 16  9 24 10 39 40.0010000  0 17G10G16G18G26G27G 8G21R13R21R22R 7R 5
                                R11R23G 7R12R 6
  21360823.192   112251879.905                                  
  21179490.999   111298968.178                                  
  22358485.086   117494641.099                                  
  22927185.902   120483160.079                                  
  20496803.092   107711428.538                                  
  22327587.835   117332209.213                                  
  24536381.010   128939559.150                                  
  22358805.680   119394756.983                                  
  21178016.029   113327894.654                                  
  20013111.523   106831339.440                                  
  22028568.981   117920729.239                                  
  23715996.833   126775562.721                                  
  23477350.295   125455827.063                                  
  23367138.947   124998134.457                                  
  24342969.776   127923111.393                                  
  21123483.000   112837789.249                                  
  21051792.505   112336410.409                                  
 16  9 24 10 39 41.0010000  0 17G10G16G18G26G27G 8G21R13R21R22R 7R 5
                                R11R23G 7R12R 6
  21360642.303   112250929.400                                  
  21179928.267   111301266.893                                  
  22358769.525   117496135.766                                  
  22927878.606   120486799.881                                  
  20496749.485   107711146.697                                  
  22327171.857   117330024.743                                  
  24536938.335   128942488.364                                  
  22358511.644   119393185.184                                  
  21178457.345   113330255.326                                  
  20013027.588   106830890.654                                  
  22027924.789   117917281.976                                  
  23716640.083   126779003.295                                  
  23478222.770   125460491.655                                  
  23366647.339   124995491.153                                  
  24343051.234   127923539.570                                  
  21123873.955   112839877.919                                  
  21051760.571   112336241.242                                  
 16  9 24 10 39 42.0010000  0 17G10G16G18G26G27G 8G21R13R21R22R 7R 5
                                R11R23G 7R12R 6
  21360461.763   112249980.370                                  
  21180365.569   111303567.021                                  
  22359054.138   117497631.788                                  
  22928571.380   120490440.858                                  
  20496696.088   107710866.095                                  
  22326756.681   117327841.359                                  
  24537495.869   128945418.449                                  
  22358217.643   119391618.5803                                 
  21178898.661   113332617.076                                  
  20012943.512   106830443.060                                  
  22027280.457   117913836.030                                  
  23717284.834   126782445.252                                  
  23479094.095   125465157.177                                  
  23366152.172   124992848.757                                  
  24343133.110   127923969.185                                  
  21124263.409   112841968.378                                  
  21051729.370   112336073.832                                  
 16  9 24 10 39 43.0010000  0 17G10G16G18G26G27G 8G21R13R21R22R 7R 5
                                R11R23G 7R12R 6
  21360281.118   112249032.486                                  
  21180803.605   111305868.202                                  
  22359339.170   117499128.841                                  
  22929264.537   120494082.628                                  
  20496642.864   107710586.368                                  
  22326343.146   117325658.571                                  
  24538053.369   128948349.060                                  
  22357923.711   119390049.8012                                 
  21179340.082   113334979.580                                  
  20012859.751   106829996.299                                  
  22026636.963   117910391.038                                  
  23717925.082   126785888.317                                  
  23479954.495   125469823.331                                  
  23365659.622   124990207.019                                  
  24343215.371   127924399.897                                  
  21124655.830   112844060.197                                  
  21051698.064   112335907.840                                  
 16  9 24 10 39 44.0010000  0 17G10G16G18G26G27G 8G21R13R21R22R 7R 5
                                R11R23G 7R12R 6
  21360100.927   112248085.830                                  
  21181241.640   111308170.522                                  
  22359624.166   117500627.023                                  
  22929957.555   120497725.263                                  
  20496590.095   107710307.617                                  
  22325928.634   117323476.623                                  
  24538611.427   128951280.324                                  
  22357629.745   119388482.4412                                 
  21179781.433   113337342.906                                  
  20012776.130   106829550.460                                  
  22025993.608   117906947.041                                  
  23718568.542   126789332.549                                  
  23480824.249   125474490.101                                  
  23365166.304   124987565.939                                  
  24343297.596   127924831.822                                  
  21125044.027   112846153.386                                  
  21051666.828   112335743.340                                  
 16  9 24 10 39 45.0010000  0 17G10G16G18G26G27G 8G21R13R21R22R 7R 5
                                R11R23G 7R12R 6
  21359921.016   112247140.779                                  
  21181679.955   111310474.381                                  
  22359909.338   117502126.682                                  
  22930651.062   120501369.217                                  
  20496537.256   107710030.213                                  
  22325514.924   117321295.794                                  
  24539169.799   128954212.607                                  
  22357336.232   119386916.8902                                 
  21180223.272   113339707.451                                  
  20012692.858   106829105.943                                  
  22025350.742   117903504.454                                  
  23719213.956   126792778.351                                  
  23481696.236   125479157.989                                  
  23364672.882   124984925.948                                  
  24343380.101   127925265.340                                  
  21125434.389   112848248.459                                  
  21051636.360   112335580.750                                  
 16  9 24 10 39 46.0010000  0 17G10G16G18G26G27G 8G21R13R21R22R 7R 5
                                R11R23G 7R12R 6
  21359741.418   112246197.176                                  
  21182118.479   111312779.603                                  
  22360194.963   117503627.678                                  
  22931344.673   120505014.255                                  
  20496484.870   107709754.000                                  
  22325103.552   117319115.987                                  
  24539728.031   128957145.724                                  
  22357043.522   119385348.9853                                 
  21180665.391   113342073.051                                  
  20012609.201   106828662.569                                  
  22024707.771   117900063.089                                  
  23719858.636   126796225.515                                  
  23482573.738   125483826.772                                  
  23364179.494   124982286.829                                  
  24343463.303   127925700.248                                  
  21125825.239   112850345.162                                  
  21051605.822   112335419.896                                  
 16  9 24 10 39 47.0010000  0 17G10G16G18G26G27G 8G21R13R21R22R 7R 5
                                R11R23G 7R12R 6
  21359561.751   112245254.666                                  
  21182557.386   111315085.835                                  
  22360480.658   117505129.644                                  
  22932038.354   120508660.056                                  
  20496432.485   107709478.636                                  
  22324688.202   117316936.765                                  
  24540286.334   128960079.372                                  
  22356750.847   119383786.3692                                 
  21181107.615   113344439.371                                  
  20012525.650   106828219.978                                  
  22024065.603   117896622.590                                  
  23720503.841   126799673.792                                  
  23483444.364   125488496.164                                  
  23363686.351   124979648.311                                  
  24343546.611   127926136.225                                  
  21126217.170   112852443.173                                  
  21051575.843   112335260.417                                  
 16  9 24 10 39 48.0010000  0 17G10G16G18G26G27G 8G21R13R21R22R 7R 5
                                R11R23G 7R12R 6
  21359382.572   112244313.651                                  
  21182996.539   111317393.474                                  
  22360766.528   117506633.010                                  
  22932732.419   120512307.003                                  
  20496380.204   107709204.489                                  
  22324271.212   117314758.583                                  
  24540844.810   128963013.924                                  
  22356458.451   119382224.4603                                 
  21181549.698   113346806.784                                  
  20012442.656   106827778.580                                  
  22023423.261   117893183.363                                  
  23721149.255   126803123.407                                  
  23484315.689   125493166.487                                  
  23363192.894   124977010.691                                  
  24343630.058   127926573.667                                  
  21126611.301   112854542.857                                  
  21051546.422   112335102.716                                  
 16  9 24 10 39 49.0010000  0 17G10G16G18G26G27G 8G21R13R21R22R 7R 5
                                R11R23G 7R12R 6
  21359203.707   112243373.874                                  
  21183435.586   111319702.278                                  
  22361053.060   117508137.480                                  
  22933426.728   120515954.868                                  
  20496328.237   107708931.341                                  
  22323857.397   117312581.219                                  
  24541403.531   128965949.102                                  
  22356166.230   119380664.9662                                 
  21181992.445   113349175.031                                  
  20012359.838   106827338.106                                  
  22022781.093   117889745.206                                  
  23721795.052   126806574.253                                  
  23485190.608   125497837.377                                  
  23362702.054   124974373.663                                  
  24343713.714   127927012.321                                  
  21127006.828   112856643.988                                  
  21051517.350   112334946.550                                  
 16  9 24 10 39 50.0010000  0 17G10G16G18G26G27G 8G21R13R21R22R 7R 5
                                R11R23G 7R12R 6
  21359025.052   112242435.644                                  
  21183875.576   111322012.535                                  
  22361339.662   117509643.391                                  
  22934121.282   120519603.928                                  
  20496276.759   107708659.477                                  
  22323440.966   117310404.934                                  
  24541962.113   128968885.218                                  
  22355874.497   119379107.2482                                 
  21182435.262   113351544.412                                  
  20012277.158   106826898.880                                  
  22022139.693   117886308.437                                  
  23722440.955   126810026.582                                  
  23486075.892   125502509.382                                  
  23362210.551   124971737.779                                  
  24343797.824   127927452.468                                  
  21127402.110   112858778.4341                                 
  21051488.452   112334792.204                                  
 16  9 24 10 39 51.0010000  0 17G10G16G18G26G27G 8G21R13R21R22R 7R 5
                                R11R23G 7R12R 6
  21358846.536   112241498.734                                  
  21184315.182   111324324.041                                  
  22361626.509   117511150.497                                  
  22934815.801   120523253.993                                  
  20496225.036   107708388.668                                  
  22323029.175   117308229.483                                  
  24542521.008   128971822.052                                  
  22355582.869   119377551.0392                                 
  21182877.939   113353914.743                                  
  20012195.038   106826460.664                                  
  22021498.013   117882872.804                                  
  23723086.787   126813480.187                                  
  23486952.591   125507182.090                                  
  23361717.269   124969102.591                                  
  24343882.109   127927893.927                                  
  21127795.403   112860882.878                                  
  21051459.869   112334639.460                                  
 16  9 24 10 39 52.0010000  0 17G10G16G18G26G27G 8G21R13R21R22R 7R 5
                                R11R23G 7R12R 6
  21358668.369   112240563.156                                  
  21184755.695   111326636.797                                  
  22361913.740   117512658.824                                  
  22935510.354   120526905.045                                  
  20496173.663   107708118.950                                  
  22322620.072   117306054.939                                  
  24543080.079   128974759.671                                  
  22355291.730   119375994.3703                                 
  21183321.279   113356286.050                                  
  20012113.231   106826023.479                                  
  22020856.299   117879438.288                                  
  23723732.829   126816935.051                                  
  23487826.323   125511855.644                                  
  23361230.722   124966468.166                                  
  24343966.533   127928336.720                                  
  21128190.336   112862988.9112                                 
  21051431.599   112334488.344                                  
 16  9 24 10 39 53.0010000  0 17G10G16G18G26G27G 8G21R13R21R22R 7R 5
                                R11R23G 7R12R 6
  21358490.307   112239628.736                                  
  21185196.034   111328950.634                                  
  22362201.145   117514168.193                                  
  22936205.257   120530556.925                                  
  20496122.394   107707850.121                                  
  22322207.898   117303881.107                                  
  24543639.358   128977697.812                                  
  22355000.835   119374441.0672                                 
  21183764.515   113358658.091                                  
  20012031.180   106825587.135                                  
  22020215.248   117876004.688                                  
  23724379.360   126820391.033                                  
  23488703.336   125516529.765                                  
  23360737.997   124963834.435                                  
  24344050.922   127928780.584                                  
  21128583.280   112865096.3202                                 
  21051403.469   112334338.671                                  
 16  9 24 10 39 54.0010000  0 17G10G16G18G26G27G 8G21R13R21R22R 7R 5
                                R11R23G 7R12R 6
  21358313.013   112238695.901                                  
  21185636.652   111331265.969                                  
  22362488.655   117515679.031                                  
  22936900.334   120534210.040                                  
  20496071.230   107707582.627                                  
  22321795.968   117301708.395                                  
  24544198.637   128980636.944                                  
  22354710.637   119372889.5642                                 
  21184208.309   113361031.306                                  
  20011949.897   106825152.089                                  
  22019574.406   117872572.489                                  
  23725026.169   126823848.566                                  
  23489579.651   125521204.920                                  
  23360247.262   124961201.744                                  
  24344135.695   127929226.054                                  
  21128975.317   112867205.3972                                 
  21051376.003   112334190.852                                  
 16  9 24 10 39 55.0010000  0 17G10G16G18G26G27G 8G21R13R21R22R 7R 5
                                R11R23G 7R12R 6
  21358135.823   112237764.855                                  
  21186077.549   111333583.007                                  
  22362776.513   117517191.522                                  
  22937595.585   120537864.600                                  
  20496020.939   107707316.660                                  
  22321382.014   117299537.045                                  
  24544758.371   128983577.253                                  
  22354420.685   119371340.0512                                 
  21184651.963   113363405.912                                  
  20011868.614   106824718.527                                  
  22018933.669   117869141.878                                  
  23725673.328   126827307.777                                  
  23490455.303   125525881.408                                  
  23359755.026   124958570.250                                  
  24344220.852   127929673.233                                  
  21129371.332   112869316.5472                                 
  21051348.780   112334045.126                                  
 16  9 24 10 39 56.0010000  0 17G10G16G18G26G27G 8G21R13R21R22R 7R 5
                                R11R23G 7R12R 6
  21357959.123   112236835.334                                  
  21186518.551   111335901.494                                  
  22363064.756   117518705.434                                  
  22938291.360   120541520.381                                  
  20495970.124   107707051.957                                  
  22320969.317   117297366.782                                  
  24545317.999   128986518.535                                  
  22354131.116   119369792.2762                                 
  21185096.176   113365781.691                                  
  20011787.680   106824286.197                                  
  22018293.106   117865712.589                                  
  23726320.452   126830768.516                                  
  23491330.362   125530558.845                                  
  23359267.467   124955939.753                                  
  24344305.940   127930121.892                                  
  21129768.325   112871429.4142                                 
  21051321.907   112333901.213                                  
 16  9 24 10 39 57.0010000  0 17G10G16G18G26G27G 8G21R13R21R22R 7R 5
                                R11R23G 7R12R 6
  21357782.736   112235908.031                                  
  21186960.216   111338222.124                                  
  22363353.313   117520221.466                                  
  22938987.136   120545178.012                                  
  20495919.972   107706789.229                                  
  22320553.652   117295198.265                                  
  24545877.907   128989461.425                                  
  22353841.721   119368246.9402                                 
  21185540.563   113368159.332                                  
  20011707.339   106823855.809                                  
  22017652.823   117862285.315                                  
  23726968.448   126834231.389                                  
  23492205.944   125535237.952                                  
  23358773.905   124953310.990                                  
  24344391.550   127930572.786                                  
  21130163.014   112873544.8442                                 
  21051295.487   112333759.830                                  
 16  9 24 10 39 58.0010000  0 17G10G16G18G26G27G 8G21R13R21R22R 7R 5
                                R11R23G 7R12R 6
  21357606.314   112234981.685                                  
  21187402.195   111340543.631                                  
  22363642.219   117521738.333                                  
  22939683.295   120548836.281                                  
  20495869.820   107706527.196                                  
  22320142.072   117293030.198                                  
  24546437.849   128992404.677                                  
  22353552.536   119366702.7682                                 
  21185984.950   113370537.507                                  
  20011626.719   106823426.072                                  
  22017012.609   117858858.806                                  
  23727616.410   126837695.187                                  
  23493081.631   125539917.458                                  
  23358277.761   124950682.546                                  
  24344477.161   127931024.588                                  
  21130556.202   112875660.7911                                 
  21051269.487   112333619.702                                  
 16  9 24 10 39 59.0010000  0 17G10G16G18G26G27G 8G21R13R21R22R 7R 5
                                R11R23G 7R12R 6
  21357429.823   112234055.262                                  
  21187843.930   111342864.967                                  
  22363931.159   117523254.994                                  
  22940379.209   120552494.133                                  
  20495819.877   107706264.807                                  
  22319730.735   117290861.616                                  
  24546997.408   128995347.252                                  
  22353263.596   119365158.6832                                 
  21186429.407   113372915.141                                  
  20011546.169   106822995.908                                  
  22016372.605   117855432.010                                  
  23728264.371   126841158.825                                  
  23493957.283   125544596.311                                  
  23357787.689   124948053.465                                  
  24344563.016   127931476.256                                  
  21130953.543   112877777.366                                  
  21051243.242   112333479.762                                  
 16  9 24 10 40  0.0010000  0 17G10G16G18G26G27G 8G21R13R21R22R 7R 5
                                R11R23G 7R12R 6
  21357253.436   112233128.306                                  
  21188285.281   111345185.699                                  
  22364220.030   117524771.014                                  
  22941074.984   120556151.113                                  
  20495769.725   107706001.649                                  
  22319316.502   117288692.068                                  
  24547556.757   128998288.723                                  
  22352974.306   119363619.2573                                 
  21186873.899   113375291.850                                  
  20011465.514   106822564.886                                  
  22015732.322   117852004.441                                  
  23728912.228   126844621.792                                  
  23494833.388   125549274.040                                  
  23357303.550   124945423.292                                  
  24344649.081   127931927.399                                  
  21131346.104   112879847.1521                                 
  21051216.892   112333339.560                                  
 16  9 24 10 40  1.0010000  0 18G10G16G18G26G27G 8G21R13R21R22R 7R 5
                                R11R23G 7G30R12R 6
  21357077.119   112232201.376                                  
  21188726.841   111347506.373                                  
  22364508.343   117526286.941                                  
  22941770.620   120559807.785                                  
  20495719.469   107705738.250                                  
  22318903.385   117286521.985                                  
  24548116.456   129001229.601                                  
  22352685.226   119362075.0132                                 
  21187318.217   113377668.185                                  
  20011384.789   106822133.548                                  
  22015092.492   117848576.705                                  
  23729560.015   126848084.764                                  
  23495708.831   125553951.272                                  
  23356810.965   124942792.608                                  
  24344735.040   127932378.508                                  
  25367890.865                                                  
  21131740.025   112881963.621                                  
  21051190.263   112333199.659                                  
 16  9 24 10 40  2.0010000  0 17G10G16G18G26G27G 8G21R13R21R22R 7R 5
                                R11R23G 7R12R 6
  21356900.592   112231275.155                                  
  21189168.750   111349827.664                                  
  22364796.935   117527803.462                                  
  22942466.360   120563464.789                                  
  20495669.456   107705475.310                                  
  22318488.000                                                  
  24548676.049   129004170.581                                  
  22352396.355   119360531.6822                                 
  21187762.569   113380044.819                                  
  20011304.134   106821702.586                                  
  22014452.244   117845149.395                                  
  23730207.977   126851548.324                                  
  23496584.902   125558628.640                                  
  23356320.510   124940162.104                                  
  24344821.035   127932830.315                                  
  21132135.935   112884080.9952                                 
  21051163.843   112333060.719                                  
 16  9 24 10 40  3.0010000  0 18G10G16G18G26G27G 8G21R13R21R22R 7R 5
                                R11R23G 7G30R12R 6
  21356723.926   112230348.621                                  
  21189610.695   111352148.566                                  
  22365085.387   117529319.542                                  
  22943162.030   120567121.224                                  
  20495619.200   107705211.793                                  
  22318073.662   117282267.9483                                 
  24549235.433   129007110.742                                  
  22352107.379   119358988.1982                                 
  21188206.607   113382420.687                                  
  20011223.340   106821270.981                                  
  22013811.751   117841721.495                                  
  23730855.833   126855011.547                                  
  23497460.658   125563305.085                                  
  23355825.901                                                  
  24344907.309   127933281.765                                  
  25367551.109                                                  
  21132533.137   112886198.2122                                 
  21051137.458   112332921.689                                  
 16  9 24 10 40  4.0010000  0 19G10G16G18G26G27G 8G21R13R21R22R 7R 5
                                R11R23G 7G11G30R12R 6
  21356547.086   112229420.330                                  
  21190051.941   111354467.620                                  
  22365373.734   117530833.767                                  
  22943857.282   120570775.499                                  
  20495568.734   107704946.269                                  
  22317657.440   117280095.1822                                 
  24549794.713   129010048.387                                  
  22351817.985   119357443.1012                                 
  21188650.366   113384794.362                                  
  20011142.092   106820837.261                                  
  22013171.502   117838291.663                                  
  23731503.306   126858472.830                                  
  23498335.752   125567979.189                                  
  23355334.049                                                  
  24344993.094   127933731.410                                  
  24888728.477                                                  
  25367388.299   133306486.6952                                 
  21132927.268   112888313.8372                                 
  21051111.039   112332781.124                                  
 16  9 24 10 40  5.0010000  0 19G10G16G18G26G27G 8G21R13R21R22R 7R 5
                                R11R23G 7G11G30R12R 6
  21356370.350   112228491.389                                  
  21190493.117   111356785.966                                  
  22365661.942   117532347.227                                  
  22944552.219   120574428.827                                  
  20495517.884   107704679.862                                  
  22317242.229   117277921.4442                                 
  24550353.574   129012984.889                                  
  22351528.800   119355897.5382                                 
  21189093.986   113387166.976                                  
  20011060.180   106820402.572                                  
  22012531.079   117834860.904                                  
  23732150.779   126861933.456                                  
  23499210.636   125572652.097                                  
  23354843.698                                                  
  24345078.182   127934180.418                                  
  24888137.892                                                  
  25367220.602   133305592.0502                                 
  21133322.096   112890428.9542                                 
  21051084.270   112332640.189                                  
 16  9 24 10 40  6.0010000  0 19G10G16G18G26G27G 8G21R13R21R22R 7R 5
                                R11R23G 7G11G30R12R 6
  21356193.440   112227562.624                                  
  21190934.329   111359104.375                                  
  22365949.940   117533860.729                                  
  22945247.017   120578081.954                                  
  20495467.173   107704413.335                                  
  22316824.890   117275747.3392                                 
  24550911.911   129015920.902                                  
  22351239.475   119354352.3262                                 
  21189537.221   113389539.349                                  
  20010978.443   106819967.738                                  
  22011890.203   117831430.141                                  
  23732797.938   126865394.159                                  
  23500085.241   125577324.568                                  
  23354349.368                                                  
  24345163.269   127934629.540                                  
  24887545.981                                                  
  25367057.129   133304697.4322                                 
  21133721.148   112892544.4202                                 
  21051057.467   112332499.653                                  
 16  9 24 10 40  7.0010000  0 18G10G16G18G26G27G 8G21R13R21R22R 7R 5
                                R11R23G 7G30R12R 6
  21356016.774   112226633.929                                  
  21191375.610   111361422.787                                  
  22366238.148   117535374.187                                  
  22945941.850   120581734.847                                  
  20495416.638   107704146.638                                  
  22316411.843   117273572.8752                                 
  24551470.702   129018856.460                                  
  22350950.116   119352807.3782                                 
  21189980.352   113391911.374                                  
  20010896.707   106819532.643                                  
  22011249.500   117827999.231                                  
  23733445.306   126868854.833                                  
  23500960.439   125581996.567                                  
  23353854.061                                                  
  24345248.461   127935078.702                                  
  25366882.033   133303802.8242                                 
  21134115.837   112894660.1882                                 
  21051031.012   112332359.472                                  
 16  9 24 10 40  8.0010000  0 18G10G16G18G26G27G 8G21R13R21R22R 7R 5
                                R11R23G 7G30R12R 6
  21355840.038   112225704.658                                  
  21191816.612   111363740.528                                  
  22366526.251   117536886.951                                  
  22946636.508   120585386.785                                  
  20495365.683   107703879.093                                  
  22315997.366   117271397.3622                                 
  24552029.178   129021790.894                                  
  22350660.791   119351261.5231                                 
  21190423.169   113394282.365                                  
  20010814.900   106819096.664                                  
  22010608.310   117824567.484                                  
  23734092.325   126872314.845                                  
  23501834.800   125586667.393                                  
  23353358.998                                                  
  24345333.513   127935527.189                                  
  25366710.253   133302907.5552                                 
  21134511.678   112896775.0231                                 
  21051004.732   112332218.984                                  
 16  9 24 10 40  9.0010000  0 17G10G16G18G26G27G 8G21R13R21R22R 7R 5
                                R11R23G 7R12R 6
  21355663.407   112224775.423                                  
  21192257.439   111366058.238                                  
  22366814.250   117538399.634                                  
  22947331.306   120589038.447                                  
  20495314.589   107703611.351                                  
  22315587.809   117269221.3792                                 
  24552587.167   129024724.672                                  
  22350371.571   119349716.401                                  
  21190866.230   113396652.989                                  
  20010733.198   106818660.379                                  
  22009967.154   117821135.555                                  
  23734739.484   126875774.864                                  
  23502709.579   125591337.693                                  
  23352860.760   124922105.8313                                 
  24345418.670   127935975.729                                  
  21134908.496   112898890.572                                  
  21050978.487   112332078.794                                  
 16  9 24 10 40 10.0010000  0 18G10G16G18G26G27G 8G21R13R21R22R 7R 5
                                R11R23G 7G30R12R 6
  21355486.601   112223846.270                                  
  21192698.336   111368375.937                                  
  22367102.143   117539912.290                                  
  22948025.685   120592689.829                                  
  20495263.704   107703343.420                                  
  22315174.728   117267045.0272                                 
  24553145.155   129027657.968                                  
  22350082.281   119348171.531                                  
  21191309.047   113399023.264                                  
  20010651.496   106818223.855                                  
  22009325.963   117817703.452                                  
  23735386.782   126879234.776                                  
  23503583.835   125596007.490                                  
  23352364.755   124919467.6562                                 
  24345503.548   127936424.344                                  
  25366365.891   133301151.9903                                 
  21135302.207   112901006.479                                  
  21050952.207   112331938.960                                  
 16  9 24 10 40 11.0010000  0 18G10G16G18G26G27G 8G21R13R21R22R 7R 5
                                R11R23G 7G30R12R 6
  21355309.761   112222916.640                                  
  21193139.408   111370693.078                                  
  22367389.758   117541424.350                                  
  22948720.169   120596340.432                                  
  20495212.470   107703074.758                                  
  22314759.587   117264867.7992                                 
  24553703.108   129030590.170                                  
  22349792.957   119346626.359                                  
  21191751.549   113401392.620                                  
  20010569.724   106817786.520                                  
  22008684.807   117814270.685                                  
  23736033.837   126882694.179                                  
  23504458.056   125600676.241                                  
  23351868.889   124916828.5282                                 
  24345588.845   127936872.405                                  
  25366197.531   133300256.1682                                 
  21135697.629   112903122.031                                  
  21050925.578   112331798.919                                  
 16  9 24 10 40 12.0010000  0 18G10G16G18G26G27G 8G21R13R21R22R 7R 5
                                R11R23G 7G30R12R 6
  21355132.781   112221986.322                                  
  21193580.235   111373009.455                                  
  22367677.302   117542935.602                                  
  22949414.234   120599989.986                                  
  20495161.236   107702805.147                                  
  22314348.844   117262689.4402                                 
  24554260.957   129033521.139                                  
  22349503.318   119345080.664                                  
  21192194.052   113403760.881                                  
  20010488.057   106817348.150                                  
  22008043.581   117810837.039                                  
  23736680.577   126886152.811                                  
  23505331.684   125605343.721                                  
  23351368.557                                                  
  24345673.757   127937319.795                                  
  25366027.810   133299359.5912                                 
  21136097.902   112905237.068                                  
  21050899.298   112331658.429                                  
 16  9 24 10 40 13.0010000  0 18G10G16G18G26G27G 8G21R13R21R22R 7R 5
                                R11R23G 7G30R12R 6
  21354955.731   112221055.928                                  
  21194020.888   111375325.654                                  
  22367965.022   117544446.653                                  
  22950108.718   120603639.122                                  
  20495110.142   107702535.211                                  
  22313934.610   117260510.533                                  
  24554818.735   129036451.395                                  
  22349213.714   119343535.063                                  
  21192636.380   113406128.647                                  
  20010406.321   106816909.373                                  
  22007402.390   117807403.080                                  
  23737327.351   126889611.225                                  
  23506204.997   125610010.547                                  
  23350872.901                                                  
  24345758.880   127937767.038                                  
  25365858.124   133298462.8412                                 
  21136494.930   112907352.230                                  
  21050872.913   112331518.139                                  
 16  9 24 10 40 14.0010000  0 18G10G16G18G26G27G 8G21R13R21R22R 7R 5
                                R11R23G 7G30R12R 6
  21354778.436   112220124.691                                  
  21194461.332   111377640.939                                  
  22368252.357   117545956.745                                  
  22950802.713   120607287.070                                  
  20495058.489   107702264.164                                  
  22313518.213   117258330.344                                  
  24555376.200   129039380.224                                  
  22348924.006   119341988.790                                  
  21193078.359   113408495.116                                  
  20010324.130   106816469.405                                  
  22006760.781   117803968.009                                  
  23737974.196   126893068.753                                  
  23507078.520   125614675.903                                  
  23350379.583   124908829.3553                                 
  24345843.862   127938213.417                                  
  25365694.022   133297565.2312                                 
  21136890.142   112909466.739                                  
  21050846.389   112331377.273                                  
 16  9 24 10 40 15.0010000  0 17G10G16G18G26G27G 8G21R13R21R22R 7R 5
                                R11R23G 7R12R 6
  21354600.863   112219191.626                                  
  21194901.636   111379954.306                                  
  22368539.378   117547464.905                                  
  22951496.185   120610932.882                                  
  20495006.697   107701991.047                                  
  22313107.051   117256147.777                                  
  24555933.490   129042306.613                                  
  22348634.158   119340440.841                                  
  21193519.989   113410859.306                                  
  20010241.556   106816027.269                                  
  22006119.067   117800530.834                                  
  23738620.762   126896524.326                                  
  23507950.787   125619338.880                                  
  23349885.253                                                  
  24345928.251   127938657.992                                  
  21137285.704   112911579.545                                  
  21050819.411   112331234.804                                  
 16  9 24 10 40 16.0010000  0 17G10G16G18G26G27G 8G21R13R21R22R 7R 5
                                R11R23G 7R12R 6
  21354423.325   112218257.256                                  
  21195341.346   111382266.293                                  
  22368826.364   117548971.633                                  
  22952189.237   120614577.039                                  
  20494954.381   107701716.359                                  
  22312693.307   117253963.529                                  
  24556490.501   129045231.114                                  
  22348343.891   119338891.731                                  
  21193961.201   113413221.756                                  
  20010158.667   106815583.480                                  
  22005477.213   117797092.094                                  
  23739267.013   126899978.474                                  
  23508823.088   125623999.966                                  
  23349393.017                                                  
  24346012.327   127939101.156                                  
  21137683.185   112913691.139                                  
  21050792.886   112331091.309                                  
 16  9 24 10 40 17.0010000  0 17G10G16G18G26G27G 8G21R13R21R22R 7R 5
                                R11R23G 7R12R 6
  21354245.228   112217321.101                                  
  21195780.952   111384576.414                                  
  22369112.234   117550476.474                                  
  22952881.802   120618219.071                                  
  20494901.577   107701439.640                                  
  22312278.759   117251777.031                                  
  24557046.954   129048153.252                                  
  22348053.100   119337341.005                                  
  21194402.098   113415582.012                                  
  20010075.290   106815137.570                                  
  22004835.080   117793651.333                                  
  23739912.776   126903430.707                                  
  23509694.901   125628658.662                                  
  23348895.302                                                  
  24346095.913   127939542.530                                  
  21138080.561                                                  
  21050765.838   112330946.257                                  
 16  9 24 10 40 18.0010000  0 17G10G16G18G26G27G 8G21R13R21R22R 7R 5
                                R11R23G 7R12R 6
  21354067.096   112216383.106                                  
  21196219.930   111386884.598                                  
  22369398.068   117551979.337                                  
  22953574.366   120621858.923                                  
  20494848.493   107701160.810                                  
  22311863.130   117249588.262                                  
  24557602.708   129051072.916                                  
  22347762.554   119335788.563                                  
  21194842.541   113417939.946                                  
  20009991.599   106814689.442                                  
  22004192.074   117790208.479                                  
  23740558.434   126906880.976                                  
  23510565.807   125633314.847                                  
  23348396.331                                                  
  24346179.535   127939982.016                                  
  21138476.332                                                  
  21050738.442   112330799.602                                  
 16  9 24 10 40 19.0010000  0 17G10G16G18G26G27G 8G21R13R21R22R 7R 5
                                R11R23G 7R12R 6
  21353888.510   112215443.858                                  
  21196658.942   111389191.442                                  
  22369683.798   117553480.827                                  
  22954266.511   120625497.173                                  
  20494795.270   107700880.469                                  
  22311444.080   117247397.768                                  
  24558158.253   129053990.744                                  
  22347471.659   119334235.046                                  
  21195282.845   113420296.130                                  
  20009907.419   106814239.715                                  
  22003548.545   117786764.119                                  
  23741203.917   126910329.921                                  
  23511436.852   125637969.203                                  
  23347900.430                                                  
  24346262.807   127940420.229                                  
  21138872.592                                                  
  21050710.870   112330651.936                                  
 16  9 24 10 40 20.0010000  0 17G10G16G18G26G27G 8G21R13R21R22R 7R 5
                                R11R23G 7R12R 6
  21353709.646   112214504.026                                  
  21197097.676   111391497.617                                  
  22369969.074   117554981.622                                  
  22954958.517   120629134.496                                  
  20494741.593   107700599.285                                  
  22311026.985   117245206.215                                  
  24558713.449   129056907.382                                  
  22347180.903   119332681.107                                  
  21195723.254   113422651.300                                  
  20009822.820   106813789.064                                  
  22002905.120   117783318.943                                  
  23741848.982   126913778.183                                  
  23512307.687   125642622.406                                  
  23347405.019                                                  
  24346346.184   127940857.817                                  
  21139269.096                                                  
  21050682.810   112330503.913                                  
 16  9 24 10 40 21.0010000  0 17G10G16G18G26G27G 8G21R13R21R22R 7R 5
                                R11R23G 7R12R 6
  21353530.990   112213564.165                                  
  21197536.374   111393803.688                                  
  22370254.734   117556482.273                                  
  22955650.488   120632771.433                                  
  20494688.056   107700317.833                                  
  22310610.798   117243014.182                                  
  24559268.401   129059823.447                                  
  22346889.904   119331127.331                                  
  21196163.593   113425006.060                                  
  20009738.256   106813338.056                                  
  22002261.207   117779873.531                                  
  23742494.047   126917226.405                                  
  23513178.035   125647274.987                                  
  23346910.026   124890266.1592                                 
  24346429.352   127941295.336                                  
  21139664.099                                                  
  21050655.483   112330356.137                                  
 16  9 24 10 40 22.0010000  0 17G10G16G18G26G27G 8G21R13R21R22R 7R 5
                                R11R23G 7R12R 6
  21353352.160   112212623.052                                  
  21197975.038   111396108.419                                  
  22370540.080   117557981.560                                  
  22956341.935   120636406.830                                  
  20494634.344   107700034.865                                  
  22310189.794   117240820.533                                  
  24559822.934   129062737.600                                  
  22346598.729   119329572.475                                  
  21196603.373   113427359.161                                  
  20009653.204   106812885.449                                  
  22001617.294   117776426.606                                  
  23743138.553   126920673.211                                  
  23514048.137   125651925.812                                  
  23346418.000   124887608.9102                                 
  24346512.520   127941731.594                                  
  21140057.985                                                  
  21050627.912   112330207.348                                  
 16  9 24 10 40 23.0010000  0 17G10G16G18G26G27G 8G21R13R21R22R 7R 5
                                R11R23G 7R12R 6
  21353173.051   112211680.447                                  
  21198413.352   111398411.582                                  
  22370825.252   117559479.239                                  
  22957033.034   120640040.362                                  
  20494580.214   107699750.156                                  
  22309772.699   117238624.858                                  
  24560377.118   129065649.674                                  
  22346307.485   119328016.286                                  
  21197042.909   113429710.321                                  
  20009567.907   106812431.009                                  
  22000973.311   117772977.953                                  
  23743782.885   126924118.424                                  
  23514917.996   125656574.455                                  
  23345926.776   124884949.7032                                 
  24346595.583   127942166.322                                  
  21140452.325                                                  
  21050599.957   112330057.307                                  
 16  9 24 10 40 24.0010000  0 17G10G16G18G26G27G 8G21R13R21R22R 7R 5
                                R11R23G 7R12R 6
  21352993.768   112210737.171                                  
  21198851.353   111400713.969                                  
  22371110.109   117560976.098                                  
  22957724.586   120643672.877                                  
  20494526.083   107699464.491                                  
  22309353.754   117236428.066                                  
  24560930.988   129068560.495                                  
  22346015.927   119326459.573                                  
  21197482.375   113432060.335                                  
  20009482.366   106811975.541                                  
  22000329.503   117769528.371                                  
  23744426.728   126927562.878                                  
  23515787.156   125661221.818                                  
  23345435.692   124882289.2012                                 
  24346678.506   127942600.310                                  
  21140846.700                                                  
  21050571.827   112329906.820                                  
 16  9 24 10 40 25.0010000  0 17G10G16G18G26G27G 8G21R13R21R22R 7R 5
                                R11R23G 7R12R 6
  21352814.275   112209794.131                                  
  21199289.179   111403016.516                                  
  22371395.071   117562473.077                                  
  22958415.580   120647305.274                                  
  20494471.569   107699178.820                                  
  22308941.370   117234231.071                                  
  24561484.718   129071470.963                                  
  22345724.648   119324903.291                                  
  21197921.423   113434410.160                                  
  20009397.175   106811520.009                                  
  21999685.765   117766078.815                                  
  23745070.886   126931007.420                                  
  23516656.666   125665868.881                                  
  23344939.757   124879628.3422                                 
  24346761.709   127943034.511                                  
  21141242.785                                                  
  21050543.941   112329756.853                                  
 16  9 24 10 40 26.0010000  0 18G10G16G18G26G27G 8G21R13R21R22R 7R 5
                                R11R23G 7G11R12R 6
  21352634.782   112208851.930                                  
  21199727.423   111405319.842                                  
  22371680.208   117563970.798                                  
  22959106.469   120650938.208                                  
  20494417.019   107698893.732                                  
  22308520.366   117232034.457                                  
  24562038.623   129074381.633                                  
  22345433.264   119323350.5593                                 
  21198360.854   113436760.442                                  
  20009312.122   106811065.019                                  
  21999041.503   117762629.884                                  
  23745715.078   126934452.803                                  
  23517526.280   125670516.173                                  
  23344444.380   124876967.9072                                 
  24346844.527   127943469.564                                  
  24875711.348                                                  
  21141636.567                                                  
  21050515.986   112329608.027                                  
 16  9 24 10 40 27.0010000  0 17G10G16G18G26G27G 8G21R13R21R22R 7R 5
                                R11R23G 7R12R 6
  21352455.708   112207910.826                                  
  21200166.017   111407624.152                                  
  22371965.309   117565469.487                                  
  22959797.497   120654571.884                                  
  20494363.063   107698609.470                                  
  22308106.098   117229838.446                                  
  24562592.807   129077292.802                                  
  22345142.264   119321796.5912                                 
  21198800.251   113439111.410                                  
  20009227.140   106810610.813                                  
  21998397.415   117759181.806                                  
  23746354.384   126937899.113                                  
  23518395.754   125675164.091                                  
  23343949.457   124874307.9072                                 
  24346927.800   127943905.616                                  
  21142031.116                                                  
  21050488.450   112329460.580                                  
 16  9 24 10 40 28.0010000  0 17G10G16G18G26G27G 8G21R13R21R22R 7R 5
                                R11R23G 7R12R 6
  21352276.773   112206971.481                                  
  21200604.716   111409930.138                                  
  22372250.900   117566969.800                                  
  22960489.119   120658206.968                                  
  20494308.898   107698326.711                                  
  22307687.363   117227643.775                                  
  24563146.887   129080205.176                                  
  22344851.369   119320244.5702                                 
  21199239.717   113441463.731                                  
  20009142.297   106810158.060                                  
  21997753.676   117755735.328                                  
  23746998.576   126941347.160                                  
  23519265.438   125679813.239                                  
  23343451.463   124871649.190                                  
  24347011.212   127944343.385                                  
  21142427.271                                                  
  21050461.158   112329315.201                                  
 16  9 24 10 40 29.0010000  0 17G10G16G18G26G27G 8G21R13R21R22R 7R 5
                                R11R23G 7R12R 6
  21352098.223   112206033.807                                  
  21201043.938   111412237.740                                  
  22372536.560   117568471.726                                  
  22961181.265   120661843.421                                  
  20494255.256   107698045.396                                  
  22307265.207   117225450.297                                  
  24563701.489   129083118.604                                  
  22344561.242   119318694.4812                                 
  21199679.567   113443817.417                                  
  20009057.803   106809706.714                                  
  21997109.938   117752290.329                                  
  23747641.058   126944796.901                                  
  23520135.611   125684463.382                                  
  23342949.245   124868991.579                                  
  24347095.008   127944782.833                                  
  21142822.134                                                  
  21050434.215   112329171.799                                  
 16  9 24 10 40 30.0010000  0 17G10G16G18G26G27G 8G21R13R21R22R 7R 5
                                R11R23G 7R12R 6
  21351920.370   112205097.951                                  
  21201483.509   111414547.077                                  
  22372822.464   117569975.316                                  
  22961873.271   120665481.342                                  
  20494202.207   107697765.628                                  
  22306846.262   117223258.213                                  
  24564256.441   129086033.266                                  
  22344271.254   119317145.3793                                 
  21200119.836   113446172.490                                  
  20008973.728   106809256.850                                  
  21996466.513   117748846.892                                  
  23748284.553   126948248.377                                  
  23521005.679   125689114.873                                  
  23342447.517   124866335.176                                  
  24347178.943   127945224.023                                  
  21143216.614                                                  
  21050408.039   112329030.504                                  
 16  9 24 10 40 31.0010000  0 17G10G16G18G26G27G 8G21R13R21R22R 7R 5
                                R11R23G 7R12R 6
  21351742.692   112204163.574                                  
  21201922.731   111416857.764                                  
  22373109.171   117571480.249                                  
  22962566.009   120669120.314                                  
  20494149.368   107697487.071                                  
  22306433.669   117221067.168                                  
  24564811.498   129088948.775                                  
  22343981.825   119315598.9532                                 
  21200560.245   113448528.594                                  
  20008890.071   106808808.141                                  
  21995823.438   117745404.789                                  
  23748935.515   126951701.234                                  
  23521876.305   125693767.320                                  
  23341946.765   124863679.740                                  
  24347263.228   127945666.708                                  
  21143611.513                                                  
  21050381.620   112328890.944                                  
 16  9 24 10 40 32.0010000  0 17G10G16G18G26G27G 8G21R13R21R22R 7R 5
                                R11R23G 7R12R 6
  21351565.398   112203230.107                                  
  21202362.197   111419169.278                                  
  22373395.774   117572985.989                                  
  22963257.945   120672759.934                                  
  20494096.668   107697209.156                                  
  22306016.051   117218876.540                                  
  24565366.380   129091864.598                                  
  22343692.640   119314053.6232                                 
  21201000.584   113450885.247                                  
  20008806.310   106808360.037                                  
  21995180.223   117741963.422                                  
  23749584.629   126955155.005                                  
  23522747.245   125698420.080                                  
  23341450.760   124861024.577                                  
  24347347.862   127946110.212                                  
  21144006.341                                                  
  21050355.584   112328752.582                                  
 16  9 24 10 40 33.0010000  0 17G10G16G18G26G27G 8G21R13R21R22R 7R 5
                                R11R23G 7R12R 6
  21351387.789   112202297.151                                  
  21202802.222   111421481.237                                  
  22373682.236   117574492.107                                  
  22963950.161   120676399.764                                  
  20494043.620   107696931.518                                  
  22305597.769   117216686.064                                  
  24565921.646   129094780.373                                  
  22343403.490   119312509.0232                                 
  21201440.922   113453242.025                                  
  20008722.479   106807912.137                                  
  21994536.868   117738522.394                                  
  23750229.833   126958609.132                                  
  23523618.081   125703072.893                                  
  23340954.546   124858369.445                                  
  24347432.739   127946554.209                                  
  21144401.100                                                  
  21050330.072   112328615.046                                  
 16  9 24 10 40 34.0010000  0 17G10G16G18G26G27G 8G21R13R21R22R 7R 5
                                R11R23G 7R12R 6
  21351209.937   112201363.810                                  
  21203242.002   111423792.756                                  
  22373968.839   117575997.740                                  
  22964641.748   120680038.721                                  
  20493990.815   107696653.244                                  
  22305177.428   117214494.743                                  
  24566476.667   129097695.140                                  
  22343114.444   119310964.2272                                 
  21201881.471   113455597.990                                  
  20008638.648   106807463.544                                  
  21993893.863   117735080.739                                  
  23750872.769   126962062.828                                  
  23524488.812   125707724.622                                  
  23340462.415   124855713.320                                  
  24347517.338   127946997.828                                  
  21144796.976                                                  
  21050304.525   112328477.384                                  
 16  9 24 10 40 35.0010000  0 17G10G16G18G26G27G 8G21R13R21R22R 7R 5
                                R11R23G 7R12R 6
  21351032.398   112200430.986                                  
  21203681.992   111426104.645                                  
  22374255.790   117577503.764                                  
  22965329.461   120683677.940                                  
  20493937.766   107696375.183                                  
  22304760.507   117212303.320                                  
  24567031.549   129100609.792                                  
  22342825.608   119309420.1262                                 
  21202321.705   113457953.989                                  
  20008554.469   106807015.096                                  
  21993250.683   117731639.391                                  
  23751520.765   126965516.951                                  
  23525359.264   125712376.332                                  
  23339965.747   124853057.131                                  
  24347602.041   127947441.858                                  
  21145192.502                                                  
  21050279.152   112328340.435                                  
 16  9 24 10 40 36.0010000  0 17G10G16G18G26G27G 8G21R13R21R22R 7R 5
                                R11R23G 7R12R 6
  21350854.930   112199497.846                                  
  21204121.842   111428416.163                                  
  22374542.113   117579009.346                                  
  22966023.281   120687316.500                                  
  20493884.997   107696096.590                                  
  22304345.157   117210111.212                                  
  24567586.257   129103523.568                                  
  22342536.528   119307875.8982                                 
  21202761.345   113460309.268                                  
  20008470.254   106806566.023                                  
  21992606.874   117728197.497                                  
  23752166.877   126968970.646                                  
  23526229.995   125717027.122                                  
  23339465.972   124850400.174                                  
  24347686.780   127947885.561                                  
  21145585.621                                                  
  21050253.675   112328203.450                                  
 16  9 24 10 40 37.0010000  0 17G10G16G18G26G27G 8G21R13R21R22R 7R 5
                                R11R23G 7R12R 6
  21350677.077   112198563.989                                  
  21204561.378   111430726.874                                  
  22374828.053   117580514.072                                  
  22966715.287   120690954.033                                  
  20493831.774   107695817.000                                  
  22303928.237   117207917.983                                  
  24568140.755   129106436.030                                  
  22342246.959   119306331.1412                                 
  21203201.370   113462663.428                                  
  20008385.865   106806115.880                                  
  21991963.869   117724754.617                                  
  23752805.974   126972423.536                                  
  23527099.818   125721676.622                                  
  23338965.570   124847741.835                                  
  24347771.413   127948328.534                                  
  21145981.671                                                  
  21050228.093   112328066.020                                  
 16  9 24 10 40 38.0010000  0 17G10G16G18G26G27G 8G21R13R21R22R 7R 5
                                R11R23G 7R12R 6
  21350499.154   112197630.854                                  
  21205001.263   111433038.219                                  
  22375114.725   117582019.428                                  
  22967409.980   120694591.880                                  
  20493778.900   107695537.889                                  
  22303508.419   117205724.903                                  
  24568694.904   129109348.622                                  
  22341957.914   119304786.8121                                 
  21203641.430   113465017.896                                  
  20008301.615   106805666.147                                  
  21991321.247   117721312.233                                  
  23753451.527   126975877.018                                  
  23527967.932   125726326.238                                  
  23338467.017   124845083.638                                  
  24347856.291   127948772.193                                  
  21146376.674                                                  
  21050202.476   112327929.574                                  
 16  9 24 10 40 39.0010000  0 17G10G16G18G26G27G 8G21R13R21R22R 7R 5
                                R11R23G 7R12R 6
  21350321.686   112196698.644                                  
  21205441.183   111435350.408                                  
  22375401.327   117583525.586                                  
  22968104.010   120698230.353                                  
  20493726.060   107695259.438                                  
  22303093.628   117203532.323                                  
  24569248.983   129112261.508                                  
  22341669.322   119303244.106                                  
  21204081.210   113467372.870                                  
  20008217.086   106805217.012                                  
  21990677.823   117717870.560                                  
  23754102.944   126979331.451                                  
  23528830.356                                                  
  23337969.546   124842425.764                                  
  24347941.274   127949216.751                                  
  21146771.852                                                  
  21050177.138   112327794.330                                  
 16  9 24 10 40 40.0010000  0 17G10G16G18G26G27G 8G21R13R21R22R 7R 5
                                R11R23G 7R12R 6
  21350144.357   112195766.490                                  
  21205881.103   111437662.560                                  
  22375687.790   117585031.677                                  
  22968793.887   120701868.498                                  
  20493672.907   107694980.798                                  
  22302675.590   117201339.400                                  
  24569803.202   129115173.860                                  
  22341380.346   119301701.633                                  
  21204520.990   113469727.461                                  
  20008132.836   106804767.615                                  
  21990035.061   117714428.765                                  
  23754745.251   126982785.816                                  
  23529708.486   125735625.746                                  
  23337475.112   124839767.427                                  
  24348026.466   127949661.317                                  
  21147167.972   112964363.9533                                 
  21050151.905   112327659.404                                  
 16  9 24 10 40 41.0010000  0 17G10G16G18G26G27G 8G21R13R21R22R 7R 5
                                R11R23G 7R12R 6
  21349966.469   112194833.208                                  
  21206321.058   111439973.504                                  
  22375974.148   117586536.530                                  
  22969486.801   120705505.214                                  
  20493619.719   107694700.776                                  
  22302260.345   117199144.850                                  
  24570357.177   129118084.489                                  
  22341091.371   119300158.212                                  
  21204960.666   113472080.523                                  
  20008048.063   106804316.751                                  
  21989391.776   117710985.623                                  
  23755392.654   126986238.956                                  
  23530579.496   125740273.508                                  
  23336972.755   124837107.365                                  
  24348110.890   127950104.724                                  
  21147563.847   112966481.2692                                 
  21050126.358   112327523.601                                  
 16  9 24 10 40 42.0010000  0 17G10G16G18G26G27G 8G21R13R21R22R 7R 5
                                R11R23G 7R12R 6
  21349788.616   112193899.071                                  
  21206760.769   111442283.505                                  
  22376260.401   117588040.392                                  
  22970178.597   120709140.755                                  
  20493566.182   107694419.627                                  
  22301842.936   117196949.026                                  
  24570910.698   129120993.673                                  
  22340802.255   119298614.090                                  
  21205399.888   113474432.286                                  
  20007963.116   106803864.694                                  
  21988748.736   117707541.409                                  
  23756037.161   126989691.146                                  
  23531449.809   125744932.2261                                 
  23336471.236   124834445.884                                  
  24348195.105   127950547.216                                  
  21147960.107   112968597.9252                                 
  21050100.601   112327387.189                                  
 16  9 24 10 40 43.0010000  0 17G10G16G18G26G27G 8G21R13R21R22R 7R 5
                                R11R23G 7R12R 6
  21349610.554   112192963.982                                  
  21207199.991   111444592.456                                  
  22376545.887   117589543.190                                  
  22970870.219   120712774.945                                  
  20493512.644   107694137.281                                  
  22301426.259   117194751.769                                  
  24571463.870   129123901.289                                  
  22340513.036   119297069.174                                  
  21205838.901   113476782.663                                  
  20007878.482   106803411.350                                  
  21988105.556   117704095.954                                  
  23756682.400   126993142.213                                  
  23532317.782   125749576.930                                  
  23335980.082   124831782.842                                  
  24348279.494   127950988.742                                  
  21148355.284   112970713.8292                                 
  21050074.635   112327250.072                                  
 16  9 24 10 40 44.0010000  0 17G10G16G18G26G27G 8G21R13R21R22R 7R 5
                                R11R23G 7R12R 6
  21349432.807   112192028.323                                  
  21207639.387   111446900.761                                  
  22376831.791   117591045.304                                  
  22971561.841   120716408.286                                  
  20493458.863   107693854.095                                  
  22301010.421   117192553.518                                  
  24572016.413   129126807.721                                  
  22340223.676   119295523.867                                  
  21206277.564   113479132.026                                  
  20007793.430   106802957.109                                  
  21987461.713   117700649.659                                  
  23757327.220   126996550.1891                                 
  23533185.861   125754220.6672                                 
  23335476.294   124829118.720                                  
  24348363.080   127951429.671                                  
  21148755.488   112972829.2352                                 
  21050048.704   112327112.643                                  
 16  9 24 10 40 45.0010000  0 17G10G16G18G26G27G 8G21R13R21R22R 7R 5
                                R11R23G 7R12R 6
  21349254.779   112191092.360                                  
  21208078.679   111449208.676                                  
  22377117.382   117592546.983                                  
  22972253.149   120720040.935                                  
  20493405.151   107693570.359                                  
  22300592.209   117190354.517                                  
  24572569.062   129129713.324                                  
  22339934.212   119293978.407                                  
  21206716.542   113481480.630                                  
  20007708.133   106802502.239                                  
  21986818.218   117697202.857                                  
  23757971.762   127000000.311                                  
  23534054.777   125758863.3212                                 
  23334978.405   124826453.583                                  
  24348446.981   127951870.257                                  
  21149155.202   112974944.4622                                 
  21050022.843   112326975.196                                  
 16  9 24 10 40 46.0010000  0 17G10G16G18G26G27G 8G21R13R21R22R 7R 5
                                R11R23G 7R12R 6
  21349076.857   112190155.642                                  
  21208517.552   111451515.721                                  
  22377403.321   117594047.769                                  
  22972944.387   120723672.466                                  
  20493350.846   107693285.585                                  
  22300174.555   117188154.273                                  
  24573121.675   129132617.506                                  
  22339644.992   119292432.366                                  
  21207155.275   113483828.023                                  
  20007622.801   106802046.248                                  
  21986174.445   117693755.045                                  
  23758617.175   127003449.5162                                 
  23534921.180   125763504.7402                                 
  23334485.855   124823787.100                                  
  24348530.358   127952310.021                                  
  21149552.544   112977059.1652                                 
  21049997.052   112326837.182                                  
 16  9 24 10 40 47.0010000  0 17G10G16G18G26G27G 8G21R13R21R22R 7R 5
                                R11R23G 7R12R 6
  21348898.376   112189218.223                                  
  21208956.983   111453822.012                                  
  22377688.911   117595547.770                                  
  22973635.625   120727302.968                                  
  20493296.645   107692999.877                                  
  22299755.296   117185952.859                                  
  24573674.045   129135520.414                                  
  22339355.598   119290885.795                                  
  21207593.625   113486174.340                                  
  20007537.435   106801589.253                                  
  21985530.288   117690306.339                                  
  23759263.427   127006897.8852                                 
  23535788.561                                                  
  23333990.478   124821119.419                                  
  24348613.351   127952749.078                                  
  21149949.048   112979173.3102                                 
  21049971.505   112326698.779                                  
 16  9 24 10 40 48.0010000  0 17G10G16G18G26G27G 8G21R13R21R22R 7R 5
                                R11R23G 7R12R 6
  21348719.930   112188281.130                                  
  21209395.926   111456128.532                                  
  22377974.327   117597047.964                                  
  22974326.409   120730933.488                                  
  20493242.445   107692714.229                                  
  22299336.980   117183751.364                                  
  24574226.239   129138423.032                                  
  22339066.029   119289339.718                                  
  21208032.219   113488520.572                                  
  20007451.964   106801132.227                                  
  21984885.816   117686857.763                                  
  23759908.108   127010346.5582                                 
  23536655.697                                                  
  23333486.830   124818451.402                                  
  24348697.252   127953188.418                                  
  21150342.027   112981287.5121                                 
  21049945.434   112326560.956                                  
 16  9 24 10 40 49.0010000  0 17G10G16G18G26G27G 8G21R13R21R22R 7R 5
                                R11R23G 7R12R 6
  21348542.078   112187344.866                                  
  21209835.392   111458435.789                                  
  22378259.882   117598548.856                                  
  22975017.612   120734564.443                                  
  20493188.384   107692429.155                                  
  22298918.942   117181550.223                                  
  24574778.399   129141325.902                                  
  22338776.495   119287794.664                                  
  21208470.743   113490867.234                                  
  20007366.283   106800675.699                                  
  21984241.624   117683409.832                                  
  23760552.719   127013795.9592                                 
  23537524.229                                                  
  23332981.332   124815783.751                                  
  24348780.908   127953628.559                                  
  21150740.939   112983403.215                                  
  21049919.852   112326424.226                                  
 16  9 24 10 40 50.0010000  0 17G10G16G18G26G27G 8G21R13R21R22R 7R 5
                                R11R23G 7R12R 6
  21348364.260   112186409.802                                  
  21210274.754   111460744.153                                  
  22378545.612   117600050.828                                  
  22975709.025   120738196.280                                  
  20493134.498   107692145.021                                  
  22298501.987   117179349.845                                  
  24575330.733   129144229.362                                  
  22338487.240   119286259.5143                                 
  21208909.232   113493214.684                                  
  20007281.196   106800220.060                                  
  21983598.060   117679962.876                                  
  23761197.958   127017246.4662                                 
  23538395.938                                                  
  23332488.014   124813116.724                                  
  24348864.600   127954069.883                                  
  21151137.861   112985520.288                                  
  21049894.828   112326288.972                                  
 16  9 24 10 40 51.0010000  0 17G10G16G18G26G27G 8G21R13R21R22R 7R 5
                                R11R23G 7R12R 6
  21348186.721   112185476.129                                  
  21210714.360   111463053.828                                  
  22378831.726   117601554.088                                  
  22976400.333   120741829.209                                  
  20493080.682   107691862.024                                  
  22298083.216   117177150.321                                  
  24575883.452   129147133.631                                  
  22338198.509   119284717.4572                                 
  21209348.279   113495563.123                                  
  20007195.795   106799765.514                                  
  21982954.391   117676517.099                                  
  23761841.627   127020698.3052                                 
  23539263.981                                                  
  23331986.949                                                  
  24348948.919   127954512.553                                  
  21151528.048   112987638.947                                  
  21049870.049   112326155.395                                  
 16  9 24 10 40 52.0010000  0 17G10G16G18G26G27G 8G21R13R21R22R 7R 5
                                R11R23G 7R12R 6
  21348009.462   112184544.406                                  
  21211154.175   111465365.358                                  
  22379118.607   117603059.160                                  
  22977091.675   120745463.648                                  
  20493027.214   107691580.711                                  
  22297665.005   117174952.388                                  
  24576436.484   129150039.205                                  
  22337910.126   119283177.5632                                 
  21209787.396   113497913.115                                  
  20007111.161   106799312.622                                  
  21982311.595   117673073.051                                  
  23762487.983   127024151.4621                                 
  23540129.931                                                  
  23331481.381                                                  
  24349033.553   127954957.092                                  
  21151923.365   112989759.766                                  
  21049845.688   112326024.055                                  
 16  9 24 10 40 53.0010000  0 17G10G16G18G26G27G 8G21R13R21R22R 7R 5
                                R11R23G 7R12R 6
  21347832.761   112183614.790                                  
  21211594.444   111467678.908                                  
  22379405.419   117604566.213                                  
  22977783.786   120749099.906                                  
  20492974.026   107691301.253                                  
  22297247.979   117172756.101                                  
  24576989.865   129152946.312                                  
  22337622.267   119281640.0012                                 
  21210226.758   113500264.858                                  
  20007026.737   106798861.552                                  
  21981668.729   117669630.914                                  
  23763135.665   127027607.290                                  
  23540995.950                                                  
  23330974.627                                                  
  24349118.396   127955403.710                                  
  21152328.874   112991882.965                                  
  21049821.712   112325895.121                                  
 16  9 24 10 40 54.0010000  0 17G10G16G18G26G27G 8G21R13R21R22R 7R 5
                                R11R23G 7R12R 6
  21347656.130   112182687.189                                  
  21212035.027   111469994.376                                  
  22379692.789   117606075.166                                  
  22978476.594   120752737.815                                  
  20492921.152   107691023.547                                  
  22296832.420   117170561.303                                  
  24577543.561   129155854.827                                  
  22337334.548   119280104.6632                                 
  21210666.748   113502618.224                                  
  20006942.592   106798412.200                                  
  21981026.875   117666190.636                                  
  23763784.220   127031065.052                                  
  23541865.355                                                  
  23330467.733                                                  
  24349203.762   127955852.363                                  
  21152722.027   112994008.391                                  
  21049797.945   112325768.492                                  
 16  9 24 10 40 55.0010000  0 17G10G16G18G26G27G 8G21R13R21R22R 7R 5
                                R11R23G 7R12R 6
  21347480.022   112181761.382                                  
  21212475.924   111472311.569                                  
  22379980.194   117607585.793                                  
  22979169.089   120756377.184                                  
  20492868.487   107690747.397                                  
  22296413.894   117168367.916                                  
  24578096.942   129158764.565                                  
  22337047.213   119278571.3362                                 
  21211107.156   113504973.023                                  
  20006858.517   106797964.363                                  
  21980384.637   117662752.003                                  
  23764429.319   127034524.525                                  
  23542737.028                                                  
  23329962.968                                                  
  24349289.547   127956302.716                                  
  21153120.939   112996135.752                                  
  21049774.492   112325643.962                                  
 16  9 24 10 40 56.0010000  0 17G10G16G18G26G27G 8G21R13R21R22R 7R 5
                                R11R23G 7R12R 6
  21347304.124   112180837.423                                  
  21212917.659   111474630.504                                  
  22380268.193   117609098.155                                  
  22979862.421   120760018.040                                  
  20492816.276   107690472.816                                  
  22295998.020   117166175.880                                  
  24578650.951   129161675.520                                  
  22336760.331   119277037.0693                                 
  21211547.914   113507329.249                                  
  20006774.826   106797518.061                                  
  21979742.399   117659315.018                                  
  23765077.106   127037985.785                                  
  23543605.770                                                  
  23329461.518                                                  
  24349375.716   127956754.896                                  
  21153516.466   112998265.198                                  
  21049751.771   112325521.578                                  
 16  9 24 10 40 57.0010000  0 17G10G16G18G26G27G 8G21R13R21R22R 7R 5
                                R11R23G 7R12R 6
  21347128.680   112179915.016                                  
  21213359.289   111476950.915                                  
  22380556.121   117610611.940                                  
  22980555.858   120763660.117                                  
  20492764.170   107690199.541                                  
  22295581.518   117163985.051                                  
  24579204.891   129164587.450                                  
  22336473.834   119275507.5682                                 
  21211988.916   113509686.630                                  
  20006691.309   106797073.009                                  
  21979100.406   117655879.391                                  
  23765723.079   127041448.603                                  
  23544474.651                                                  
  23328960.034   124794252.7783                                 
  24349462.130   127957208.602                                  
  21153914.365   113000396.443                                  
  21049728.981   112325401.049                                  
 16  9 24 10 40 58.0010000  0 17G10G16G18G26G27G 8G21R13R21R22R 7R 5
                                R11R23G 7R12R 6
  21346953.654   112178994.417                                  
  21213800.919   111479273.046                                  
  22380844.469   117612127.412                                  
  22981248.980   120767303.671                                  
  20492712.203   107689927.816                                  
  22295166.692   117161795.466                                  
  24579758.901   129167500.557                                  
  22336187.545   119273980.0692                                 
  21212429.988   113512045.444                                  
  20006608.176   106796629.465                                  
  21978459.040   117652445.390                                  
  23766372.506   127044913.170                                  
  23545344.370                                                  
  23328464.448   124791595.9342                                 
  24349548.788   127957664.073                                  
  21154316.872   113002529.656                                  
  21049706.540   112325282.617                                  
 16  9 24 10 40 59.0010000  0 18G10G16G18G26G27G 8G21R13R21R22R 7R 5
                                R11R23G 7G11R12R 6
  21346778.663   112178075.589                                  
  21214243.387   111481596.847                                  
  22381133.340   117613644.519                                  
  22981942.836   120770948.628                                  
  20492660.515   107689657.592                                  
  22294752.110   117159607.195                                  
  24580313.224   129170414.837                                  
  22335901.781   119272454.5452                                 
  21212871.548   113514405.635                                  
  20006525.322   106796187.386                                  
  21977817.780   117649012.994                                  
  23767023.783   127048379.425                                  
  23546219.254                                                  
  23327982.333   124788940.2152                                 
  24349635.585   127958121.256                                  
  24856142.325                                                  
  21154711.701                                                  
  21049684.344   112325166.228                                  
 16  9 24 10 41  0.0010000  0 18G10G16G18G26G27G 8G21R13R21R22R 7R 5
                                R11R23G 7G11R12R 6
  21346604.336   112177158.919                                  
  21214685.820   111483922.733                                  
  22381422.490   117615163.687                                  
  22982636.901   120774595.431                                  
  20492609.316   107689389.288                                  
  22294336.236   117157420.652                                  
  24580867.618   129173330.711                                  
  22335616.330   119270928.3953                                 
  21213313.038   113516767.628                                  
  20006442.573   106795747.187                                  
  21977177.043   117645582.614                                  
  23767670.348   127051847.729                                  
  23547090.439                                                  
  23327496.414   124786286.1882                                 
  24349723.220   127958580.592                                  
  24855549.855                                                  
  21155110.543   113006791.9373                                 
  21049662.705   112325052.311                                  
 16  9 24 10 41  1.0010000  0 18G10G16G18G26G27G 8G21R13R21R22R 7R 5
                                R11R23G 7G11R12R 6
  21346430.497   112176244.257                                  
  21215128.706   111486250.522                                  
  22381711.954   117616684.726                                  
  22983331.559   120778243.859                                  
  20492558.327   107689122.713                                  
  22293920.676   117155235.704                                  
  24581422.535   129176247.944                                  
  22335331.263   119269407.4612                                 
  21213754.843   113519131.199                                  
  20006360.139   106795308.686                                  
  21976536.515   117642154.039                                  
  23768322.009   127055318.054                                  
  23547959.145                                                  
  23327007.878   124783633.6372                                 
  24349810.960   127959041.908                                  
  24854958.921                                                  
  21155512.701   113008931.6582                                 
  21049641.381   112324940.685                                  
 16  9 24 10 41  2.0010000  0 18G10G16G18G26G27G 8G21R13R21R22R 7R 5
                                R11R23G 7G11R12R 6
  21346256.867   112175331.486                                  
  21215572.116   111488580.145                                  
  22382001.663   117618207.544                                  
  22984026.217   120781893.875                                  
  20492507.931   107688857.808                                  
  22293503.163   117153052.124                                  
  24581977.312   129179166.523                                  
  22335046.929   119267888.6392                                 
  21214197.311   113521496.275                                  
  20006277.913   106794871.798                                  
  21975896.302   117638727.168                                  
  23768973.007   127058790.210                                  
  23548830.889                                                  
  23326516.654   124780982.4712                                 
  24349899.328   127959505.055                                  
  24854369.278                                                  
  21155916.603   113011073.5242                                 
  21049620.930   112324831.250                                  
 16  9 24 10 41  3.0010000  0 18G10G16G18G26G27G 8G21R13R21R22R 7R 5
                                R11R23G 7G11R12R 6
  21346083.726   112174420.556                                  
  21216015.771   111490911.476                                  
  22382292.069   117619732.046                                  
  22984721.294   120785545.327                                  
  20492457.883   107688594.434                                  
  22293085.788   117150869.921                                  
  24582532.927   129182086.317                                  
  22334762.875   119266371.8562                                 
  21214639.778   113523862.803                                  
  20006196.211   106794436.409                                  
  21975256.332   117635301.894                                  
  23769621.667   127062264.059                                  
  23549703.225                                                  
  23326020.510   124778332.5052                                 
  24349987.730   127959969.997                                  
  24853775.447   130607470.8772                                 
  21156314.992   113013217.4222                                 
  21049600.932   112324723.944                                  
 16  9 24 10 41  4.0010000  0 18G10G16G18G26G27G 8G21R13R21R22R 7R 5
                                R11R23G 7G11R12R 6
  21345910.585   112173511.335                                  
  21216460.053   111493244.458                                  
  22382582.371   117621258.180                                  
  22985416.965   120789198.157                                  
  20492407.941   107688332.545                                  
  22292669.775                                                  
  24583088.821   129185007.216                                  
  22334478.995   119264855.0233                                 
  21215082.421   113526230.703                                  
  20006114.719   106794002.456                                  
  21974616.712   117631878.139                                  
  23770269.454   127065739.627                                  
  23550577.620                                                  
  23325523.946   124775683.2321                                 
  24350076.412   127960436.655                                  
  24853182.558   130604364.7562                                 
  21156718.615   113015363.3162                                 
  21049581.073   112324618.636                                  
 16  9 24 10 41  5.0010000  0 18G10G16G18G26G27G 8G21R13R21R22R 7R 5
                                R11R23G 7G11R12R 6
  21345737.479   112172604.001                                  
  21216904.441   111495579.231                                  
  22382873.092   117622786.044                                  
  22986112.775   120792852.574                                  
  20492358.382   107688072.267                                  
  22292252.471                                                  
  24583644.785   129187929.399                                  
  22334195.603   119263342.2772                                 
  21215525.412   113528600.064                                  
  20006034.029   106793570.081                                  
  21973977.406   117628456.151                                  
  23770922.231   127069216.926                                  
  23551450.201                                                  
  23325030.419   124773035.876                                  
  24350165.583   127960905.148                                  
  24852595.463                                                  
  21157116.306   113017511.1972                                 
  21049561.808   112324515.546                                  
 16  9 24 10 41  6.0010000  0 18G10G16G18G26G27G 8G21R13R21R22R 7R 5
                                R11R23G 7G11R12R 6
  21345565.140   112171698.645                                  
  21217349.316   111497915.899                                  
  22383164.371   117624315.781                                  
  22986808.794   120796508.687                                  
  20492309.068   107687813.733                                  
  22291833.770                                                  
  24584201.412   129190852.964                                  
  22333912.910   119261831.7312                                 
  21215968.438   113530970.999                                  
  20005953.549   106793139.397                                  
  21973338.309   117625035.959                                  
  23771573.159   127072696.247                                  
  23552323.061                                                  
  23324536.857   124770389.975                                  
  24350254.858   127961375.549                                  
  24852007.007   130598156.5872                                 
  21157518.568   113019661.3092                                 
  21049543.067   112324414.657                                  
 16  9 24 10 41  7.0010000  0 18G10G16G18G26G27G 8G21R13R21R22R 7R 5
                                R11R23G 7G11R12R 6
  21345393.186   112170795.169                                  
  21217794.367   111500254.330                                  
  22383455.650   117625847.276                                  
  22987511.654   120800188.9883                                 
  20492260.172   107687556.771                                  
  22291421.003                                                  
  24584758.423   129193777.795                                  
  22333630.181   119260323.2592                                 
  21216411.778   113533343.375                                  
  20005873.382   106792710.244                                  
  21972699.736   117621617.458                                  
  23772224.925   127076177.328                                  
  23553195.432   125861135.7593                                 
  23324042.912   124767745.300                                  
  24350344.797   127961847.792                                  
  24851414.258   130595054.5582                                 
  21157921.529   113021813.4952                                 
  21049524.639   112324315.942                                  
 16  9 24 10 41  8.0010000  0 18G10G16G18G26G27G 8G21R13R21R22R 7R 5
                                R11R23G 7G11R12R 6
  21345221.615   112169893.625                                  
  21218239.661   111502594.644                                  
  22383747.243   117627380.584                                  
  22988206.033   120803848.1502                                 
  20492211.347   107687301.549                                  
  22291005.897                                                  
  24585315.573   129196704.055                                  
  22333347.767   119258814.9733                                 
  21216855.293   113535717.407                                  
  20005793.251   106792282.737                                  
  21972061.232   117618200.724                                  
  23772875.434   127079660.399                                  
  23554065.640   125865785.1833                                 
  23323549.105   124765102.065                                  
  24350435.189   127962321.986                                  
  24850822.381   130591953.9242                                 
  21158330.213   113023967.3411                                 
  21049506.631   112324219.480                                  
 16  9 24 10 41  9.0010000  0 18G10G16G18G26G27G 8G21R13R21R22R 7R 5
                                R11R23G 7G11R12R 6
  21345050.394   112168994.234                                  
  21218685.480   111504937.025                                  
  22384039.220   117628915.928                                  
  22988902.436   120807509.3212                                 
  20492163.184   107687048.192                                  
  22290591.838                                                  
  24585872.445   129199631.740                                  
  22333065.911   119257311.0592                                 
  21217299.227   113538093.205                                  
  20005713.678   106791857.133                                  
  21971423.322   117614785.934                                  
  23773529.783   127083145.474                                  
  23554942.339   125870451.2332                                 
  23323055.892   124762460.482                                  
  24350526.105   127962798.256                                  
  24850232.808   130588854.9312                                 
  21158735.895   113026124.063                                  
  21049489.425   112324125.463                                  
 16  9 24 10 41 10.0010000  0 18G10G16G18G26G27G 8G21R13R21R22R 7R 5
                                R11R23G 7G11R12R 6
  21344879.661   112168097.011                                  
  21219131.856   111507281.454                                  
  22384331.616   117630453.312                                  
  22989599.887   120811172.0542                                 
  20492115.440   107686796.764                                  
  22290178.756                                                  
  24586430.154   129202561.034                                  
  22332784.718   119255809.4982                                 
  21217743.893   113540470.708                                  
  20005634.349   106791433.375                                  
  21970785.831   117611373.101                                  
  23774180.117                                                  
  23555814.082   125875118.7402                                 
  23322562.714   124759820.489                                  
  24350617.160   127963276.621                                  
  24849644.666   130585757.4642                                 
  21159138.786   113028283.064                                  
  21049472.533   112324033.922                                  
 16  9 24 10 41 11.0010000  0 18G10G16G18G26G27G 8G21R13R21R22R 7R 5
                                R11R23G 7G11R12R 6
  21344709.242   112167201.662                                  
  21219578.512   111509627.680                                  
  22384624.291   117631992.491                                  
  22990294.266   120814836.3642                                 
  20492067.976   107686546.936                                  
  22289763.302                                                  
  24586987.584   129205491.623                                  
  22332503.595   119254310.0332                                 
  21218188.141   113542849.749                                  
  20005555.230   106791011.190                                  
  21970148.130   117607961.989                                  
  23774833.663                                                  
  23556686.174                                                  
  23322070.060   124757181.825                                  
  24350708.355   127963756.908                                  
  24849056.419                                                  
  21159547.505   113030444.226                                  
  21049455.990   112323944.504                                  
 16  9 24 10 41 12.0010000  0 18G10G16G18G26G27G 8G21R13R21R22R 7R 5
                                R11R23G 7G11R12R 6
  21344539.033   112166308.129                                  
  21220025.203   111511975.695                                  
  22384917.210   117633533.320                                  
  22990994.997   120818502.0522                                 
  20492020.965   107686298.725                                  
  22289347.603                                                  
  24587545.676   129208423.482                                  
  22332223.275   119252812.6422                                 
  21218632.982   113545230.231                                  
  20005476.425   106790590.560                                  
  21969510.918   117604552.557                                  
  23775488.639                                                  
  23557560.011   125884458.8593                                 
  23321577.126   124754544.461                                  
  24350799.864   127964238.952                                  
  24848465.625                                                  
  21159954.270   113032607.370                                  
  21049439.866   112323857.336                                  
 16  9 24 10 41 13.0010000  0 18G10G16G18G26G27G 8G21R13R21R22R 7R 5
                                R11R23G 7G11R12R 6
  21344369.102   112165416.541                                  
  21220471.963   111514325.468                                  
  22385210.793   117635075.957                                  
  22991690.039   120822169.3782                                 
  20491973.744   107686052.108                                  
  22288932.916                                                  
  24588103.979   129211356.547                                  
  22331943.199   119251317.3342                                 
  21219077.857   113547612.222                                  
  20005398.038   106790171.514                                  
  21968874.194   117601144.822                                  
  23776144.593   127097125.5653                                 
  23558422.122   125889130.2782                                 
  23321087.298   124751908.483                                  
  24350891.617   127964722.823                                  
  24847879.193                                                  
  21160360.895   113034772.713                                  
  21049423.882   112323772.255                                  
 16  9 24 10 41 14.0010000  0 17G10G16G18G26G27G 8G21R13R21R22R 7R 5
                                R11R23G 7R12R 6
  21344199.626   112164526.833                                  
  21220919.422   111516677.044                                  
  22385504.759   117636620.324                                  
  22992388.431   120825838.2452                                 
  20491927.187   107685807.139                                  
  22288522.696                                                  
  24588662.386   129214290.938                                  
  22331663.437   119249820.1203                                 
  21219523.396   113549995.736                                  
  20005319.792   106789754.077                                  
  21968237.471   117597738.804                                  
  23776798.976   127100637.9753                                 
  23559284.441                                                  
  23320594.400   124749273.889                                  
  24350983.545   127965208.599                                  
  21160766.438   113036940.106                                  
  21049408.665   112323689.387                                  
 16  9 24 10 41 15.0010000  0 17G10G16G18G26G27G 8G21R13R21R22R 7R 5
                                R11R23G 7R12R 6
  21344030.603   112163638.907                                  
  21221367.264   111519030.322                                  
  22385799.039   117638166.386                                  
  22993086.859   120829508.5622                                 
  20491880.735   107685563.690                                  
  22288112.057                                                  
  24589220.827   129217226.514                                  
  22331384.198   119248328.9342                                 
  21219969.075   113552380.648                                  
  20005241.824   106789338.129                                  
  21967601.236   117594334.402                                  
  23777453.604   127104134.0902                                 
  23560155.940                                                  
  23320116.822   124746640.426                                  
  24351076.066   127965696.114                                  
  21161172.504   113039109.467                                  
  21049393.623   112323608.620                                  
 16  9 24 10 41 16.0010000  0 17G10G16G18G26G27G 8G21R13R21R22R 7R 5
                                R11R23G 7R12R 6
  21343862.069   112162752.778                                  
  21221815.246   111521385.322                                  
  22386093.425   117639714.127                                  
  22993785.391   120833180.3422                                 
  20491834.876   107685321.797                                  
  22287699.150                                                  
  24589779.758   129220163.340                                  
  22331105.309   119246839.7632                                 
  21220414.684   113554766.924                                  
  20005164.205   106788923.689                                  
  21966965.489   117590931.593                                  
  23778110.220   127107632.1302                                 
  23561035.082                                                  
  23319622.283   124744008.379                                  
  24351168.936   127966185.363                                  
  21161579.025   113041280.823                                  
  21049379.105   112323529.931                                  
 16  9 24 10 41 17.0010000  0 17G10G16G18G26G27G 8G21R13R21R22R 7R 5
                                R11R23G 7R12R 6
  21343693.709   112161868.748                                  
  21222263.751   111523742.321                                  
  22386388.403   117641263.841                                  
  22994484.342   120836853.8902                                 
  20491789.261   107685081.739                                  
  22287286.453                                                  
  24590339.003   129223101.620                                  
  22330826.804   119245352.9262                                 
  21220860.746   113557154.924                                  
  20005086.796   106788511.039                                  
  21966329.918   117587530.673                                  
  23778764.080   127111132.0832                                 
  23561905.534                                                  
  23319121.671   124741377.796                                  
  24351262.713   127966676.710                                  
  21161985.964   113043454.568                                  
  21049364.935   112323453.633                                  
 16  9 24 10 41 18.0010000  0 17G10G16G18G26G27G 8G21R13R21R22R 7R 5
                                R11R23G 7R12R 6
  21343525.559   112160986.680                                  
  21222712.676   111526101.185                                  
  22386683.905   117642815.357                                  
  22995183.398   120840529.0062                                 
  20491743.716   107684843.384                                  
  22286875.360                                                  
  24590898.526   129226041.245                                  
  22330549.066   119243868.2512                                 
  21221306.948   113559544.483                                  
  20005009.736   106788100.056                                  
  21965694.834   117584131.549                                  
  23779416.997   127114634.0202                                 
  23562779.580                                                  
  23318631.808   124738748.642                                  
  24351356.630   127967169.963                                  
  21162393.566   113045630.488                                  
  21049351.010   112323379.583                                  
 16  9 24 10 41 19.0010000  0 17G10G16G18G26G27G 8G21R13R21R22R 7R 5
                                R11R23G 7R12R 6
  21343357.827   112160106.366                                  
  21223161.879   111528461.712                                  
  22386979.721   117644368.522                                  
  22995882.209   120844205.563                                  
  20491698.659   107684606.510                                  
  22286464.478                                                  
  24591458.364   129228982.045                                  
  22330271.538   119242385.5502                                 
  21221753.395   113561935.444                                  
  20004932.955   106787690.519                                  
  21965059.891   117580733.994                                  
  23780073.230   127118137.5032                                 
  23563656.838                                                  
  23318137.898   124736120.720                                  
  24351450.547   127967664.902                                  
  21162801.308   113047808.283                                  
  21049337.678   112323307.558                                  
 16  9 24 10 41 20.0010000  0 17G10G16G18G26G27G 8G21R13R21R22R 7R 5
                                R11R23G 7R12R 6
  21343190.375   112159227.811                                  
  21223611.292   111530823.914                                  
  22387275.328   117645923.354                                  
  22996581.928   120847883.526                                  
  20491653.638   107684371.166                                  
  22286052.373                                                  
  24592018.132   129231924.017                                  
  22329994.393   119240907.8263                                 
  21222200.085   113564327.786                                  
  20004856.733   106787282.474                                  
  21964425.226   117577338.058                                  
  23780728.556   127121642.8152                                 
  23564533.083                                                  
  23317641.997   124733494.036                                  
  24351545.232   127968161.598                                  
  21163209.329   113049988.040                                  
  21049324.660   112323237.586                                  
 16  9 24 10 41 21.0010000  0 17G10G16G18G26G27G 8G21R13R21R22R 7R 5
                                R11R23G 7R12R 6
  21343023.656   112158351.093                                  
  21224061.403   111533187.873                                  
  22387571.912   117647479.884                                  
  22997281.961   120851562.968                                  
  20491609.070   107684137.395                                  
  22285643.968                                                  
  24592578.249   129234867.222                                  
  22329717.423   119239429.1522                                 
  21222647.160   113566721.548                                  
  20004780.615   106786875.939                                  
  21963790.911   117573943.780                                  
  23781385.591   127125149.7822                                 
  23565407.444                                                  
  23317138.977   124730868.650                                  
  24351639.638   127968660.091                                  
  21163618.048   113052169.854                                  
  21049311.886   112323169.750                                  
 16  9 24 10 41 22.0010000  0 17G10G16G18G26G27G 8G21R13R21R22R 7R 5
                                R11R23G 7R12R 6
  21342857.181   112157476.016                                  
  21224511.409   111535553.373                                  
  22387868.077   117649037.918                                  
  22997982.413   120855243.696                                  
  20491564.921   107683904.988                                  
  22285230.643                                                  
  24593138.576   129237811.443                                  
  22329441.012   119237952.3372                                 
  21223094.514   113569116.548                                  
  20004704.671   106786470.746                                  
  21963157.049   117570550.951                                  
  23782040.428   127128657.8421                                 
  23566288.156                                                  
  23316651.837   124728244.350                                  
  24351734.672   127969160.186                                  
  21164026.767   113054353.547                                  
  21049299.671   112323103.840                                  
 16  9 24 10 41 23.0010000  0 17G10G16G18G26G27G 8G21R13R21R22R 7R 5
                                R11R23G 7R12R 6
  21342691.194   112156602.620                                  
  21224961.834   111537920.455                                  
  22388164.940   117650597.525                                  
  22998682.725   120858925.781                                  
  20491520.946   107683674.016                                  
  22284818.957                                                  
  24593698.693   129240756.755                                  
  22329165.124   119236477.3882                                 
  21223542.147   113571512.845                                  
  20004629.147   106786066.927                                  
  21962523.048   117567159.624                                  
  23782698.371                                                  
  23567168.136   125935782.5613                                 
  23316163.231   124725621.189                                  
  24351829.950   127969661.919                                  
  21164436.079   113056539.059                                  
  21049287.805   112323039.919                                  
 16  9 24 10 41 24.0010000  0 17G10G16G18G26G27G 8G21R13R21R22R 7R 5
                                R11R23G 7R12R 6
  21342525.522   112155731.282                                  
  21225412.818   111540289.517                                  
  22388461.943   117652159.065                                  
  22999383.526   120862609.573                                  
  20491476.902   107683444.848                                  
  22284407.935                                                  
  24594259.508   129243703.522                                  
  22328889.585   119235004.7352                                 
  21223990.233   113573910.834                                  
  20004554.146   106785664.866                                  
  21961889.361   117563770.171                                  
  23783357.117                                                  
  23568049.476   125940468.2612                                 
  23315673.717   124722999.549                                  
  24351925.577   127970165.669                                  
  21164845.845   113058726.947                                  
  21049276.323   112322978.379                                  
 16  9 24 10 41 25.0010000  0 17G10G16G18G26G27G 8G21R13R21R22R 7R 5
                                R11R23G 7R12R 6
  21342360.478   112154862.091                                  
  21225863.941   111542660.624                                  
  22388759.469   117653722.619                                  
  23000085.129   120866295.146                                  
  20491433.939   107683217.561                                  
  22283999.390                                                  
  24594820.707   129246651.836                                  
  22328614.570   119233534.4262                                 
  21224438.390   113576310.577                                  
  20004479.319   106785264.635                                  
  21961256.686   117560382.663                                  
  23784014.711                                                  
  23568929.247   125945155.4522                                 
  23315185.739   124720379.444                                  
  24352021.623   127970671.511                                  
  21165255.960   113060917.079                                  
  21049265.190   112322919.278                                  
 16  9 24 10 41 26.0010000  0 17G10G16G18G26G27G 8G21R13R21R22R 7R 5
                                R11R23G 7R12R 6
  21342195.294   112153994.979                                  
  21226315.413   111545033.724                                  
  22389057.239   117655288.126                                  
  23000787.012   120869982.468                                  
  20491390.907   107682992.103                                  
  22283591.893                                                  
  24595382.255   129249601.625                                  
  22328339.624   119232071.4173                                 
  21224886.860   113578712.009                                  
  20004404.842   106784866.187                                  
  21960623.976   117556997.033                                  
  23784673.945                                                  
  23569812.158   125949844.2902                                 
  23314697.517   124717760.897                                  
  24352117.983   127971179.426                                  
  21165665.935   113063109.542                                  
  21049254.545   112322862.555                                  
 16  9 24 10 41 27.0010000  0 17G10G16G18G26G27G 8G21R13R21R22R 7R 5
                                R11R23G 7R12R 6
  21342030.738   112153129.775                                  
  21226767.373   111547408.641                                  
  22389355.603   117656855.455                                  
  23001489.209   120873671.271                                  
  20491348.678   107682768.292                                  
  22283182.441                                                  
  24595943.978   129252552.705                                  
  22328064.958   119230605.5322                                 
  21225336.204   113581114.929                                  
  20004330.678   106784469.363                                  
  21959991.440   117553613.161                                  
  23785331.644                                                  
  23570695.104   125954534.5182                                 
  23314210.412   124715143.769                                  
  24352214.727   127971689.185                                  
  21166076.574   113065304.116                                  
  21049244.110   112322808.016                                  
 16  9 24 10 41 28.0010000  0 17G10G16G18G26G27G 8G21R13R21R22R 7R 5
                                R11R23G 7R12R 6
  21341866.357   112152266.399                                  
  21227219.648   111549785.299                                  
  22389654.107   117658424.440                                  
  23002191.405   120877361.564                                  
  20491306.309   107682546.067                                  
  22282775.676                                                  
  24596506.119   129255505.124                                  
  22327790.675   119229141.7172                                 
  21225785.616   113583519.320                                  
  20004257.038   106784074.082                                  
  21959359.498   117550231.020                                  
  23785989.727                                                  
  23571575.328   125959225.9092                                 
  23313724.633   124712528.011                                  
  24352312.379   127972200.748                                  
  21166487.631   113067500.709                                  
  21049234.477   112322755.652                                  
 16  9 24 10 41 29.0010000  0 17G10G16G18G26G27G 8G21R13R21R22R 7R 5
                                R11R23G 7R12R 6
  21341702.395   112151404.409                                  
  21227672.307   111552163.265                                  
  22389952.610   117659994.699                                  
  23002893.916   120881053.035                                  
  20491264.672   107682324.953                                  
  22282363.921                                                  
  24597067.946   129258458.182                                  
  22327517.091   119227679.4582                                 
  21226235.029   113585924.731                                  
  20004183.433   106783679.866                                  
  21958727.975   117546849.873                                  
  23786650.706                                                  
  23572458.623   125963918.1772                                 
  23313235.189   124709912.925                                  
  24352409.821   127972713.654                                  
  21166898.898   113069698.839                                  
  21049225.368   112322704.963                                  
 16  9 24 10 41 30.0010000  0 17G10G16G18G26G27G 8G21R13R21R22R 7R 5
                                R11R23G 7R12R 6
  21341538.537   112150543.798                                  
  21228124.756   111554542.480                                  
  22390251.602   117661566.459                                  
  23003597.090   120884745.438                                  
  20491223.071   107682105.012                                  
  22281953.736   117092468.5933                                 
  24597629.773   129261412.127                                  
  22327243.401   119226217.8203                                 
  21226684.652   113588331.457                                  
  20004109.863   106783286.749                                  
  21958096.905   117543470.035                                  
  23787309.138                                                  
  23573342.791   125968611.224                                  
  23312746.408   124707298.845                                  
  24352507.716   127973227.926                                  
  21167308.629   113071898.801                                  
  21049216.120   112322656.115                                  
 16  9 24 10 41 31.0010000  0 17G10G16G18G26G27G 8G21R13R21R22R 7R 5
                                R11R23G 7R12R 6
  21341375.099                                                  
  21228577.799   111556923.299                                  
  22390550.699                                                  
  23004300.578   120888439.203                                  
  20491181.156                                                  
  22281541.597                                                  
  24598192.264                                                  
  22326970.306   119224758.9562                                 
  21227135.007                                                  
  20004036.433                                                  
  21957466.324                                                  
  23787970.117                                                  
  23574222.177   125973305.943                                  
  23312257.663                                                  
  24352605.856                                                  
  21167717.139                                                  
  21049207.150                                                  
 16  9 24 10 41 32.0010000  0 17G10G16G18G26G27G 8G21R13R21R22R 7R 5
                                R11R23G 7R12R 6
  21341211.520   112148823.0133                                 
  21229031.155   111559311.0943                                 
  22390850.005   117664710.8013                                 
  23005003.787   120892110.7303                                 
  20491139.589   107681664.6323                                 
  22281137.310                                                  
  24598762.083   129267366.6363                                 
  22326697.349   119223301.9663                                 
  21227585.083   113593137.5833                                 
  20003962.932   106782507.0013                                 
  21956835.673   117536697.3053                                 
  23788629.630                                                  
  23575101.528                                                  
  23311769.196   124702293.3153                                 
  24352704.136   127974323.2193                                 
  21168131.093   113076345.6463                                 
  21049198.669   112322557.3623                                 
 16  9 24 10 41 33.0010000  0 17G10G16G18G26G27G 8G21R13R21R22R 7R 5
                                R11R23G 7R12R 6
  21341048.361   112147967.2202                                 
  21229484.442   111561694.8782                                 
  22391150.149   117666286.7492                                 
  23005707.310   120895806.8732                                 
  20491098.546   107681448.7032                                 
  22280726.462   117086007.1303                                 
  24599318.117   129270323.4682                                 
  22326424.707   119221846.7842                                 
  21228035.857   113595547.5262                                 
  20003889.851   106782117.7962                                 
  21956205.406   117533321.6782                                 
  23789288.446                                                  
  23575980.007   125982890.6183                                 
  23311281.044   124699682.2892                                 
  24352802.974   127974842.1612                                 
  21168545.605   113078550.8012                                 
  21049190.712   112322513.9032                                 
 16  9 24 10 41 34.0010000  0 18G10G16G18G26G27G 8G21R13R21R22R 7R 5
                                R11R23G 7G11R12R 6
  21340885.969   112147112.6472                                 
  21229938.253   111564079.7652                                 
  22391450.362   117667863.8142                                 
  23006410.240   120899503.9442                                 
  20491057.608   107681233.6772                                 
  22280324.549   117083867.0772                                 
  24599887.029   129273281.0412                                 
  22326152.449   119220392.9432                                 
  21228486.701   113597958.3882                                 
  20003816.874   106781729.4472                                 
  21955575.139   117529947.1122                                 
  23789946.319                                                  
  23576864.384                                                  
  23310793.066   124697072.0022                                 
  24352901.952   127975362.2402                                 
  24835598.846                                                  
  21168958.826   113080757.3652                                 
  21049182.720   112322471.9592                                 
 16  9 24 10 41 35.0010000  0 18G10G16G18G26G27G 8G21R13R21R22R 7R 5
                                R11R23G 7G11R12R 6
  21340722.984   112146258.9812                                 
  21230392.272   111566465.4572                                 
  22391750.611   117669441.6582                                 
  23007113.728   120903201.5712                                 
  20491016.705   107681019.3222                                 
  22279910.036   117081727.6112                                 
  24600448.053   129276238.8802                                 
  22325880.121   119218940.2422                                 
  21228937.370   113600369.7572                                 
  20003744.072   106781341.7262                                 
  21954944.907   117526573.2972                                 
  23790607.333                                                  
  23577737.733   125992281.6723                                 
  23310305.088   124694461.9972                                 
  24353000.860   127975883.2072                                 
  24835011.158                                                  
  21169373.688   113082965.1522                                 
  21049174.832   112322431.2582                                 
 16  9 24 10 41 36.0010000  0 18G10G16G18G26G27G 8G21R13R21R22R 7R 5
                                R11R23G 7G11R12R 6
  21340560.732   112145406.4522                                 
  21230846.118   111568852.2112                                 
  22392050.999   117671020.5212                                 
  23007817.181   120906899.9302                                 
  20490976.116   107680805.8672                                 
  22279504.144   117079588.8682                                 
  24601010.404   129279197.1952                                 
  22325608.351   119217488.8872                                 
  21229388.109   113602781.8002                                 
  20003671.269   106780954.8242                                 
  21954315.129   117523200.4332                                 
  23791266.952                                                  
  23578622.947   125997011.4032                                 
  23309817.424   124691852.5372                                 
  24353100.431   127976405.3162                                 
  24834428.041                                                  
  21169786.874   113085174.1752                                 
  21049167.573   112322391.9522                                 
 16  9 24 10 41 37.0010000  0 18G10G16G18G26G27G 8G21R13R21R22R 7R 5
                                R11R23G 7G11R12R 6
  21340398.654   112144555.2102                                 
  21231300.870   111571240.1532                                 
  22392351.666   117672600.5152                                 
  23008521.018   120910599.2812                                 
  20490935.736   107680593.4332                                 
  22279091.865   117077450.9162                                 
  24601574.325   129282156.2832                                 
  22325336.930   119216039.0382                                 
  21229839.232   113605194.7322                                 
  20003598.816   106780568.8792                                 
  21953685.211   117519828.6382                                 
  23791924.999                                                  
  23579498.669   126001709.7422                                 
  23309330.005   124689243.8412                                 
  24353200.316   127976928.6522                                 
  24833844.646                                                  
  21170197.408   113087384.5882                                 
  21049160.488   112322354.2052                                 
 16  9 24 10 41 38.0010000  0 18G10G16G18G26G27G 8G21R13R21R22R 7R 5
                                R11R23G 7G11R12R 6
  21340236.961   112143704.8372                                 
  21231755.414   111573628.9262                                 
  22392652.752   117674181.2802                                 
  23009225.065   120914299.1202                                 
  20490895.426   107680381.6312                                 
  22278687.683                                                  
  24602135.664   129285115.5272                                 
  22325065.475   119214587.2303                                 
  21230290.600   113607608.1302                                 
  20003526.502   106780183.4902                                 
  21953054.979   117516457.5142                                 
  23792585.595                                                  
  23580377.706                                                  
  23308842.550   124686635.4742                                 
  24353300.166   127977452.8262                                 
  24833256.155                                                  
  21170612.200   113089596.1652                                 
  21049153.752   112322317.6192                                 
 16  9 24 10 41 39.0010000  0 17G10G16G18G26G27G 8G21R13R21R22R 7R 5
                                R11R23G 7R12R 6
  21340075.407   112142855.4772                                 
  21232210.201   111576018.5752                                 
  22392953.768   117675762.9122                                 
  23009929.355   120917999.6402                                 
  20490855.430   107680170.5652                                 
  22278282.140   117073162.4493                                 
  24602698.049   129288075.2252                                 
  22324793.984   119213139.6382                                 
  21230741.862   113610022.1012                                 
  20003454.503   106779798.8072                                 
  21952425.235   117513087.1892                                 
  23793248.563                                                  
  23581254.440                                                  
  23308355.201   124684027.6352                                 
  24353400.504   127977977.9682                                 
  21171024.758   113091808.8862                                 
  21049146.877   112322282.2942                                 
 16  9 24 10 41 40.0010000  0 17G10G16G18G26G27G 8G21R13R21R22R 7R 5
                                R11R23G 7R12R 6
  21339914.725   112142007.8222                                 
  21232665.093   111578409.5112                                 
  22393255.413   117677346.3162                                 
  23010633.960   120921701.1762                                 
  20490815.329   107679960.7512                                 
  22277876.807   117071026.2112                                 
  24603261.552   129291036.2282                                 
  22324523.227   119211693.6862                                 
  21231193.578   113612437.0251                                 
  20003382.817   106779415.336                                  
  21951795.596   117509718.380                                  
  23793910.520                                                  
  23582132.919                                                  
  23307867.746   124681423.8963                                 
  24353500.739   127978504.3932                                 
  21171439.305                                                  
  21049140.316   112322248.6291                                 
 16  9 24 10 41 41.0010000  0 17G10G16G18G26G27G 8G21R13R21R22R 7R 5
                                R11R23G 7R12R 6
  21339753.729   112141161.3112                                 
  21233120.544   111580803.6052                                 
  22393556.778   117678929.6412                                 
  23011336.471   120925405.3212                                 
  20490775.927   107679752.9522                                 
  22277469.204   117068893.6902                                 
  24603824.496                                                  
  22324252.923   119210251.0402                                 
  21231645.295                                                  
  20003311.446   106779034.047                                  
  21951166.446   117506350.877                                  
  23794573.768                                                  
  23583008.082                                                  
  23307380.781   124678820.3772                                 
  24353601.601   127979034.7892                                 
  21171850.781                                                  
  21049133.894   112322215.810                                  
 16  9 24 10 41 42.0010000  0 17G10G16G18G26G27G 8G21R13R21R22R 7R 5
                                R11R23G 7R12R 6
  21339593.222   112140315.7242                                 
  21233576.414   111583198.8602                                 
  22393858.283   117680513.2042                                 
  23012041.600   120929110.4412                                 
  20490736.943   107679545.9312                                 
  22277062.440   117066761.9842                                 
  24604389.010                                                  
  22323982.758   119208809.9092                                 
  21232096.627   113617280.4871                                 
  20003240.005   106778653.508                                  
  21950537.540   117502983.825                                  
  23795233.107                                                  
  23583886.561                                                  
  23306901.179   124676252.9653                                 
  24353702.952   127979566.8422                                 
  21172262.257                                                  
  21049127.612   112322183.653                                  
 16  9 24 10 41 43.0010000  0 17G10G16G18G26G27G 8G21R13R21R22R 7R 5
                                R11R23G 7R12R 6
  21339432.436   112139470.639                                  
  21234032.318   111585594.444                                  
  22394159.160   117682096.5441                                 
  23012747.950   120932815.611                                  
  20490697.436   107679338.856                                  
  22276656.932   117064629.6612                                 
  24604961.796                                                  
  22323712.943   119207368.9362                                 
  21232547.925   113619695.534                                  
  20003168.494   106778272.708                                  
  21949908.739   117499617.196                                  
  23795895.378                                                  
  23584768.460                                                  
  23306410.723                                                  
  24353803.953   127980098.1251                                 
  21172682.179   113100634.3993                                 
  21049121.574   112322152.247                                  
 16  9 24 10 41 44.0010000  0 18G10G16G18G26G27G 8G21R13R21R22R 7R 5
                                R11R23G 7G11R12R 6
  21339270.951   112138621.356                                  
  21234487.245   111587985.808                                  
  22394460.036   117683676.010                                  
  23013450.600   120936516.534                                  
  20490657.230   107679127.381                                  
  22276250.167   117062493.0152                                 
  24605518.633                                                  
  22323442.569   119205924.0422                                 
  21232998.106   113622105.5942                                 
  20003096.145   106777887.478                                  
  21949279.380   117496246.234                                  
  23796558.486                                                  
  23585639.645                                                  
  23305928.573                                                  
  24353904.571   127980626.131                                  
  24829744.926                                                  
  21173097.774   113102876.8973                                 
  21049114.699   112322116.755                                  
 16  9 24 10 41 45.0010000  0 18G10G16G18G26G27G 8G21R13R21R22R 7R 5
                                R11R23G 7G11R12R 6
  21339110.026   112137774.825                                  
  21234942.591   111590379.943                                  
  22394760.913   117685258.167                                  
  23014159.149   120940219.302                                  
  20490617.514   107678918.568                                  
  22275844.415   117060358.8192                                 
  24606074.876                                                  
  22323172.615   119204482.3062                                 
  21233448.949   113624518.1722                                 
  20003024.564   106777504.861                                  
  21948650.439   117492877.611                                  
  23797214.544                                                  
  23586528.350                                                  
  23305438.851   124668444.9292                                 
  24354005.329   127981157.140                                  
  24829160.588                                                  
  21173511.134                                                  
  21049108.626   112322084.239                                  
 16  9 24 10 41 46.0010000  0 18G10G16G18G26G27G 8G21R13R21R22R 7R 5
                                R11R23G 7G11R12R 6
  21338949.484   112136931.425                                  
  21235398.879   111592776.999                                  
  22395062.522   117686843.860                                  
  23014863.056   120943924.817                                  
  20490578.285   107678713.291                                  
  22275438.732   117058228.3472                                 
  24606639.111                                                  
  22322903.602   119203045.322                                  
  21233900.247   113626934.0962                                 
  20002953.821   106777126.054                                  
  21948021.289   117489511.729                                  
  23797867.427                                                  
  23587411.610                                                  
  23304954.851                                                  
  24354106.575                                                  
  24828573.424                                                  
  21173928.579   113107314.6002                                 
  21049103.007   112322055.738                                  
 16  9 24 10 41 47.0010000  0 18G10G16G18G26G27G 8G21R13R21R22R 7R 5
                                R11R23G 7G11R12R 6
  21338789.151   112136089.057                                  
  21235855.168   111595174.822                                  
  22395364.655   117688431.110                                  
  23015568.463   120947630.485                                  
  20490539.616   107678509.436                                  
  22275033.608   117056099.1912                                 
  24607205.510                                                  
  22322635.078   119201610.730                                  
  21234352.138   113629351.4742                                 
  20002882.938   106776748.877                                  
  21947392.767   117486146.659                                  
  23798537.096                                                  
  23588294.521                                                  
  23304459.440   124663191.3373                                 
  24354207.752                                                  
  24827992.820                                                  
  21174347.384   113109540.4702                                 
  21049098.156   112322029.102                                  
 16  9 24 10 41 48.0010000  0 18G10G16G18G26G27G 8G21R13R21R22R 7R 5
                                R11R23G 7G11R12R 6
  21338628.749   112135247.083                                  
  21236311.386   111597572.046                                  
  22395667.103   117690019.839                                  
  23016272.893   120951334.893                                  
  20490501.121   107678305.929                                  
  22274628.379   117053969.8012                                 
  24607761.754   129314660.3263                                 
  22322366.135   119200177.063                                  
  21234804.098   113631769.9952                                 
  20002811.881   106776372.142                                  
  21946763.791   117482781.041                                  
  23799199.123                                                  
  23589171.045                                                  
  23303980.292                                                  
  24354314.303                                                  
  24827410.018                                                  
  21174763.362   113111765.7752                                 
  21049093.340   112322004.102                                  
 16  9 24 10 41 49.0010000  0 18G10G16G18G26G27G 8G21R13R21R22R 7R 5
                                R11R23G 7G11R12R 6
  21338468.870   112134407.402                                  
  21236767.535   111599970.663                                  
  22395969.445   117691610.542                                  
  23016978.476   120955041.062                                  
  20490462.625   107678103.458                                  
  22274223.604   117051840.0431                                 
  24608323.581   129317624.3452                                 
  22322097.751   119198744.122                                  
  21235256.582   113634190.3482                                 
  20002741.312   106775996.160                                  
  21946135.583   117479417.683                                  
  23799861.114   127223918.5543                                 
  23590028.828   126057961.5273                                 
  23303492.942   124658027.4932                                 
  24354423.332                                                  
  24826830.461                                                  
  21175181.365   113113991.9032                                 
  21049089.361   112321981.796                                  
 16  9 24 10 41 50.0010000  0 16G10G16G18G26G27G 8G21R13R21R22R 7R 5
                                R11R23R12R 6
  21338309.689   112133570.179                                  
  21237224.451   111602371.562                                  
  22396272.486   117693203.476                                  
  23017684.058   120958749.457                                  
  20490424.375   107677902.665                                  
  22273818.549   117049711.794                                  
  24608895.075   129320590.2262                                 
  22321829.785   119197312.790                                  
  21235709.276   113636612.1531                                 
  20002671.197   106775621.534                                  
  21945508.039   117476057.020                                  
  23800526.002                                                  
  23590915.020   126062696.2633                                 
  23303011.386   124655445.2663                                 
  21175598.215   113116219.8922                                 
  21049085.871   112321962.155                                  
 16  9 24 10 41 51.0010000  0 18G10G16G18G26G27G 8G21R13R21R22R 7R 5
                                R11R23G 7G11R12R 6
  21338150.996   112132736.100                                  
  21237682.345   111604775.405                                  
  22396576.573   117694798.926                                  
  23018390.338   120962461.158                                  
  20490387.101   107677703.820                                  
  22273413.215   117047584.725                                  
  24609460.183   129323558.0282                                 
  22321562.692   119195882.967                                  
  21236162.284   113639036.669                                  
  20002601.536   106775248.472                                  
  21944881.541   117472699.617                                  
  23801192.566   127231035.5852                                 
  23591794.476   126067396.5653                                 
  23302527.456   124652846.0202                                 
  24354607.327                                                  
  24825661.157                                                  
  21176012.937   113118450.2342                                 
  21049083.254   112321945.575                                  
 16  9 24 10 41 52.0010000  0 18G10G16G18G26G27G 8G21R13R21R22R 7R 5
                                R11R23G 7G11R12R 6
  21337993.177   112131905.993                                  
  21238140.797   111607183.005                                  
  22396880.765   117696398.181                                  
  23019097.770   120966176.334                                  
  20490350.386   107677508.626                                  
  22273008.999   117045461.060                                  
  24610028.432   129326529.1562                                 
  22321296.053   119194457.369                                  
  21236616.338   113641464.740                                  
  20002532.294   106774879.021                                  
  21944254.973   117469346.055                                  
  23801855.290   127234586.9702                                 
  23592673.165   126072107.5802                                 
  23302038.641   124650250.1882                                 
  24354716.460   127984898.1533                                 
  24825079.541                                                  
  21176431.777   113120684.6432                                 
  21049081.578   112321933.262                                  
 16  9 24 10 41 53.0010000  0 18G10G16G18G26G27G 8G21R13R21R22R 7R 5
                                R11R23G 7G11R12R 6
  21337835.811   112131083.0423                                 
  21238599.843   111609594.8023                                 
  22397186.039   117698006.9613                                 
  23019805.097   120969891.7463                                 
  20490314.054   107677326.8563                                 
  22272605.305   117043330.6523                                 
  24610591.621   129329531.8213                                 
  22321029.763   119193037.1113                                 
  21237070.533   113643896.0773                                 
  20002463.400   106774502.4703                                 
  21943628.650   117465999.5933                                 
  23802516.758                                                  
  23593556.983                                                  
  23301546.300                                                  
  24354825.699                                                  
  24824498.588                                                  
  21176850.373   113122922.4863                                 
  21049080.182   112321924.9133                                 
 16  9 24 10 41 54.0010000  0 18G10G16G18G26G27G 8G21R13R21R22R 7R 5
                                R11R23G 7G11R12R 6
  21337678.968   112130258.5052                                 
  21239059.202   111612007.8892                                 
  22397491.418   117699611.5502                                 
  23020512.878   120973611.8472                                 
  20490277.723   107677136.7492                                 
  22272201.856   117041211.7122                                 
  24611157.950   129332507.2842                                 
  22320763.961   119191617.5112                                 
  21237525.460   113646329.0122                                 
  20002395.310   106774138.0722                                 
  21943003.234   117462651.3852                                 
  23803189.150   127241708.7803                                 
  23594436.614   126081514.8993                                 
  23301067.292   124645017.3403                                 
  24354933.052   127985994.3902                                 
  24823921.126                                                  
  21177269.632   113125163.0252                                 
  21049079.100   112321918.8022                                 
 16  9 24 10 41 55.0010000  0 18G10G16G18G26G27G 8G21R13R21R22R 7R 5
                                R11R23G 7G11R12R 6
  21337522.614   112129437.3622                                 
  21239519.190   111614424.2722                                 
  22397797.251   117701219.3962                                 
  23021221.426   120977334.9542                                 
  20490241.950   107676949.7592                                 
  22271799.140   117039095.6792                                 
  24611724.105   129335485.5182                                 
  22320499.171   119190201.5452                                 
  21237980.771   113648764.9602                                 
  20002327.742   106773776.7622                                 
  21942378.377   117459306.3942                                 
  23803865.485   127245269.0032                                 
  23595314.604   126086233.3182                                 
  23300588.458   124642428.9262                                 
  24355042.256   127986547.1732                                 
  24823338.952   130447539.4523                                 
  21177689.868   113127407.1162                                 
  21049078.437   112321916.3742                                 
 16  9 24 10 41 56.0010000  0 18G10G16G18G26G27G 8G21R13R21R22R 7R 5
                                R11R23G 7G11R12R 6
  21337366.958   112128619.6222                                 
  21239979.387   111616843.9432                                 
  22398103.502   117702830.5072                                 
  23021930.812   120981061.0822                                 
  20490207.015   107676765.9102                                 
  22271396.494   117036982.5942                                 
  24612291.516   129338466.5952                                 
  22320234.487   119188790.2153                                 
  21238436.920   113651203.9402                                 
  20002260.524   106773418.5732                                 
  21941754.671   117455964.6452                                 
  23804523.917   127248832.5082                                 
  23596194.828   126090954.5882                                 
  23300098.735   124639843.3562                                 
  24355147.097   127987103.2382                                 
  24822758.418   130444496.1052                                 
  21178110.453   113129654.8252                                 
  21049078.751   112321917.6512                                 
 16  9 24 10 41 57.0010000  0 18G10G16G18G26G27G 8G21R13R21R22R 7R 5
                                R11R23G 7G11R12R 6
  21337211.896   112127805.2562                                 
  21240440.177   111619266.9092                                 
  22398410.242   117704444.8802                                 
  23022640.722   120984790.2552                                 
  20490172.742   107676585.1982                                 
  22270994.755   117034872.4262                                 
  24612859.590   129341450.4272                                 
  22319970.953   119187381.5172                                 
  21238893.417   113653645.9332                                 
  20002194.074   106773063.4912                                 
  21941131.768   117452626.1472                                 
  23805188.840   127252399.3422                                 
  23597087.930   126095678.6562                                 
  23299618.330   124637260.7012                                 
  24355251.484   127987662.6462                                 
  24822178.023   130441455.5532                                 
  21178531.876   113131906.1352                                 
  21049079.589   112321922.6392                                 
 16  9 24 10 41 58.0010000  0 18G10G16G18G26G27G 8G21R13R21R22R 7R 5
                                R11R23G 7G11R12R 6
  21337057.287   112126993.6822                                 
  21240901.701   111621692.5802                                 
  22398718.064   117706061.9002                                 
  23023350.248   120988521.8582                                 
  20490138.714   107676406.9902                                 
  22270593.749   117032764.6022                                 
  24613427.944   129344436.4172                                 
  22319707.944   119185975.8202                                 
  21239350.613   113656090.3202                                 
  20002128.391   106772710.9222                                 
  21940508.551   117449290.2782                                 
  23805858.161   127255968.9822                                 
  23597979.811   126100404.9582                                 
  23299135.343   124634680.3392                                 
  24355359.361   127988224.8002                                 
  24821598.990   130438417.2342                                 
  21178953.927   113134160.4492                                 
  21049081.543   112321930.7202                                 
 16  9 24 10 41 59.0010000  0 17G10G16G18G26G27G 8G21R13R21R22R 7R 5
                                R11R23G 7R12R 6
  21336903.585   112126184.7892                                 
  21241363.887   111624120.8382                                 
  22399026.095   117707681.4962                                 
  23024060.507   120992255.8042                                 
  20490105.350   107676231.2382                                 
  22270193.371   117030659.0152                                 
  24613996.856   129347424.5342                                 
  22319445.143   119184573.0482                                 
  21239808.472   113658537.0352                                 
  20002062.673   106772360.7592                                 
  21939885.509   117445956.9472                                 
  23806525.317   127259541.2222                                 
  23598862.931   126105133.4422                                 
  23298649.494   124632102.1242                                 
  24355462.352   127988789.5582                                 
  21179376.222   113136417.6832                                 
  21049083.637   112321941.7942                                 
 16  9 24 10 42  0.0010000  0 17G10G16G18G26G27G 8G21R13R21R22R 7R 5
                                R11R23G 7R12R 6
  21336750.023   112125378.6142                                 
  21241826.702   111626551.7032                                 
  22399334.510   117709303.6892                                 
  23024770.905   120995992.1052                                 
  20490072.334   107676057.9272                                 
  22269793.238   117028555.6842                                 
  24614565.977   129350414.7192                                 
  22319183.285   119183177.2103                                 
  21240266.156   113660986.090                                  
  20001997.619   106772012.5221                                 
  21939263.408   117442625.6621                                 
  23807192.963   127263116.1252                                 
  23599747.727   126109864.1462                                 
  23298167.868   124629525.5631                                 
  24355568.450   127989357.0082                                 
  21179799.425   113138677.863                                  
  21049086.290   112321955.876                                  
 16  9 24 10 42  1.0010000  0 17G10G16G18G26G27G 8G21R13R21R22R 7R 5
                                R11R23G 7R12R 6
  21336597.089   112124575.1071                                 
  21242290.040   111628985.1421                                 
  22399643.728   117710928.884                                  
  23025482.420   120999731.216                                  
  20490039.772   107675887.527                                  
  22269393.279   117026455.066                                  
  24615135.518   129353406.9951                                 
  22318921.672   119181780.7792                                 
  21240724.329   113663437.938                                  
  20001933.088   106771667.682                                  
  21938642.146   117439297.891                                  
  23807859.317   127266694.2272                                 
  23600632.732   126114597.4032                                 
  23297684.707   124626952.223                                  
  24355681.737   127989927.6382                                 
  21180223.500   113140941.433                                  
  21049089.501   112321973.449                                  
 16  9 24 10 42  2.0010000  0 17G10G16G18G26G27G 8G21R13R21R22R 7R 5
                                R11R23G 7R12R 6
  21336444.854   112123776.039                                  
  21242753.797   111631422.937                                  
  22399953.365   117712557.919                                  
  23026194.983   121003473.911                                  
  20490008.117   107675720.814                                  
  22268994.402   117024357.936                                  
  24615705.861   129356403.082                                  
  22318661.035   119180388.5322                                 
  21241183.200   113665893.358                                  
  20001868.976   106771326.513                                  
  21938021.407   117435973.954                                  
  23808528.044   127270276.188                                  
  23601519.169   126119334.086                                  
  23297207.408   124624382.285                                  
  24355792.127   127990502.1302                                 
  21180648.134   113143209.114                                  
  21049093.479   112321995.306                                  
 16  9 24 10 42  3.0010000  0 17G10G16G18G26G27G 8G21R13R21R22R 7R 5
                                R11R23G 7R12R 6
  21336293.630   112122980.681                                  
  21243218.462   111633864.346                                  
  22400263.839   117714190.544                                  
  23026907.824   121007219.969                                  
  20489977.021   107675557.547                                  
  22268595.769   117022264.083                                  
  24616276.343   129359402.297                                  
  22318401.167   119179000.2422                                 
  21241642.525   113668352.124                                  
  20001805.771   106770988.784                                  
  21937401.994   117432653.589                                  
  23809204.903   127273861.764                                  
  23602405.954   126124073.964                                  
  23296727.353   124621815.540                                  
  24355898.364   127991080.2632                                 
  21181073.465   113145480.755                                  
  21049098.296   112322021.186                                  
 16  9 24 10 42  4.0010000  0 17G10G16G18G26G27G 8G21R13R21R22R 7R 5
                                R11R23G 7R12R 6
  21336142.756   112122188.205                                  
  21243683.615   111636308.518                                  
  22400575.046   117715825.893                                  
  23027621.328   121010968.551                                  
  20489946.204   107675396.890                                  
  22268197.555   117020172.632                                  
  24616847.628   129362403.766                                  
  22318141.612   119177615.0352                                 
  21242102.303   113670813.411                                  
  20001743.195   106770653.626                                  
  21936782.860   117429335.897                                  
  23809876.667   127277450.160                                  
  23603293.262   126128816.131                                  
  23296248.100   124619251.102                                  
  24356009.138   127991661.2392                                 
  21181499.146   113147755.511                                  
  21049103.705   112322050.233                                  
 16  9 24 10 42  5.0010000  0 17G10G16G18G26G27G 8G21R13R21R22R 7R 5
                                R11R23G 7R12R 6
  21335992.509   112121398.181                                  
  21244149.326   111638755.071                                  
  22400886.707   117717463.591                                  
  23028335.112   121014719.232                                  
  20489915.945   107675238.447                                  
  22267799.829   117018083.195                                  
  24617419.088   129365407.110                                  
  22317882.581   119176232.5302                                 
  21242562.535   113673276.822                                  
  20001680.898   106770320.649                                  
  21936163.552   117426020.497                                  
  23810550.105   127281040.979                                  
  23604180.746   126133560.236                                  
  23295769.301   124616688.592                                  
  24356122.355   127992244.6862                                 
  21181925.246   113150032.953                                  
  21049109.394   112322082.038                                  
 16  9 24 10 42  6.0010000  0 17G10G16G18G26G27G 8G21R13R21R22R 7R 5
                                R11R23G 7R12R 6
  21335842.507   112120610.005                                  
  21244615.317   111641203.375                                  
  22401198.577   117719103.021                                  
  23029048.791   121018471.420                                  
  20489885.931   107675081.601                                  
  22267402.418   117015995.154                                  
  24617990.967   129368411.686                                  
  22317623.829   119174852.0952                                 
  21243022.942   113675741.680                                  
  20001618.496   106769989.210                                  
  21935544.697   117422706.787                                  
  23811221.206   127284633.523                                  
  23605068.717   126138305.677                                  
  23295290.711   124614127.380                                  
  24356232.745   127992829.8822                                 
  21182351.729   113152312.406                                  
  21049115.606   112322115.975                                  
 16  9 24 10 42  7.0010000  0 17G10G16G18G26G27G 8G21R13R21R22R 7R 5
                                R11R23G 7R12R 6
  21335692.715   112119824.065                                  
  21245081.202   111643653.797                                  
  22401510.936   117720744.527                                  
  23029763.413   121022225.468                                  
  20489856.335   107674926.713                                  
  22267005.670   117013908.889                                  
  24618563.194   129371417.882                                  
  22317365.741   119173474.1142                                 
  21243483.767   113678208.326                                  
  20001556.478   106769659.684                                  
  21934926.436   117419395.122                                  
  23811893.388   127288228.328                                  
  23605956.445   126143052.754                                  
  23294812.610   124611567.937                                  
  24356344.635   127993417.2452                                 
  21182778.596   113154594.247                                  
  21049122.970   112322152.434                                  
 16  9 24 10 42  8.0010000  0 17G10G16G18G26G27G 8G21R13R21R22R 7R 5
                                R11R23G 7R12R 6
  21335542.992   112119040.364                                  
  21245547.786   111646106.368                                  
  22401823.749   117722388.145                                  
  23030478.418   121025981.414                                  
  20489827.368   107674773.799                                  
  22266609.096   117011824.412                                  
  24619135.108   129374425.723                                  
  22317108.071   119172098.0841                                 
  21243944.418   113680676.834                                  
  20001494.669   106769332.109                                  
  21934308.524   117416085.524                                  
  23812567.630   127291825.307                                  
  23606845.150   126147801.446                                  
  23294334.684   124609010.141                                  
  24356456.840   127994006.8942                                 
  21183206.301   113156878.567                                  
  21049130.160   112322191.429                                  
 16  9 24 10 42  9.0010000  0 17G10G16G18G26G27G 8G21R13R21R22R 7R 5
                                R11R23G 7R12R 6
  21335393.827   112118258.534                                  
  21246014.929   111648560.723                                  
  22402136.910   117724033.508                                  
  23031193.458   121029738.867                                  
  20489798.749   107674622.502                                  
  22266212.976   117009741.351                                  
  24619707.614   129377434.825                                  
  22316850.854   119170724.662                                  
  21244405.418   113683146.865                                  
  20001433.733   106769006.118                                  
  21933690.612   117412777.633                                  
  23813239.812   127295424.036                                  
  23607733.750   126152551.533                                  
  23293856.967   124606453.746                                  
  24356569.429   127994598.2422                                 
  21183634.494   113159164.965                                  
  21049137.733   112322232.594                                  
 16  9 24 10 42 10.0010000  0 17G10G16G18G26G27G 8G21R13R21R22R 7R 5
                                R11R23G 7R12R 6
  21335245.047   112117478.053                                  
  21246482.036   111651016.345                                  
  22402450.002   117725680.108                                  
  23031908.498   121033497.318                                  
  20489770.166   107674472.310                                  
  22265816.787   117007659.179                                  
  24620280.226   129380444.657                                  
  22316593.708   119169352.793                                  
  21244866.766   113685617.858                                  
  20001372.448   106768681.180                                  
  21933072.699   117409470.902                                  
  23813912.832   127299023.942                                  
  23608622.000   126157302.408                                  
  23293379.284   124603898.118                                  
  24356682.297   127995191.0342                                 
  21184062.758   113161452.881                                  
  21049145.446   112322275.403                                  
 16  9 24 10 42 11.0010000  0 17G10G16G18G26G27G 8G21R13R21R22R 7R 5
                                R11R23G 7R12R 6
  21335096.126   112116696.830                                  
  21246949.144   111653471.107                                  
  22402763.059   117727325.828                                  
  23032623.154   121037254.660                                  
  20489741.094   107674321.103                                  
  22265420.422   117005575.802                                  
  24620852.418   129383453.170                                  
  22316336.527   119167980.342                                  
  21245328.220   113688087.625                                  
  20001311.407   106768355.148                                  
  21932454.892   117406163.189                                  
  23814584.945   127302623.169                                  
  23609510.880   126162051.834                                  
  23292901.218   124601341.215                                  
  24356795.409   127995783.0112                                 
  21184490.916   113163740.168                                  
  21049153.020   112322317.722                                  
 16  9 24 10 42 12.0010000  0 17G10G16G18G26G27G 8G21R13R21R22R 7R 5
                                R11R23G 7R12R 6
  21334947.346   112115916.092                                  
  21247416.321   111655926.269                                  
  22403076.291   117728971.904                                  
  23033338.055   121041012.144                                  
  20489712.650   107674170.128                                  
  22265024.302   117003492.484                                  
  24621424.541   129386461.546                                  
  22316079.380   119166602.1033                                 
  21245789.639   113690557.443                                  
  20001250.401   106768029.287                                  
  21931837.119   117402855.749                                  
  23815257.092   127306222.716                                  
  23610399.584   126166801.172                                  
  23292423.466   124598784.156                                  
  24356908.592   127996375.4452                                 
  21184919.424   113166028.131                                  
  21049161.675   112322360.799                                  
 16  9 24 10 42 13.0010000  0 17G10G16G18G26G27G 8G21R13R21R22R 7R 5
                                R11R23G 7R12R 6
  21334798.705   112115136.467                                  
  21247883.533   111658382.444                                  
  22403389.836   117730618.959                                  
  23034053.060   121044770.384                                  
  20489684.206   107674019.999                                  
  22264627.973   117001409.793                                  
  24621996.839   129389470.419                                  
  22315822.443   119165231.6422                                 
  21246251.511   113693027.949                                  
  20001189.325   106767704.224                                  
  21931219.172   117399549.246                                  
  23815930.845   127309823.207                                  
  23611288.359   126171551.030                                  
  23291941.282   124596227.686                                  
  24357022.192   127996968.3691                                 
  21185347.827   113168317.452                                  
  21049170.156   112322405.260                                  
 16  9 24 10 42 14.0010000  0 17G10G16G18G26G27G 8G21R13R21R22R 7R 5
                                R11R23G 7R12R 6
  21334650.588   112114358.675                                  
  21248351.094   111660840.352                                  
  22403703.486   117732267.724                                  
  23034768.484   121048530.097                                  
  20489655.727   107673871.459                                  
  22264231.993   116999328.487                                  
  24622569.485   129392480.507                                  
  22315565.716   119163863.2522                                 
  21246713.348   113695499.936                                  
  20001128.877   106767380.689                                  
  21930601.888   117396244.429                                  
  23816604.703   127313425.609                                  
  23612177.901   126176302.261                                  
  23291465.344   124593672.525                                  
  24357135.724   127997563.660                                  
  21185776.892   113170608.804                                  
  21049178.776   112322451.848                                  
 16  9 24 10 42 15.0010000  0 17G10G16G18G26G27G 8G21R13R21R22R 7R 5
                                R11R23G 7R12R 6
  21334502.924   112113582.987                                  
  21248819.318   111663300.286                                  
  22404017.555   117733918.486                                  
  23035484.501   121052291.567                                  
  20489628.051   107673724.758                                  
  22263836.187   116997248.818                                  
  24623142.620   129395492.153                                  
  22315310.175   119162497.1802                                 
  21247175.605   113697973.683                                  
  20001068.744   106767058.956                                  
  21929984.709   117392941.573                                  
  23817277.583   127317029.945                                  
  23613067.618   126181054.953                                  
  23290983.823   124591118.824                                  
  24357249.988   127998160.984                                  
  21186206.342   113172902.454                                  
  21049187.815   112322500.852                                  
 16  9 24 10 42 16.0010000  0 17G10G16G18G26G27G 8G21R13R21R22R 7R 5
                                R11R23G 7R12R 6
  21334355.574   112112809.673                                  
  21249287.892   111665762.487                                  
  22404332.218   117735571.472                                  
  23036200.519   121056055.065                                  
  20489600.585   107673580.180                                  
  22263440.730   116995171.075                                  
  24623715.964   129398505.552                                  
  22315054.913   119161131.7193                                 
  21247638.594   113700449.406                                  
  20001009.448   106766739.301                                  
  21929367.320   117389640.905                                  
  23817949.242   127320636.615                                  
  23613957.649   126185809.495                                  
  23290506.141   124588567.029                                  
  24357364.461   127998760.655                                  
  21186636.141   113175198.636                                  
  21049197.413   112322552.537                                  
 16  9 24 10 42 17.0010000  0 17G10G16G18G26G27G 8G21R13R21R22R 7R 5
                                R11R23G 7R12R 6
  21334209.027   112112039.083                                  
  21249756.953   111668227.295                                  
  22404647.299   117737227.047                                  
  23036916.745   121059820.905                                  
  20489573.397   107673438.049                                  
  22263045.587   116993095.570                                  
  24624290.286   129401521.032                                  
  22314799.965   119159771.1722                                 
  21248101.967   113702927.447                                  
  20000950.048   106766422.054                                  
  21928750.246   117386342.767                                  
  23818622.262                                                  
  23614847.959   126190566.198                                  
  23290033.833   124586017.352                                  
  24357479.423   127999362.946                                  
  21187066.568   113177497.752                                  
  21049207.360   112322607.236                                  
 16  9 24 10 42 18.0010000  0 17G10G16G18G26G27G 8G21R13R21R22R 7R 5
                                R11R23G 7R12R 6
  21334063.388   112111271.525                                  
  21250226.399   111670695.069                                  
  22404962.903   117738885.526                                  
  23037633.810   121063589.435                                  
  20489546.838   107673298.707                                  
  22262651.038   116991022.667                                  
  24624864.747   129404538.954                                  
  22314545.750   119158412.9013                                 
  21248565.864   113705408.166                                  
  20000891.066   106766107.579                                  
  21928134.043   117383047.505                                  
  23819295.456                                                  
  23615738.374   126195325.370                                  
  23289558.001   124583470.239                                  
  24357595.013   127999968.295                                  
  21187497.763   113179800.129                                  
  21049217.934   112322665.290                                  
 16  9 24 10 42 19.0010000  0 17G10G16G18G26G27G 8G21R13R21R22R 7R 5
                                R11R23G 7R12R 6
  21333917.888   112110506.954                                  
  21250696.648   111673165.717                                  
  22405279.066   117740546.859                                  
  23038351.677   121067360.577                                  
  20489520.593   107673162.084                                  
  22262257.396   116988952.286                                  
  24625439.487   129407559.255                                  
  22314292.129   119157058.8612                                 
  21249030.144   113707891.483                                  
  20000832.712   106765795.810                                  
  21927518.470   117379755.099                                  
  23819971.932                                                  
  23616629.277   126200087.032                                  
  23289085.519   124580925.525                                  
  24357710.953   128000576.595                                  
  21187929.167   113182105.678                                  
  21049228.963   112322726.644                                  
 16  9 24 10 42 20.0010000  0 17G10G16G18G26G27G 8G21R13R21R22R 7R 5
                                R11R23G 7R12R 6
  21333772.946   112109745.329                                  
  21251167.280   111675639.212                                  
  22405596.172   117742211.025                                  
  23039069.998   121071134.340                                  
  20489495.395   107673028.154                                  
  22261864.068   116986884.410                                  
  24626014.577   129410581.909                                  
  22314039.101   119155707.9912                                 
  21249494.843   113710377.361                                  
  20000774.952   106765486.704                                  
  21926903.210   117376465.503                                  
  23820649.593                                                  
  23617519.587   126204851.053                                  
  23288610.175   124578383.321                                  
  24357827.450   128001187.760                                  
  21188361.200   113184414.393                                  
  21049240.934   112322791.251                                  
 16  9 24 10 42 21.0010000  0 17G10G16G18G26G27G 8G21R13R21R22R 7R 5
                                R11R23G 7R12R 6
  21333628.528   112108986.301                                  
  21251638.192   111678115.215                                  
  22405913.487   117743877.651                                  
  23039788.144   121074910.325                                  
  20489470.615   107672896.553                                  
  22261471.229   116984818.679                                  
  24626590.050   129413606.542                                  
  22313786.631   119154359.9482                                 
  21249959.752   113712865.469                                  
  20000717.087   106765179.894                                  
  21926288.543   117373178.341                                  
  23821328.197                                                  
  23618410.421   126209617.095                                  
  23288135.738   124575843.193                                  
  24357944.227   128001801.496                                  
  21188793.826   113186725.882                                  
  21049252.905   112322858.740                                  
 16  9 24 10 42 22.0010000  0 17G10G16G18G26G27G 8G21R13R21R22R 7R 5
                                R11R23G 7R12R 6
  21333484.773   112108229.304                                  
  21252109.662   111680593.149                                  
  22406230.766   117745546.191                                  
  23040506.569   121078687.999                                  
  20489445.557   107672766.729                                  
  22261078.215   116982754.524                                  
  24627165.942   129416632.633                                  
  22313534.336   119153014.1582                                 
  21250424.731   113715355.210                                  
  20000660.060   106764874.831                                  
  21925674.435   117369893.030                                  
  23822008.372                                                  
  23619302.197   126214384.631                                  
  23287661.546   124573304.569                                  
  24358061.562   128002417.199                                  
  21189226.696   113189039.664                                  
  21049265.329   112322928.555                                  
 16  9 24 10 42 23.0010000  0 17G10G16G18G26G27G 8G21R13R21R22R 7R 5
                                R11R23G 7R12R 6
  21333341.228   112107474.467                                  
  21252581.760   111683073.144                                  
  22406548.744   117747216.752                                  
  23041225.797   121082467.469                                  
  20489420.917   107672638.814                                  
  22260686.178   116980692.081                                  
  24627742.218   129419660.218                                  
  22313282.634   119151670.7572                                 
  21250890.128   113717846.726                                  
  20000603.277   106764571.620                                  
  21925060.292   117366609.696                                  
  23822682.997                                                  
  23620194.357   126219153.768                                  
  23287187.354   124570767.519                                  
  24358179.142   128003035.063                                  
  21189660.299   113191355.811                                  
  21049278.591   112323000.831                                  
 16  9 24 10 42 24.0010000  0 17G10G16G18G26G27G 8G21R13R21R22R 7R 5
                                R11R23G 7R12R 6
  21333198.206   112106721.746                                  
  21253053.963   111685555.151                                  
  22406866.932   117748889.293                                  
  23041945.235   121086248.681                                  
  20489396.976   107672512.737                                  
  22260293.863   116978631.294                                  
  24628318.599   129422689.361                                  
  22313031.525   119150329.6852                                 
  21251355.804   113720339.964                                  
  20000546.913   106764270.219                                  
  21924446.812   117363328.314                                  
  23823360.554                                                  
  23621086.935   126223924.413                                  
  23286713.231   124568232.025                                  
  24358296.756   128003654.967                                  
  21190094.007   113193674.192                                  
  21049292.098   112323075.492                                  
 16  9 24 10 42 25.0010000  0 17G10G16G18G26G27G 8G21R13R21R22R 7R 5
                                R11R23G 7R12R 6
  21333055.324   112105970.606                                  
  21253526.864   111688038.651                                  
  22407185.503   117750563.281                                  
  23042664.777   121090031.129                                  
  20489373.034   107672388.000                                  
  22259902.105   116976571.645                                  
  24628895.468   129425719.439                                  
  22312780.975   119148990.4242                                 
  21251821.830   113722834.396                                  
  20000490.653   106763970.098                                  
  21923833.333   117360048.356                                  
  23824042.893                                                  
  23621979.828   126228696.123                                  
  23286239.423   124565697.633                                  
  24358414.929   128004276.404                                  
  21190528.377   113195994.356                                  
  21049306.616   112323152.033                                  
 16  9 24 10 42 26.0010000  0 17G10G16G18G26G27G 8G21R13R21R22R 7R 5
                                R11R23G 7R12R 6
  21332912.825   112105220.542                                  
  21253999.450   111690523.137                                  
  22407504.388   117752238.240                                  
  23043384.634   121093814.311                                  
  20489349.511   107672264.080                                  
  22259510.383   116974512.607                                  
  24629472.198   129428750.014                                  
  22312530.320   119147651.9321                                 
  21252287.541   113725329.489                                  
  20000434.743   106763670.740                                  
  21923220.237   117356769.267                                  
  23824720.101                                                  
  23622872.407   126233468.294                                  
  23285766.103   124563163.735                                  
  24358533.067   128004898.884                                  
  21190962.923   113198315.812                                  
  21049321.135   112323229.933                                  
 16  9 24 10 42 27.0010000  0 17G10G16G18G26G27G 8G21R13R21R22R 7R 5
                                R11R23G 7R12R 6
  21332770.327   112104471.432                                  
  21254472.281   111693008.465                                  
  22407823.413   117753914.013                                  
  23044104.909   121097598.082                                  
  20489325.814   107672140.860                                  
  22259118.730   116972454.069                                  
  24630048.718   129431780.964                                  
  22312279.665   119146315.089                                  
  21252753.532   113727825.142                                  
  20000378.588   106763372.014                                  
  21922607.350   117353490.920                                  
  23825400.241                                                  
  23623765.474   126238240.853                                  
  23285292.574   124560630.229                                  
  24358651.554   128005522.277                                  
  21191397.957   113200638.464                                  
  21049335.549   112323309.075                                  
 16  9 24 10 42 28.0010000  0 17G10G16G18G26G27G 8G21R13R21R22R 7R 5
                                R11R23G 7R12R 6
  21332627.933   112103723.207                                  
  21254945.287   111695494.595                                  
  22408142.193   117755590.545                                  
  23044825.463   121101382.377                                  
  20489302.221   107672018.259                                  
  22258727.042   116970395.972                                  
  24630625.413   129434812.142                                  
  22312029.429   119144979.346                                  
  21253220.186   113730321.279                                  
  20000322.712   106763073.860                                  
  21921994.464   117350213.288                                  
  23826079.927                                                  
  23624658.436   126243013.713                                  
  23284821.907   124558097.044                                  
  24358770.006   128006146.507                                  
  21191833.025   113202962.144                                  
  21049350.870   112323389.372                                  
 16  9 24 10 42 29.0010000  0 17G10G16G18G26G27G 8G21R13R21R22R 7R 5
                                R11R23G 7R12R 6
  21332485.469   112102975.947                                  
  21255418.607   111697981.571                                  
  22408461.567   117757267.902                                  
  23045545.599   121105167.266                                  
  20489278.977   107671896.352                                  
  22258335.634   116968338.367                                  
  24631202.247   129437843.690                                  
  22311779.367   119143644.742                                  
  21253686.386   113732817.940                                  
  20000266.627   106762776.351                                  
  21921382.240   117346936.430                                  
  23826756.332                                                  
  23625551.539   126247786.890                                  
  23284351.693   124555564.307                                  
  24358889.121   128006771.682                                  
  21192268.478   113205286.902                                  
  21049366.506   112323470.899                                  
 16  9 24 10 42 30.0010000  0 17G10G16G18G26G27G 8G21R13R21R22R 7R 5
                                R11R23G 7R12R 6
  21332343.459   112102230.129                                  
  21255892.101   111700469.901                                  
  22408781.116   117758946.573                                  
  23046266.153   121108953.252                                  
  20489255.838   107671775.636                                  
  22257944.400   116966281.750                                  
  24631779.500   129440876.070                                  
  22311530.074   119142309.2843                                 
  21254152.865   113735315.642                                  
  20000211.589   106762479.993                                  
  21920769.982   117343660.841                                  
  23827435.111                                                  
  23626444.676   126252561.017                                  
  23283870.172   124553032.413                                  
  24359008.237   128007398.258                                  
  21192704.280   113207613.288                                  
  21049382.560   112323554.149                                  
 16  9 24 10 42 31.0010000  0 17G10G16G18G26G27G 8G21R13R21R22R 7R 5
                                R11R23G 7R12R 6
  21332202.008   112101485.909                                  
  21256365.839   111702959.726                                  
  22409101.048   117760626.709                                  
  23046986.708   121112740.471                                  
  20489233.048   107671656.257                                  
  22257553.236   116964226.284                                  
  24632356.893   129443909.409                                  
  22311281.059   119140978.1262                                 
  21254619.763   113737814.554                                  
  20000156.342   106762184.928                                  
  21920158.317   117340386.651                                  
  23828115.634                                                  
  23627338.301   126257336.155                                  
  23283397.376   124550501.596                                  
  24359127.666   128008026.345                                  
  21193140.291   113209941.479                                  
  21049399.068   112323639.278                                  
 16  9 24 10 42 32.0010000  0 17G10G16G18G26G27G 8G21R13R21R22R 7R 5
                                R11R23G 7R12R 6
  21332060.626   112100742.780                                  
  21256839.892   111705450.558                                  
  22409420.876   117762307.805                                  
  23047707.471   121116528.447                                  
  20489210.258   107671537.730                                  
  22257162.107   116962171.451                                  
  24632934.007   129446943.296                                  
  22311031.730   119139648.2582                                 
  21255086.382   113740314.177                                  
  20000101.164   106761890.658                                  
  21919547.140   117337113.372                                  
  23828794.971                                                  
  23628231.892   126262111.791                                  
  23282920.775   124547971.283                                  
  24359247.130   128008655.501                                  
  21193576.197   113212271.004                                  
  21049415.401   112323725.791                                  
 16  9 24 10 42 33.0010000  0 17G10G16G18G26G27G 8G21R13R21R22R 7R 5
                                R11R23G 7R12R 6
  21331919.733   112100000.760                                  
  21257313.945   111707942.409                                  
  22409740.843   117763989.897                                  
  23048428.549   121120317.157                                  
  20489187.782   107671420.045                                  
  22256771.152   116960117.292                                  
  24633511.051   129449977.672                                  
  22310782.786   119138319.7162                                 
  21255553.210   113742814.502                                  
  20000046.126   106761597.184                                  
  21918936.487   117333841.018                                  
  23829475.076                                                  
  23629125.622   126266887.957                                  
  23282449.480   124545441.512                                  
  24359367.083   128009285.735                                  
  21194012.942   113214601.800                                  
  21049431.769   112323813.691                                  
 16  9 24 10 42 34.0010000  0 17G10G16G18G26G27G 8G21R13R21R22R 7R 5
                                R11R23G 7R12R 6
  21331778.805   112099260.079                                  
  21257788.102   111710435.481                                  
  22410060.880   117765673.175                                  
  23049149.802   121124106.844                                  
  20489165.760   107671303.438                                  
  22256380.128   116958063.994                                  
  24634089.037   129453012.769                                  
  22310534.399   119136992.7242                                 
  21256020.213   113745315.725                                  
  19999991.333   106761304.714                                  
  21918325.939   117330569.816                                  
  23830155.530                                                  
  23630019.457   126271664.897                                  
  23281973.229   124542912.663                                  
  24359486.826   128009917.249                                  
  21194449.511   113216934.054                                  
  21049448.417   112323903.212                                  
 16  9 24 10 42 35.0010000  0 17G10G16G18G26G27G 8G21R13R21R22R 7R 5
                                R11R23G 7R12R 6
  21331637.982   112098520.683                                  
  21258262.643   111712929.736                                  
  22410381.685   117767357.609                                  
  23049871.403   121127897.445                                  
  20489143.494   107671187.851                                  
  22255989.522   116956011.514                                  
  24634667.162   129456048.519                                  
  22310286.048   119135667.2312                                 
  21256487.320   113747817.829                                  
  19999936.644   106761013.200                                  
  21917715.077   117327299.731                                  
  23830836.542                                                  
  23630913.607   126276442.523                                  
  23281490.346   124540384.382                                  
  24359606.849   128010550.001                                  
  21194886.988   113219267.781                                  
  21049465.832   112323994.292                                  
 16  9 24 10 42 36.0010000  0 17G10G16G18G26G27G 8G21R13R21R22R 7R 5
                                R11R23G 7R12R 6
  21331497.682   112097782.916                                  
  21258737.533   111715425.521                                  
  22410702.699   117769043.533                                  
  23050592.795   121131689.338                                  
  20489121.716   107671073.628                                  
  22255599.335   116953960.219                                  
  24635245.218   129459085.295                                  
  22310038.115   119134343.5672                                 
  21256954.846   113750321.177                                  
  19999882.094   106760723.002                                  
  21917104.668   117324031.119                                  
  23831516.996                                                  
  23631807.616   126281221.220                                  
  23281016.747   124537857.272                                  
  24359727.220   128011184.376                                  
  21195324.430   113221603.375                                  
  21049483.317   112324087.298                                  
 16  9 24 10 42 37.0010000  0 17G10G16G18G26G27G 8G21R13R21R22R 7R 5
                                R11R23G 7R12R 6
  21331357.766   112097046.734                                  
  21259212.877   111717922.823                                  
  22411023.888   117770730.929                                  
  23051314.292   121135482.452                                  
  20489100.357   107670960.755                                  
  22255209.183   116951910.078                                  
  24635823.030   129462123.077                                  
  22309790.776   119133021.7332                                 
  21257423.105   113752825.750                                  
  19999828.033   106760434.092                                  
  21916494.748   117320763.917                                  
  23832198.287                                                  
  23632702.498   126286000.872                                  
  23280543.323   124535331.076                                  
  24359847.767   128011820.244                                  
  21195762.116   113223940.786                                  
  21049501.116   112324182.203                                  
 16  9 24 10 42 38.0010000  0 17G10G16G18G26G27G 8G21R13R21R22R 7R 5
                                R11R23G 7R12R 6
  21331217.816   112096312.041                                  
  21259688.117   111720421.496                                  
  22411345.076   117772419.694                                  
  23052036.661   121139276.716                                  
  20489079.347   107670849.098                                  
  22254819.485   116949860.976                                  
  24636400.981   129465161.740                                  
  22309543.750   119131701.0831                                 
  21257891.365   113755331.409                                  
  19999774.008   106760146.368                                  
  21915884.933   117317498.008                                  
  23832878.427                                                  
  23633597.171   126290781.447                                  
  23280079.636   124532805.922                                  
  24359968.627   128012457.536                                  
  21196200.187   113226279.846                                  
  21049519.055   112324278.885                                  
 16  9 24 10 42 39.0010000  0 17G10G16G18G26G27G 8G21R13R21R22R 7R 5
                                R11R23G 7R12R 6
  21331078.563   112095579.260                                  
  21260164.124   111722921.976                                  
  22411667.033   117774110.217                                  
  23052758.786   121143072.499                                  
  20489058.232   107670739.079                                  
  22254430.171   116947813.302                                  
  24636979.316   129468201.691                                  
  22309297.214   119130383.053                                  
  21258360.112   113757838.544                                  
  19999720.435   106759860.237                                  
  21915275.606   117314233.797                                  
  23833559.230                                                  
  23634492.018   126295563.400                                  
  23279602.896   124530282.111                                  
  24360089.487   128013096.752                                  
  21196638.432   113228620.916                                  
  21049537.762   112324377.760                                  
 16  9 24 10 42 40.0010000  0 17G10G16G18G26G27G 8G21R13R21R22R 7R 5
                                R11R23G 7R12R 6
  21330939.589   112094848.734                                  
  21260640.166   111725424.615                                  
  22411989.129   117775802.869                                  
  23053481.679   121146870.194                                  
  20489037.885   107670631.067                                  
  22254040.926   116945767.449                                  
  24637557.582   129471243.275                                  
  22309050.572   119129067.492                                  
  21258829.349   113760347.534                                  
  19999666.863   106759576.088                                  
  21914666.629   117310971.687                                  
  23834240.626                                                  
  23635387.528   126300347.047                                  
  23279134.776   124527760.048                                  
  24360210.801   128013738.081                                  
  21197077.165   113230964.418                                  
  21049556.713   112324479.186                                  
 16  9 24 10 42 41.0010000  0 17G10G16G18G26G27G 8G21R13R21R22R 7R 5
                                R11R23G 7R12R 6
  21330801.104   112094120.415                                  
  21261116.871   111727929.379                                  
  22412311.609   117777497.608                                  
  23054204.886   121150669.746                                  
  20489017.678   107670525.011                                  
  22253652.205   116943723.344                                  
  24638137.034   129474286.459                                  
  22308804.385   119127754.377                                  
  21259298.760   113762858.358                                  
  19999613.850   106759293.858                                  
  21914057.511   117307711.639                                  
  23834924.814                                                  
  23636282.690   126305132.326                                  
  23278657.757                                                  
  24360332.743   128014381.734                                  
  21197516.492   113233310.393                                  
  21049576.292   112324583.126                                  
 16  9 24 10 42 42.0010000  0 17G10G16G18G26G27G 8G21R13R21R22R 7R 5
                                R11R23G 7R12R 6
  21330662.689   112093394.165                                  
  21261593.646   111730436.107                                  
  22412634.403   117779194.278                                  
  23054928.441   121154470.999                                  
  20488997.715   107670420.759                                  
  22253263.658   116941680.851                                  
  24638716.276   129477331.121                                  
  22308559.174   119126443.545                                  
  21259768.519   113765370.882                                  
  19999561.255   106759013.405                                  
  21913449.336   117304453.479                                  
  23835608.688                                                  
  23637178.758   126309919.131                                  
  23278184.472                                                  
  24360454.929   128015027.251                                  
  21197956.167   113235658.652                                  
  21049596.325   112324689.420                                  
 16  9 24 10 42 43.0010000  0 17G10G16G18G26G27G 8G21R13R21R22R 7R 5
                                R11R23G 7R12R 6
  21330524.972   112092670.307                                  
  21262071.258   111732945.117                                  
  22412957.790   117780893.207                                  
  23055652.207   121158274.280                                  
  20488978.310   107670318.641                                  
  22252875.356   116939640.313                                  
  24639295.728   129480377.548                                  
  22308314.348   119125135.339                                  
  21260238.559   113767885.437                                  
  19999509.218   106758735.039                                  
  21912841.091   117301197.555                                  
  23836291.654                                                  
  23638075.246   126314707.716                                  
  23277711.362                                                  
  24360577.500   128015675.232                                  
  21198396.122   113238009.520                                  
  21049616.777   112324798.391                                  
 16  9 24 10 42 44.0010000  0 17G10G16G18G26G27G 8G21R13R21R22R 7R 5
                                R11R23G 7R12R 6
  21330387.569   112091948.763                                  
  21262549.115   111735456.331                                  
  22413281.562   117782594.322                                  
  23056376.181   121162079.515                                  
  20488959.080   107670218.574                                  
  22252487.194   116937601.637                                  
  24639875.738   129483425.704                                  
  22308070.114   119123829.661                                  
  21260709.016   113770401.920                                  
  19999457.391   106758458.677                                  
  21912233.475   117297943.806                                  
  23836972.876                                                  
  23638971.943   126319498.059                                  
  23277239.543                                                  
  24360700.559   128016325.309                                  
  21198836.601   113240362.879                                  
  21049637.717   112324909.966                                  
 16  9 24 10 42 45.0010000  0 17G10G16G18G26G27G 8G21R13R21R22R 7R 5
                                R11R23G 7R12R 6
  21330250.585   112091229.693                                  
  21263027.460   111737969.931                                  
  22413605.996   117784297.777                                  
  23057100.470   121165886.870                                  
  20488940.408   107670120.720                                  
  22252099.624   116935564.989                                  
  24640455.923   129486475.706                                  
  22307825.707   119122526.701                                  
  21261180.347   113772920.461                                  
  19999405.913   106758184.496                                  
  21911626.347   117294692.371                                  
  23837655.040                                                  
  23639869.093   126324290.322                                  
  23276774.844   124515070.2373                                 
  24360824.246   128016977.999                                  
  21199277.951   113242718.909                                  
  21049659.146   112325024.314                                  
 16  9 24 10 42 46.0010000  0 17G10G16G18G26G27G 8G21R13R21R22R 7R 5
                                R11R23G 7R12R 6
  21330114.438   112090513.126                                  
  21263506.329   111740485.951                                  
  22413930.675   117786003.612                                  
  23057825.387   121169696.390                                  
  20488922.155   107670025.132                                  
  22251712.509   116933530.386                                  
  24641036.632   129489527.632                                  
  22307582.171   119121226.489                                  
  21261652.201   113775441.147                                  
  19999354.609   106757912.532                                  
  21911019.254   117291443.270                                  
  23838338.600                                                  
  23640765.825   126329084.559                                  
  23276307.981   124512558.8912                                 
  24360948.526   128017633.109                                  
  21199720.000   113245077.658                                  
  21049680.889   112325141.469                                  
 16  9 24 10 42 47.0010000  0 17G10G16G18G26G27G 8G21R13R21R22R 7R 5
                                R11R23G 7R12R 6
  21329978.536   112089798.940                                  
  21263985.372   111743004.223                                  
  22414255.947   117787711.682                                  
  23058550.758   121173507.902                                  
  20488904.216   107669931.642                                  
  22251325.672   116931497.689                                  
  24641617.514   129492581.305                                  
  22307338.950   119119928.861                                  
  21262124.124   113777963.796                                  
  19999303.864   106757642.629                                  
  21910412.719   117288196.376                                  
  23839021.985                                                  
  23641663.360   126333880.568                                  
  23275841.920   124510049.3912                                 
  24361067.851   128018290.585                                  
  21200162.294   113247438.955                                  
  21049703.330   112325261.275                                  
 16  9 24 10 42 48.0010000  0 17G10G16G18G26G27G 8G21R13R21R22R 7R 5
                                R11R23G 7R12R 6
  21329843.122   112089086.684                                  
  21264465.044   111745524.339                                  
  22414581.254   117789421.554                                  
  23059276.547   121177320.990                                  
  20488886.592   107669839.821                                  
  22250939.150   116929466.463                                  
  24642198.781   129495636.299                                  
  22307096.008   119118633.398                                  
  21262595.559   113780488.015                                  
  19999253.258   106757374.369                                  
  21909806.254   117284951.251                                  
  23839706.871                                                  
  23642561.487   126338677.931                                  
  23275370.520   124507541.2612                                 
  24361191.713   128018949.907                                  
  21200604.866   113249802.393                                  
  21049726.329   112325383.304                                  
 16  9 24 10 42 49.0010000  0 17G10G16G18G26G27G 8G21R13R21R22R 7R 5
                                R11R23G 7R12R 6
  21329707.918   112088376.588                                  
  21264944.960   111748046.534                                  
  22414907.259   117791133.464                                  
  23060002.511   121181135.881                                  
  20488869.595   107669749.929                                  
  22250552.662   116927436.944                                  
  24642780.048   129498692.878                                  
  22306853.834   119117340.321                                  
  21263068.076   113783014.005                                  
  19999203.420   106757107.986                                  
  21909200.173   117281708.132                                  
  23840390.885                                                  
  23643459.580   126343476.950                                  
  23274893.187   124505034.8252                                 
  24361320.635   128019611.276                                  
  21201047.927   113252168.177                                  
  21049749.328   112325507.813                                  
 16  9 24 10 42 50.0010000  0 17G10G16G18G26G27G 8G21R13R21R22R 7R 5
                                R11R23G 7R12R 6
  21329573.482   112087669.034                                  
  21265425.120   111750571.149                                  
  22415233.613   117792847.781                                  
  23060729.138   121184952.940                                  
  20488853.122   107669662.298                                  
  22250166.943   116925409.504                                  
  24643362.152   129501751.358                                  
  22306612.393   119116049.997                                  
  21263540.733   113785542.118                                  
  19999153.827   106756843.837                                  
  21908594.860   117278467.404                                  
  23841075.911                                                  
  23644358.092   126348277.897                                  
  23274425.940   124502530.3032                                 
  24361444.845   128020275.189                                  
  21201491.267   113254536.661                                  
  21049773.130   112325635.156                                  
 16  9 24 10 42 51.0010000  0 17G10G16G18G26G27G 8G21R13R21R22R 7R 5
                                R11R23G 7R12R 6
  21329439.045   112086963.638                                  
  21265905.839   111753097.842                                  
  22415560.211   117794564.134                                  
  23061455.591   121188771.816                                  
  20488836.509   107669576.578                                  
  22249781.258   116923383.773                                  
  24643944.466   129504811.401                                  
  22306371.231   119114762.058                                  
  21264013.704   113788072.018                                  
  19999104.652   106756581.554                                  
  21907990.001   117275228.662                                  
  23841761.320                                                  
  23645257.337   126353080.454                                  
  23273966.824   124500027.5192                                 
  24361572.616   128020941.174                                  
  21201934.991   113256907.494                                  
  21049797.072   112325764.976                                  
 16  9 24 10 42 52.0010000  0 17G10G16G18G26G27G 8G21R13R21R22R 7R 5
                                R11R23G 7R12R 6
  21329305.167   112086260.567                                  
  21266387.116   111755626.738                                  
  22415887.124   117796282.665                                  
  23062182.811   121192592.655                                  
  20488820.560   107669492.912                                  
  22249396.027   116921359.920                                  
  24644526.884   129507873.118                                  
  22306130.523   119113476.653                                  
  21264486.954   113790603.865                                  
  19999055.547   106756321.286                                  
  21907385.386   117271992.056                                  
  23842446.137                                                  
  23646157.000   126357884.703                                  
  23273499.124   124497526.442                                  
  24361700.212   128021609.514                                  
  21202379.344   113259280.861                                  
  21049821.537   112325897.398                                  
 16  9 24 10 42 53.0010000  0 17G10G16G18G26G27G 8G21R13R21R22R 7R 5
                                R11R23G 7R12R 6
  21329171.708   112085559.468                                  
  21266868.777   111758157.524                                  
  22416214.350   117798003.057                                  
  23062910.136   121196415.107                                  
  20488804.576   107669410.979                                  
  22249010.971   116919337.586                                  
  24645109.652   129510936.243                                  
  22305890.338   119112193.433                                  
  21264960.413   113793137.301                                  
  19999007.385   106756062.708                                  
  21906781.468   117268757.269                                  
  23843131.861                                                  
  23647056.210   126362690.399                                  
  23273033.657   124495026.780                                  
  24361821.316   128022279.753                                  
  21202824.220   113261656.462                                  
  21049846.526   112326032.104                                  
 16  9 24 10 42 54.0010000  0 17G10G16G18G26G27G 8G21R13R21R22R 7R 5
                                R11R23G 7R12R 6
  21329038.563   112084860.812                                  
  21267350.961   111760690.627                                  
  22416541.995   117799725.734                                  
  23063638.473   121200239.616                                  
  20488789.499   107669331.201                                  
  22248626.438   116917317.202                                  
  24645692.734   129514001.171                                  
  22305650.153   119110912.872                                  
  21265434.151   113795672.755                                  
  19998959.292   106755806.261                                  
  21906178.005   117265524.753                                  
  23843821.005                                                  
  23647955.699   126367497.989                                  
  23272577.508   124492529.121                                  
  24361949.227   128022952.413                                  
  21203269.375   113264034.644                                  
  21049872.283   112326169.530                                  
 16  9 24 10 42 55.0010000  0 17G10G16G18G26G27G 8G21R13R21R22R 7R 5
                                R11R23G 7R12R 6
  21328905.766   112084164.449                                  
  21267833.634   111763225.943                                  
  22416870.129   117801450.571                                  
  23064366.810   121204066.079                                  
  20488774.980   107669253.476                                  
  22248242.393   116915298.684                                  
  24646276.129   129517067.833                                  
  22305410.631   119109634.839                                  
  21265908.134   113798210.115                                  
  19998911.757   106755551.829                                  
  21905574.995   117262294.385                                  
  23844512.382                                                  
  23648855.641   126372307.321                                  
  23272108.935   124490033.214                                  
  24362074.065   128023627.273                                  
  21203715.437   113266415.273                                  
  21049898.528   112326309.549                                  
 16  9 24 10 42 56.0010000  0 17G10G16G18G26G27G 8G21R13R21R22R 7R 5
                                R11R23G 7R12R 6
  21328773.529   112083470.483                                  
  21268316.377   111765763.565                                  
  22417198.926   117803177.686                                  
  23065095.182   121207894.590                                  
  20488760.636   107669177.881                                  
  22247858.907   116913282.122                                  
  24646859.909   129520136.257                                  
  22305171.843   119108356.9193                                 
  21266382.187   113800749.524                                  
  19998864.956   106755299.510                                  
  21904971.951   117259066.270                                  
  23845200.898                                                  
  23649755.409   126377118.485                                  
  23271641.164   124487539.137                                  
  24362203.721   128024304.556                                  
  21204161.744   113268798.505                                  
  21049925.506   112326452.286                                  
 16  9 24 10 42 57.0010000  0 17G10G16G18G26G27G 8G21R13R21R22R 7R 5
                                R11R23G 7R12R 6
  21328641.919   112082778.754                                  
  21268799.783   111768303.289                                  
  22417527.723   117804906.892                                  
  23065824.078   121211724.957                                  
  20488746.466   107669104.257                                  
  22247475.491   116911267.325                                  
  24647444.107   129523206.306                                  
  22304933.368   119107083.9552                                 
  21266856.344   113803290.788                                  
  19998818.189   106755049.120                                  
  21904369.150   117255840.212                                  
  23845893.183                                                  
  23650655.945   126381931.225                                  
  23271171.195   124485046.707                                  
  24362334.772   128024983.935                                  
  21204608.330   113271184.208                                  
  21049952.868   112326597.536                                  
 16  9 24 10 42 58.0010000  0 17G10G16G18G26G27G 8G21R13R21R22R 7R 5
                                R11R23G 7R12R 6
  21328510.170   112082088.889                                  
  21269283.677   111770844.824                                  
  22417857.393   117806637.831                                  
  23066553.078   121215556.821                                  
  20488732.820   107669032.248                                  
  22247092.529   116909253.946                                  
  24648028.724   129526277.601                                  
  22304695.382   119105813.0902                                 
  21267331.339   113805833.524                                  
  19998772.295   106754800.299                                  
  21903766.839   117252615.826                                  
  23846583.514                                                  
  23651556.202   126386745.352                                  
  23270704.646   124482555.648                                  
  24362464.322   128025665.199                                  
  21205055.474   113273572.007                                  
  21049980.614   112326744.978                                  
 16  9 24 10 42 59.0010000  0 17G10G16G18G26G27G 8G21R13R21R22R 7R 5
                                R11R23G 7R12R 6
  21328379.538   112081400.969                                  
  21269767.886   111773388.180                                  
  22418187.202   117808370.572                                  
  23067282.812   121219390.262                                  
  20488719.593   107668961.921                                  
  22246709.496   116907242.054                                  
  24648613.376   129529350.249                                  
  22304458.164   119104544.3692                                 
  21267806.229   113808377.778                                  
  19998726.331   106754553.119                                  
  21903164.736   117249393.199                                  
  23847274.228                                                  
  23652457.227   126391560.861                                  
  23270239.842   124480065.902                                  
  24362596.106   128026348.296                                  
  21205502.968   113275961.916                                  
  21050009.162   112326894.621                                  
 16  9 24 10 43  0.0010000  0 18G10G16G18G26G27G 8G21R13R21R22R 7R 5
                                R11R23G 7G11R12R 6
  21328248.905   112080715.078                                  
  21270252.339   111775933.480                                  
  22418517.395   117810105.206                                  
  23068012.719   121223225.387                                  
  20488706.750   107668893.362                                  
  22246327.022   116905231.730                                  
  24649198.412   129532424.296                                  
  22304221.155   119103279.9063                                 
  21268281.643   113810923.678                                  
  19998680.961   106754307.663                                  
  21902563.402   117246172.456                                  
  23847966.618                                                  
  23653358.845   126396377.761                                  
  23269774.410   124477577.649                                  
  24362729.112   128027033.422                                  
  24786330.983                                                  
  21205950.670   113278354.000                                  
  21050037.536   112327046.588                                  
 16  9 24 10 43  1.0010000  0 18G10G16G18G26G27G 8G21R13R21R22R 7R 5
                                R11R23G 7G11R12R 6
  21328118.727   112080032.292                                  
  21270737.141   111778481.789                                  
  22418848.426   117811842.842                                  
  23068742.976   121227063.257                                  
  20488694.290   107668827.661                                  
  22245945.107   116903224.080                                  
  24649783.379   129535500.855                                  
  22303984.634   119102016.7992                                 
  21268757.580   113813472.323                                  
  19998636.219   106754065.045                                  
  21901962.451   117242954.699                                  
  23848658.903                                                  
  23654261.056   126401197.209                                  
  23269310.129   124475092.095                                  
  24362864.351   128027721.613                                  
  24785775.892                                                  
  21206399.001   113280749.386                                  
  21050066.399   112327201.980                                  
 16  9 24 10 43  2.0010000  0 18G10G16G18G26G27G 8G21R13R21R22R 7R 5
                                R11R23G 7G11R12R 6
  21327989.211   112079351.931                                  
  21271222.885   111781032.412                                  
  22419179.491   117813582.745                                  
  23069473.896   121230903.186                                  
  20488682.494   107668764.108                                  
  22245563.506   116901218.387                                  
  24650368.868   129538579.242                                  
  22303748.638   119100756.3392                                 
  21269234.181   113816022.999                                  
  19998591.232   106753824.536                                  
  21901361.675   117239739.230                                  
  23849350.176                                                  
  23655163.546   126406018.558                                  
  23268848.641   124472608.355                                  
  24363000.079   128028412.166                                  
  24785213.053                                                  
  21206847.961   113283147.414                                  
  21050095.960   112327360.076                                  
 16  9 24 10 43  3.0010000  0 18G10G16G18G26G27G 8G21R13R21R22R 7R 5
                                R11R23G 7G11R12R 6
  21327859.800   112078673.155                                  
  21271708.315   111783584.519                                  
  22419510.871   117815324.120                                  
  23070204.746   121234744.339                                  
  20488670.628   107668701.899                                  
  22245182.288   116899213.822                                  
  24650954.533   129541658.576                                  
  22303512.920   119099497.6842                                 
  21269711.305   113818574.848                                  
  19998546.769   106753585.312                                  
  21900761.039   117236525.156                                  
  23850042.670                                                  
  23656066.176   126410840.919                                  
  23268384.255   124470125.627                                  
  24363132.770   128029104.362                                  
  24784648.050                                                  
  21207297.094   113285547.293                                  
  21050126.113   112327520.058                                  
 16  9 24 10 43  4.0010000  0 18G10G16G18G26G27G 8G21R13R21R22R 7R 5
                                R11R23G 7G11R12R 6
  21327730.843   112077995.847                                  
  21272194.478   111786137.988                                  
  22419842.809   117817066.826                                  
  23070935.840   121238586.595                                  
  20488659.180   107668640.890                                  
  22244800.931   116897210.287                                  
  24651540.406   129544738.802                                  
  22303277.168   119098240.7102                                 
  21270188.777   113821127.767                                  
  19998502.026   106753347.250                                  
  21900160.577   117233312.333                                  
  23850735.200                                                  
  23656968.841   126415664.195                                  
  23267917.637   124467643.811                                  
  24363265.915   128029797.839                                  
  24784086.187                                                  
  21207746.577   113287948.790                                  
  21050155.674   112327681.797                                  
 16  9 24 10 43  5.0010000  0 18G10G16G18G26G27G 8G21R13R21R22R 7R 5
                                R11R23G 7G11R12R 6
  21327602.270   112077320.041                                  
  21272680.641   111788692.852                                  
  22420174.572   117818810.891                                  
  23071667.388   121242429.980                                  
  20488647.803   107668581.121                                  
  22244419.609   116895207.778                                  
  24652126.035   129547819.877                                  
  22303042.392   119096985.4432                                 
  21270666.285   113823681.775                                  
  19998457.075   106753110.362                                  
  21899560.673   117230100.830                                  
  23851427.869                                                  
  23657871.401   126420488.288                                  
  23267454.438   124465163.019                                  
  24363398.781   128030492.864                                  
  24783527.746                                                  
  21208196.164   113290351.881                                  
  21050186.387   112327845.299                                  
 16  9 24 10 43  6.0010000  0 18G10G16G18G26G27G 8G21R13R21R22R 7R 5
                                R11R23G 7G11R12R 6
  21327473.836   112076644.825                                  
  21273166.804   111791248.216                                  
  22420506.685   117820555.415                                  
  23072399.006   121246273.615                                  
  20488636.530   107668521.683                                  
  22244038.461   116893205.421                                  
  24652712.014   129550900.941                                  
  22302807.303   119095730.9722                                 
  21271143.967   113826236.008                                  
  19998412.786   106752873.747                                  
  21898960.455   117226889.731                                  
  23852122.632                                                  
  23658774.485   126425312.418                                  
  23266990.681   124462682.193                                  
  24363531.857   128031188.371                                  
  24782968.850                                                  
  21208645.787   113292755.719                                  
  21050217.727   112328009.689                                  
 16  9 24 10 43  7.0010000  0 17G10G16G18G26G27G 8G21R13R21R22R 7R 5
                                R11R23G 7R12R 6
  21327345.438   112075969.940                                  
  21273653.456   111793803.810                                  
  22420838.797   117822300.132                                  
  23073130.624   121250117.212                                  
  20488624.908   107668462.329                                  
  22243657.663   116891202.946                                  
  24653297.573   129553981.746                                  
  22302572.633   119094477.0302                                 
  21271621.440   113828790.151                                  
  19998368.253   106752637.147                                  
  21898359.609   117223678.777                                  
  23852818.093                                                  
  23659677.045   126430136.315                                  
  23266527.134   124460201.179                                  
  24363663.222   128031884.169                                  
  21209095.409   113295160.115                                  
  21050248.963   112328174.687                                  
 16  9 24 10 43  8.0010000  0 17G10G16G18G26G27G 8G21R13R21R22R 7R 5
                                R11R23G 7R12R 6
  21327217.109   112075295.266                                  
  21274140.038   111796359.501                                  
  22421170.631   117824044.942                                  
  23073862.486   121253960.650                                  
  20488613.705   107668402.914                                  
  22243276.480   116889200.204                                  
  24653883.447   129557062.164                                  
  22302338.032   119093222.9901                                 
  21272098.529   113831344.023                                  
  19998324.034   106752400.412                                  
  21897759.496   117220467.822                                  
  23853513.623                                                  
  23660580.233   126434959.801                                  
  23266063.865   124457719.788                                  
  24363796.227   128032580.173                                  
  21209545.415   113297564.929                                  
  21050280.164   112328340.162                                  
 16  9 24 10 43  9.0010000  0 17G10G16G18G26G27G 8G21R13R21R22R 7R 5
                                R11R23G 7R12R 6
  21327089.094   112074621.143                                  
  21274626.759   111798915.653                                  
  22421502.953   117825790.169                                  
  23074594.069   121257804.286                                  
  20488602.432   107668343.793                                  
  22242895.158   116887197.568                                  
  24654469.390   129560142.493                                  
  22302103.466   119091970.198                                  
  21272575.828   113833898.042                                  
  19998279.396   106752163.904                                  
  21897159.628   117217257.231                                  
  23854207.618                                                  
  23661482.758   126439783.252                                  
  23265600.562   124455238.414                                  
  24363928.954   128033276.655                                  
  21209995.596   113299970.451                                  
  21050311.225   112328506.476                                  
 16  9 24 10 43 10.0010000  0 17G10G16G18G26G27G 8G21R13R21R22R 7R 5
                                R11R23G 7R12R 6
  21326961.254   112073948.050                                  
  21275113.167   111801472.719                                  
  22421835.310   117827536.290                                  
  23075325.652   121261648.580                                  
  20488591.229   107668285.447                                  
  22242514.115   116885195.518                                  
  24655055.543   129563223.265                                  
  22301868.900   119090718.640                                  
  21273053.300   113836452.682                                  
  19998235.457   106751928.116                                  
  21896559.794   117214047.508                                  
  23854900.951                                                  
  23662385.493   126444607.112                                  
  23265136.910   124452757.489                                  
  24364060.982   128033974.162                                  
  21210446.091   113302377.128                                  
  21050342.880   112328674.078                                  
 16  9 24 10 43 11.0010000  0 17G10G16G18G26G27G 8G21R13R21R22R 7R 5
                                R11R23G 7R12R 6
  21326833.623   112073275.531                                  
  21275599.749   111804030.263                                  
  22422167.701   117829282.852                                  
  23076057.235   121265493.086                                  
  20488580.061   107668227.416                                  
  22242133.456   116883193.591                                  
  24655641.068   129566304.020                                  
  22301634.683   119089467.851                                  
  21273531.052   113839007.498                                  
  19998191.343   106751692.573                                  
  21895960.274   117210838.192                                  
  23855596.307                                                  
  23663288.263   126449430.916                                  
  23264673.292   124450276.554                                  
  24364193.429   128034672.153                                  
  21210896.690   113304784.492                                  
  21050374.639   112328842.537                                  
 16  9 24 10 43 12.0010000  0 17G10G16G18G26G27G 8G21R13R21R22R 7R 5
                                R11R23G 7R12R 6
  21326706.236   112072603.652                                  
  21276086.784   111806588.345                                  
  22422500.128   117831029.926                                  
  23076788.678   121269337.875                                  
  20488569.137   107668169.763                                  
  22241752.378   116881191.842                                  
  24656226.837   129569384.769                                  
  22301400.990   119088217.899                                  
  21274008.630   113841562.541                                  
  19998147.787   106751457.355                                  
  21895360.929   117207629.319                                  
  23856289.709                                                  
  23664191.311   126454254.807                                  
  23264209.710   124447795.670                                  
  24364326.679   128035370.764                                  
  21211347.185   113307192.730                                  
  21050406.678   112329011.904                                  
 16  9 24 10 43 13.0010000  0 17G10G16G18G26G27G 8G21R13R21R22R 7R 5
                                R11R23G 7R12R 6
  21326578.570   112071932.326                                  
  21276573.680   111809146.869                                  
  22422832.659   117832777.409                                  
  23077520.087   121273182.850                                  
  20488558.213   107668112.407                                  
  22241371.510   116879190.198                                  
  24656812.989   129572465.474                                  
  22301167.087   119086968.677                                  
  21274485.928   113844117.689                                  
  19998103.917   106751222.359                                  
  21894761.584   117204420.808                                  
  23856988.136                                                  
  23665094.430   126459078.679                                  
  23263746.197   124445314.772                                  
  24364459.650   128036069.864                                  
  21211798.238   113309601.695                                  
  21050438.682   112329182.061                                  
 16  9 24 10 43 14.0010000  0 17G10G16G18G26G27G 8G21R13R21R22R 7R 5
                                R11R23G 7R12R 6
  21326451.289   112071262.436                                  
  21277060.995   111811706.715                                  
  22423165.784   117834526.190                                  
  23078251.984   121277028.902                                  
  20488547.185   107668056.212                                  
  22240990.536   116877189.519                                  
  24657399.491   129575547.004                                  
  22300933.603   119085721.106                                  
  21274963.925   113846673.876                                  
  19998059.943   106750988.484                                  
  21894162.658   117201213.538                                  
  23857683.492                                                  
  23665997.339   126463903.371                                  
  23263282.824   124442834.788                                  
  24364593.074   128036770.396                                  
  21212249.152   113312012.241                                  
  21050471.034   112329353.924                                  
