     2.10           OBSERVATION DATA    M (MIXED)           RINEX VERSION / TYPE
RTKCONV-QT 2.4.3 b18                    20160924 145150 UTC PGM / RUN BY / DATE 
log: /home/hylkema/Programs/lawnmower/Test/GPS/test2/PC/Ba  COMMENT             
format: u-blox                                              COMMENT             
                                                            MARKER NAME         
                                                            MARKER NUMBER       
                                                            OBSERVER / AGENCY   
                                                            REC # / TYPE / VERS 
                                                            ANT # / TYPE        
  4658497.5981    96926.6984  4341515.3834                  APPROX POSITION XYZ 
        0.0000        0.0000        0.0000                  ANTENNA: DELTA H/E/N
     1     1                                                WAVELENGTH FACT L1/2
     4    C1    L1    D1    S1                              # / TYPES OF OBSERV 
  2016     9    24    14     4   43.0000000     GPS         TIME OF FIRST OBS   
  2016     9    24    14    44   34.0010000     GPS         TIME OF LAST OBS    
                                                            END OF HEADER       
 16  9 24 14  4 43.0000000  0 22R16G11R17G23G27R 1R 2G28G 8G17R22R24
                                G 1R 7G32R 8R23G14G22G 3G10R15
  24394897.761   130313143.149         414.553          40.000  
  20046256.060   105343836.347        -763.833          46.000  
  24374755.201   130434285.228        3668.036          36.000  
  25333562.832   133128807.479        3145.124          38.000  
  24845839.611   130565711.234       -4126.660          38.000  
  19839619.634   106054213.601        1786.497          51.000  
  24074346.325   128465246.979        3858.818          38.000  
  23354948.081   122731123.183        -824.541          43.000  
  21811502.183   114620218.769       -3199.101          46.000  
  24836370.565   130516016.087        3030.977          39.000  
  23342682.380   124604756.050       -4124.125          47.000  
  20113283.604   107554845.440        2085.941          45.000  
  20366269.042   107025478.177         174.530          47.000  
  23453240.914   125547106.230       -4484.462          41.000  
  23084960.685   121312396.520       -2166.872          42.000  
  19734469.334   105677186.523       -2217.947          51.000  
  19498499.174   104303874.722       -1532.059          52.000  
  22160617.346   116454949.662        -225.729          45.000  
  20542913.617   107953774.047         530.629          48.000  
  21416391.212   112543904.195        1806.360          48.000  
  25738166.163   135254971.441       -3765.461          35.000  
  24403865.417                       -2509.336          23.000  
 16  9 24 14  4 44.0000000  0 22R16G11R17G23G27R 1R 2G28G 8G17R22R24
                                G 1R 7G32R 8R23G14G22G 3G10R15
  24394820.212   130312729.187         413.197          39.000  
  20046401.769   105344600.569        -764.565          46.000  
  24374069.442   130430616.715        3668.495          35.000  
  25332964.254   133125662.926        3144.439          37.000  
  24846625.046   130569838.206       -4127.303          38.000  
  19839285.114   106052427.589        1785.586          51.000  
  24073623.537   128461387.862        3858.890          38.000  
  23355105.377   122731948.304        -825.628          43.000  
  21812111.125   114623418.180       -3199.862          46.000  
  24835793.765   130512985.183        3030.617          39.000  
  23343454.552   124608880.543       -4124.814          46.000  
  20112893.731   107552759.824        2085.091          45.000  
  20366235.852   107025303.966         173.874          47.000  
  23454078.560   125551590.732       -4484.603          42.000  
  23085373.313   121314564.086       -2167.958          42.000  
  19734883.672   105679405.039       -2218.900          51.000  
  19498785.392   104305407.239       -1532.944          52.000  
  22160660.483   116455175.831        -226.791          46.000  
  20542812.755   107953243.967         529.729          49.000  
  21416047.756   112542098.330        1805.540          48.000  
  25738882.634   135258737.066       -3765.829          35.000  
  24404336.643                       -2510.792          22.000  
 16  9 24 14  4 45.0000000  0 22R16G11R17G23G27R 1R 2G28G 8G17R22R24
                                G 1R 7G32R 8R23G14G22G 3G10R15
  24394742.594   130312315.988         412.623          39.000  
  20046547.374   105345365.293        -764.925          46.000  
  24373384.137   130426948.162        3667.936          35.000  
  25332365.712   133122518.284        3144.413          37.000  
  24847409.887   130573965.201       -4127.145          37.000  
  19838950.244   106050642.261        1784.938          51.000  
  24072901.063   128457528.808        3858.844          38.000  
  23355262.464   122732773.940        -825.630          43.000  
  21812719.615   114626617.966       -3199.890          46.000  
  24835217.070   130509954.376        3030.879          39.000  
  23344226.690   124613005.227       -4124.868          46.000  
  20112503.684   107550674.632        2084.921          45.000  
  20366202.836   107025130.083         173.636          47.000  
  23454916.659   125556075.302       -4484.603          42.000  
  23085785.871   121316732.182       -2168.331          43.000  
  19735298.045   105681624.198       -2219.428          51.000  
  19499071.716   104306940.411       -1533.492          52.000  
  22160703.550   116455402.581        -227.177          46.000  
  20542712.312   107952714.293         529.535          49.000  
  21415704.196   112540292.831        1805.387          48.000  
  25739599.279   135262502.622       -3765.957          37.000  
  24404806.508                       -2518.979          22.000  
 16  9 24 14  4 46.0000000  0 22R16G11R17G23G27R 1R 2G28G 8G17R22R24
                                G 1R 7G32R 8R23G14G22G 3G10R15
  24394665.534   130311903.702         411.951          39.000  
  20046693.083   105346130.689        -765.598          46.000  
  24372699.007   130423279.656        3668.530          36.000  
  25331767.065   133119373.657        3144.740          37.000  
  24848195.495   130578092.362       -4126.964          37.000  
  19838616.282   106048857.770        1784.202          51.000  
  24072178.484   128453669.948        3859.022          38.000  
  23355419.865   122733600.266        -826.709          43.000  
  21813329.011   114629818.284       -3200.338          46.000  
  24834640.480   130506923.845        3030.679          39.000  
  23344999.420   124617130.255       -4124.979          47.000  
  20112113.672   107548590.049        2084.335          45.000  
  20366169.855   107024956.641         173.613          48.000  
  23455754.513   125560560.052       -4484.687          41.000  
  23086198.917   121318900.963       -2169.116          43.000  
  19735712.417   105683844.136       -2220.078          51.000  
  19499357.794   104308474.388       -1534.224          51.000  
  22160746.862   116455630.080        -227.641          45.000  
  20542611.345   107952185.175         529.084          48.000  
  21415360.671   112538487.863        1804.720          48.000  
  25740315.750   135266268.213       -3765.466          36.000  
  24405274.697                       -2515.140          21.000  
 16  9 24 14  4 47.0000000  0 22R16G11R17G23G27R 1R 2G28G 8G17R22R24
                                G 1R 7G32R 8R23G14G22G 3G10R15
  24394588.683   130311492.184         411.243          39.000  
  20046838.478   105346896.607        -766.084          46.000  
  24372013.632   130419611.070        3668.700          36.000  
  25331168.732   133116228.968        3145.070          38.000  
  24848981.139   130582219.620       -4127.063          38.000  
  19838282.075   106047073.976        1783.601          51.000  
  24071455.522   128449811.238        3858.616          38.000  
  23355577.580   122734427.149        -827.103          42.000  
  21813938.128   114633018.996       -3200.546          47.000  
  24834063.227   130503893.387        3030.349          39.000  
  23345772.430   124621255.506       -4124.982          47.000  
  20111724.078   107546505.908        2084.039          46.000  
  20366136.944   107024783.556         173.140          48.000  
  23456591.879   125565044.860       -4484.661          42.000  
  23086611.720   121321070.288       -2169.534          43.000  
  19736127.000   105686064.730       -2220.795          51.000  
  19499644.571   104310009.036       -1534.920          52.000  
  22160790.452   116455858.196        -228.279          45.000  
  20542510.727   107951656.489         528.718          49.000  
  21415017.007   112536683.279        1804.432          48.000  
  25741032.221   135270033.792       -3765.401          36.000  
  24405745.853                       -2508.202          22.000  
 16  9 24 14  4 48.0000000  0 22R16G11R17G23G27R 1R 2G28G 8G17R22R24
                                G 1R 7G32R 8R23G14G22G 3G10R15
  24394511.693   130311081.241         410.758          40.000  
  20046984.572   105347662.938        -766.488          46.000  
  24371328.013   130415942.221        3669.422          35.000  
  25330570.259   133113084.101        3144.761          38.000  
  24849766.748   130586346.769       -4126.705          38.000  
  19837948.706   106045290.748        1783.101          51.000  
  24070732.734   128445952.517        3859.133          38.000  
  23355735.016   122735254.423        -827.360          43.000  
  21814547.281   114636220.001       -3200.972          47.000  
  24833486.323   130500862.906        3030.951          39.000  
  23346545.265   124625380.902       -4125.298          48.000  
  20111334.415   107544422.107        2083.841          46.000  
  20366103.719   107024610.690         173.017          47.000  
  23457429.979   125569529.676       -4484.752          42.000  
  23087024.348   121323240.073       -2169.885          43.000  
  19736541.757   105688285.841       -2221.189          51.000  
  19499931.488   104311544.220       -1535.288          52.000  
  22160833.450   116456086.803        -228.685          45.000  
  20542409.830   107951128.112         528.309          48.000  
  21414673.936   112534878.963        1804.481          48.000  
  25741748.832   135273799.161       -3765.120          36.000  
  24406217.078                       -2509.381          23.000  
 16  9 24 14  4 49.0000000  0 22R16G11R17G23G27R 1R 2G28G 8G17R22R24
                                G 1R 7G32R 8R23G14G22G 3G10R15
  24394434.981   130310671.178         409.796          40.000  
  20047130.525   105348429.881        -767.022          46.000  
  24370642.149   130412273.446        3668.794          35.000  
  25329971.996   133109939.231        3144.952          38.000  
  24850552.566   130590474.138       -4127.395          38.000  
  19837614.953   106043508.318        1782.282          51.000  
  24070010.050   128442094.120        3858.609          38.000  
  23355892.486   122736082.367        -828.177          43.000  
  21815156.503   114639421.498       -3201.552          47.000  
  24832909.593   130497832.658        3030.472          39.000  
  23347318.589   124629506.624       -4125.677          48.000  
  20110945.031   107542338.848        2083.102          46.000  
  20366070.982   107024438.250         172.524          48.000  
  23458268.147   125574014.713       -4485.065          42.000  
  23087437.673   121325410.500       -2170.412          43.000  
  19736956.409   105690507.727       -2222.052          51.000  
  19500218.684   104313080.167       -1536.076          52.000  
  22160876.796   116456316.126        -229.605          45.000  
  20542308.932   107950600.248         527.758          48.000  
  21414330.585   112533075.148        1803.813          48.000  
  25742465.617   135277564.600       -3765.548          36.000  
  24406689.107                       -2514.736          22.000  
 16  9 24 14  4 50.0000000  0 22R16G11R17G23G27R 1R 2G28G 8G17R22R24
                                G 1R 7G32R 8R23G14G22G 3G10R15
  24394358.061   130310261.797         409.425          40.000  
  20047276.444   105349197.314        -767.360          46.000  
  24369956.146   130408604.430        3669.583          35.000  
  25329373.907   133106794.216        3145.369          38.000  
  24851338.000   130594601.464       -4126.816          38.000  
  19837281.759   106041726.539        1781.754          51.000  
  24069287.751   128438235.814        3858.463          38.000  
  23356050.655   122736910.792        -828.310          43.000  
  21815765.899   114642623.328       -3201.764          47.000  
  24832332.794   130494802.435        3030.852          39.000  
  23348091.599   124633632.523       -4125.632          47.000  
  20110555.996   107540255.988        2082.998          46.000  
  20366038.210   107024266.113         172.168          48.000  
  23459106.072   125578499.774       -4484.623          41.000  
  23087850.511   121327581.422       -2170.885          43.000  
  19737370.921   105692730.199       -2222.446          51.000  
  19500506.019   104314616.715       -1536.447          52.000  
  22160920.352   116456546.001        -229.860          45.000  
  20542208.594   107950072.765         527.589          48.000  
  21413987.444   112531271.669        1803.788          47.000  
  25743182.437   135281329.915       -3764.636          36.000  
  24407159.809                       -2518.385          21.000  
 16  9 24 14  4 51.0000000  0 22R16G11R17G23G27R 1R 2G28G 8G17R22R24
                                G 1R 7G32R 8R23G14G22G 3G10R15
  24394281.350   130309853.034         408.555          39.000  
  20047422.607   105349965.096        -768.059          46.000  
  24369270.388   130404935.229        3669.661          35.000  
  25328775.225   133103648.984        3145.411          38.000  
  24852123.539   130598728.688       -4127.233          38.000  
  19836948.564   106039945.261        1780.915          51.000  
  24068564.858   128434377.393        3858.274          38.000  
  23356208.614   122737739.604        -828.998          43.000  
  21816375.086   114645825.380       -3202.115          47.000  
  24831756.378   130491772.170        3030.085          39.000  
  23348864.853   124637758.478       -4126.057          48.000  
  20110166.402   107538173.416        2082.235          46.000  
  20366005.369   107024094.122         171.724          47.000  
  23459944.241   125582984.723       -4485.012          41.000  
  23088264.151   121329752.696       -2171.561          44.000  
  19737785.643   105694953.148       -2223.336          51.000  
  19500793.145   104316153.766       -1537.461          51.000  
  22160964.117   116456776.322        -230.676          45.000  
  20542108.360   107949545.539         526.859          48.000  
  21413643.849   112529468.427        1802.791          47.000  
  25743899.222   135285095.002       -3765.127          37.000  
  24407630.651                       -2502.239          21.000  
 16  9 24 14  4 52.0000000  0 22R16G11R17G23G27R 1R 2G28G 8G17R22R24
                                G 1R 7G32R 8R23G14G22G 3G10R15
  24394205.197   130309444.947         407.352          40.000  
  20047568.910   105350733.284        -768.580          45.000  
  24368584.664   130401265.865        3669.176          35.000  
  25328176.543   133100503.538        3145.366          38.000  
  24852909.183   130602855.835       -4127.396          38.000  
  19836615.265   106038164.538        1780.278          51.000  
  24067842.454   128430518.930        3858.532          39.000  
  23356366.818   122738568.826        -829.681          43.000  
  21816984.867   114649027.716       -3202.666          47.000  
  24831179.893   130488741.862        3030.162          39.000  
  23349637.723   124641884.522       -4126.274          48.000  
  20109776.843   107536091.180        2081.850          46.000  
  20365972.807   107023922.350         171.323          47.000  
  23460782.305   125587469.641       -4485.405          41.000  
  23088677.511   121331924.424       -2171.988          44.000  
  19738200.295   105697176.614       -2223.909          50.000  
  19501080.445   104317691.343       -1538.067          52.000  
  22161007.882   116457007.128        -231.260          45.000  
  20542007.742   107949018.605         526.455          48.000  
  21413300.499   112527665.419        1802.476          47.000  
  25744615.938   135288859.916       -3765.319          36.000  
  24408099.852                       -2518.994          22.000  
 16  9 24 14  4 53.0000000  0 22R16G11R17G23G27R 1R 2G28G 8G17R22R24
                                G 1R 7G32R 8R23G14G22G 3G10R15
  24394128.590   130309037.688         406.488          39.000  
  20047715.038   105351502.077        -769.125          45.000  
  24367898.975   130397596.474        3668.987          35.000  
  25327577.931   133097358.098        3145.259          38.000  
  24853694.583   130606983.120       -4127.449          38.000  
  19836281.966   106036384.586        1779.500          51.000  
  24067119.666   128426660.676        3857.881          38.000  
  23356524.812   122739398.690        -830.275          43.000  
  21817594.333   114652230.529       -3203.173          46.000  
  24830603.477   130485711.744        3030.117          39.000  
  23350410.872   124646010.871       -4126.605          48.000  
  20109388.122   107534009.497        2081.160          46.000  
  20365940.280   107023750.996         171.011          47.000  
  23461620.020   125591954.694       -4485.335          41.000  
  23089090.628   121334096.774       -2172.694          43.000  
  19738615.331   105699400.820       -2224.589          50.000  
  19501367.745   104319229.664       -1538.839          52.000  
  22161051.857   116457238.630        -231.857          45.000  
  20541907.822   107948492.179         526.029          48.000  
  21412957.881   112525862.885        1802.166          48.000  
  25745332.374   135292624.860       -3765.406          35.000  
  24408570.869                       -2515.137          21.000  
 16  9 24 14  4 54.0000000  0 22R16G11R17G23G27R 1R 2G28G 8G17R22R24
                                G 1R 7G32R 8R23G14G22G 3G10R15
  24394052.507   130308631.139         406.233          39.000  
  20047861.375   105352271.368        -769.521          45.000  
  24367213.286   130393926.955        3669.093          35.000  
  25326979.039   133094212.558        3145.389          38.000  
  24854479.912   130611110.446       -4127.370          38.000  
  19835948.702   106034605.293        1778.755          51.000  
  24066397.018   128422802.515        3857.935          38.000  
  23356682.981   122740229.054        -830.705          43.000  
  21818203.694   114655433.705       -3203.367          47.000  
  24830027.201   130482681.731        3029.706          39.000  
  23351183.847   124650137.426       -4126.724          48.000  
  20108998.982   107531928.209        2081.127          46.000  
  20365907.822   107023579.939         170.827          47.000  
  23462458.678   125596439.810       -4485.200          42.000  
  23089504.163   121336269.639       -2173.000          44.000  
  19739030.716   105701625.662       -2225.255          50.000  
  19501655.814   104320768.621       -1539.392          52.000  
  22161096.041   116457470.721        -232.511          45.000  
  20541807.623   107947966.152         525.891          48.000  
  21412614.845   112524060.712        1801.935          48.000  
  25746049.124   135296389.682       -3764.905          34.000  
  24409042.339                       -2512.186          22.000  
 16  9 24 14  4 55.0000000  0 22R16G11R17G23G27R 1R 2G28G 8G17R22R24
                                G 1R 7G32R 8R23G14G22G 3G10R15
  24393976.599   130308225.284         405.641          39.000  
  20048007.678   105353041.089        -769.881          46.000  
  24366527.632   130390257.250        3669.620          35.000  
  25326380.078   133091066.851        3145.317          38.000  
  24855265.172   130615237.705       -4127.215          39.000  
  19835616.101   106032826.572        1778.377          51.000  
  24065674.299   128418944.409        3858.090          38.000  
  23356841.394   122741059.873        -831.183          43.000  
  21818813.300   114658637.183       -3203.760          47.000  
  24829450.786   130479651.684        3030.025          39.000  
  23351956.543   124654264.119       -4126.746          48.000  
  20108609.878   107529847.310        2080.643          46.000  
  20365875.190   107023409.138         170.596          47.000  
  23463296.463   125600924.912       -4485.084          42.000  
  23089918.117   121338442.995       -2173.546          44.000  
  19739446.031   105703851.049       -2225.675          50.000  
  19501943.812   104322308.139       -1539.920          52.000  
  22161140.050   116457703.328        -232.985          45.000  
  20541707.772   107947440.467         525.444          48.000  
  21412272.227   112522258.849        1801.674          48.000  
  25746765.281   135300154.395       -3764.954          34.000  
  24409511.714                       -2521.398          22.000  
 16  9 24 14  4 56.0000000  0 22R16G11R17G23G27R 1R 2G28G 8G17R22R24
                                G 1R 7G32R 8R23G14G22G 3G10R15
  24393900.516   130307820.178         404.681          39.000  
  20048154.225   105353811.369        -770.375          46.000  
  24365841.839   130386587.451        3669.607          35.000  
  25325781.186   133087921.065        3146.029          38.000  
  24856051.234   130619365.047       -4127.142          39.000  
  19835283.639   106031048.558        1777.741          51.000  
  24064951.581   128415086.509        3857.633          38.000  
  23356999.528   122741891.256        -831.459          43.000  
  21819422.767   114661841.062       -3204.028          47.000  
  24828874.579   130476621.803        3029.815          40.000  
  23352729.867   124658391.071       -4126.974          48.000  
  20108221.087   107527766.872        2080.444          46.000  
  20365842.698   107023238.690         170.364          47.000  
  23464134.352   125605410.125       -4485.144          42.000  
  23090332.036   121340616.902       -2173.961          44.000  
  19739861.591   105706077.118       -2226.269          50.000  
  19502231.950   104323848.341       -1540.359          52.000  
  22161184.653   116457936.555        -233.351          45.000  
  20541607.643   107946915.218         525.232          48.000  
  21411929.296   112520457.398        1801.399          48.000  
  25747481.473   135303919.041       -3764.555          34.000  
  24409984.301                       -2517.763          21.000  
 16  9 24 14  4 57.0000000  0 22R16G11R17G23G27R 1R 2G28G 8G17R22R24
                                G 1R 7G32R 8R23G14G22G 3G10R15
  24393824.852   130307415.771         403.862          39.000  
  20048301.051   105354582.107        -770.966          45.000  
  24365155.871   130382917.490        3669.834          34.000  
  25325182.539   133084775.125        3146.212          38.000  
  24856837.088   130623492.380       -4127.124          39.000  
  19834951.317   106029271.153        1777.074          51.000  
  24064228.898   128411228.645        3857.905          38.000  
  23357157.976   122742723.139        -832.276          43.000  
  21820032.477   114665045.282       -3204.424          47.000  
  24828298.234   130473591.951        3029.498          39.000  
  23353502.876   124662518.199       -4127.257          48.000  
  20107832.435   107525686.834        2079.879          46.000  
  20365810.380   107023068.513         169.958          47.000  
  23464971.928   125609895.360       -4485.101          41.000  
  23090745.886   121342791.306       -2174.758          44.000  
  19740277.325   105708303.794       -2226.992          51.000  
  19502520.367   104325389.149       -1541.129          52.000  
  22161229.256   116458170.349        -234.151          45.000  
  20541507.688   107946390.344         524.569          48.000  
  21411586.434   112518656.261        1800.898          47.000  
  25748197.770   135307683.561       -3764.129          33.000  
  24410455.457                       -2518.393          19.000  
 16  9 24 14  4 58.0000000  0 22R16G11R17G23G27R 1R 2G28G 8G17R22R24
                                G 1R 7G32R 8R23G14G22G 3G10R15
  24393748.874   130307012.228         403.572          39.000  
  20048447.598   105355353.478        -771.548          45.000  
  24364469.903   130379247.512        3670.110          35.000  
  25324583.997   133081629.250        3146.079          38.000  
  24857622.941   130627619.876       -4127.264          40.000  
  19834618.507   106027494.552        1776.381          51.000  
  24063506.284   128407370.975        3857.506          38.000  
  23357316.564   122743555.648        -832.660          43.000  
  21820642.502   114668249.997       -3204.866          47.000  
  24827721.574   130470562.314        3029.489          40.000  
  23354276.340   124666645.651       -4127.359          48.000  
  20107443.400   107523607.341        2079.414          46.000  
  20365778.237   107022898.776         169.760          47.000  
  23465809.678   125614380.757       -4485.055          41.000  
  23091160.328   121344966.359       -2175.302          44.000  
  19740693.373   105710531.244       -2227.573          50.000  
  19502808.715   104326930.724       -1541.759          52.000  
  22161273.649   116458404.863        -234.573          45.000  
  20541407.908   107945865.997         524.287          48.000  
  21411243.537   112516855.628        1800.652          47.000  
  25748913.822   135311448.138       -3763.674          32.000  
  24410926.124                       -2514.863          21.000  
 16  9 24 14  4 59.0000000  0 22R16G11R17G23G27R 1R 2G28G 8G17R22R24
                                G 1R 7G32R 8R23G14G22G 3G10R15
  24393673.838   130306609.416         402.427          39.000  
  20048594.354   105356125.350        -772.151          45.000  
  24363783.655   130375577.566        3669.474          34.000  
  25323984.896   133078483.237        3146.444          38.000  
  24858408.166   130631747.394       -4127.628          39.000  
  19834286.010   106025718.616        1775.546          50.000  
  24062784.055   128403513.362        3857.829          38.000  
  23357475.465   122744388.673        -833.133          44.000  
  21821252.527   114671455.069       -3205.181          47.000  
  24827145.263   130467532.722        3029.779          40.000  
  23355049.803   124670773.321       -4127.958          48.000  
  20107055.063   107521528.268        2078.937          47.000  
  20365745.954   107022729.351         169.130          47.000  
  23466647.916   125618866.220       -4485.671          41.000  
  23091574.562   121347141.929       -2175.694          44.000  
  19741109.351   105712759.317       -2228.378          50.000  
  19503097.062   104328472.938       -1542.551          52.000  
  22161318.740   116458639.946        -235.453          45.000  
  20541308.058   107945342.046         523.804          48.000  
  21410900.745   112515055.363        1799.979          47.000  
  25749629.804   135315212.662       -3764.129          31.000  
  24411399.933                       -2522.054          21.000  
 16  9 24 14  5  0.0000000  0 22R16G11R17G23G27R 1R 2G28G 8G17R22R24
                                G 1R 7G32R 8R23G14G22G 3G10R15
  24393598.627   130306207.499         401.234          39.000  
  20048741.320   105356897.847        -772.954          45.000  
  24363097.722   130371907.594        3669.861          34.000  
  25323385.900   133075337.279        3146.188          38.000  
  24859193.705   130635875.056       -4127.746          39.000  
  19833953.688   106023943.483        1774.670          50.000  
  24062061.476   128399656.027        3857.463          38.000  
  23357634.158   122745222.370        -834.278          43.000  
  21821861.958   114674660.655       -3205.973          46.000  
  24826568.603   130464503.366        3029.122          39.000  
  23355823.267   124674901.302       -4128.085          48.000  
  20106666.517   107519449.773        2078.124          47.000  
  20365713.776   107022560.362         168.639          47.000  
  23467485.632   125623351.875       -4485.742          41.000  
  23091988.725   121349318.151       -2176.669          44.000  
  19741525.434   105714988.124       -2229.176          50.000  
  19503385.758   104330015.933       -1543.458          52.000  
  22161363.832   116458875.754        -236.235          45.000  
  20541208.592   107944818.626         523.102          48.000  
  21410558.581   112513255.580        1799.375          47.000  
  25750345.996   135318977.188       -3764.193          31.000  
  24411873.252                       -2523.027          22.000  
 16  9 24 14  5  1.0000000  0 22R16G11R17G23G27R 1R 2G28G 8G17R22R24
                                G 1R 7G32R 8R23G14G22G 3G10R15
  24393523.556   130305806.229         400.779          39.000  
  20048888.007   105357670.765        -772.889          45.000  
  24362411.894   130368237.426        3670.369          34.000  
  25322787.078   133072191.131        3146.448          38.000  
  24859978.546   130640002.689       -4127.415          39.000  
  19833621.576   106022168.929        1774.201          50.000  
  24061338.514   128395798.723        3857.384          38.000  
  23357792.536   122746056.487        -834.013          43.000  
  21822472.053   114677866.526       -3205.992          46.000  
  24825992.048   130461474.023        3029.201          39.000  
  23356596.800   124679029.404       -4128.250          48.000  
  20106278.040   107517371.624        2078.029          47.000  
  20365681.633   107022391.604         168.688          47.000  
  23468323.277   125627837.499       -4485.886          41.000  
  23092403.412   121351494.834       -2176.843          44.000  
  19741942.075   105717217.467       -2229.630          50.000  
  19503674.664   104331559.473       -1543.903          52.000  
  22161408.749   116459112.076        -236.607          45.000  
  20541108.846   107944295.527         522.924          48.000  
  21410216.208   112511456.094        1799.365          47.000  
  25751062.083   135322741.635       -3764.323          32.000  
  24412345.944                       -2529.540          22.000  
 16  9 24 14  5  2.0000000  0 22R16G11R17G23G27R 1R 2G28G 8G17R22R24
                                G 1R 7G32R 8R23G14G22G 3G10R15
  24393448.660   130305405.741         399.996          39.000  
  20049034.937   105358444.217        -773.721          45.000  
  24361726.170   130364567.167        3670.336          34.000  
  25322188.256   133069044.884        3146.599          38.000  
  24860763.770   130644130.383       -4127.549          39.000  
  19833289.742   106020395.053        1773.507          50.000  
  24060615.621   128391941.565        3856.831          39.000  
  23357950.879   122746891.159        -835.157          43.000  
  21823082.426   114681072.806       -3206.589          47.000  
  24825415.074   130458444.758        3029.328          39.000  
  23357370.263   124683157.719       -4128.406          47.000  
  20105889.807   107515293.965        2077.383          47.000  
  20365649.524   107022223.189         168.178          47.000  
  23469161.446   125632323.194       -4485.713          42.000  
  23092817.715   121353672.062       -2177.542          44.000  
  19742358.822   105719447.442       -2230.309          51.000  
  19503963.675   104333103.683       -1544.549          52.000  
  22161453.945   116459348.995        -237.174          45.000  
  20541009.415   107943772.851         522.466          48.000  
  21409873.451   112509656.987        1798.955          47.000  
  25751778.589   135326505.962       -3764.082          32.000  
  24412815.215                       -2509.748          22.000  
 16  9 24 14  5  3.0000000  0 22R16G11R17G23G27R 1R 2G28G 8G17R22R24
                                G 1R 7G32R 8R23G14G22G 3G10R15
  24393373.450   130305006.083         399.220          39.000  
  20049182.357   105359218.262        -774.216          45.000  
  24361040.202   130360896.851        3670.129          34.000  
  25321590.063   133065898.695        3145.886          38.000  
  24861549.065   130648258.220       -4128.170          39.000  
  19832958.083   106018621.930        1772.836          50.000  
  24059892.554   128388084.593        3856.915          38.000  
  23358109.851   122747726.421        -835.204          43.000  
  21823692.660   114684279.540       -3206.980          47.000  
  24824838.693   130455415.684        3029.012          39.000  
  23358143.238   124687286.348       -4128.505          47.000  
  20105501.226   107513216.833        2076.988          47.000  
  20365617.730   107022055.189         167.852          47.000  
  23469999.440   125636809.045       -4485.884          42.000  
  23093232.193   121355849.913       -2178.271          44.000  
  19742775.637   105721678.156       -2230.942          51.000  
  19504252.895   104334648.642       -1545.360          52.000  
  22161499.071   116459586.616        -237.862          45.000  
  20540910.193   107943250.678         522.039          48.000  
  21409530.938   112507858.337        1798.694          47.000  
  25752495.025   135330270.288       -3764.395          32.000  
  24413285.743                       -2518.047          23.000  
 16  9 24 14  5  4.0000000  0 22R16G11R17G23G27R 1R 2G28G 8G17R22R24
                                G 1R 7G32R 8R23G14G22G 3G10R15
  24393298.658   130304607.155         398.857          39.000  
  20049329.706   105359992.845        -775.076          45.000  
  24360353.955   130357226.407        3670.458          34.000  
  25320991.346   133062752.352        3146.217          38.000  
  24862335.058   130652386.059       -4128.049          39.000  
  19832626.285   106016849.490        1771.907          50.000  
  24059169.940   128384227.722        3856.504          38.000  
  23358268.787   122748562.268        -836.246          43.000  
  21824302.650   114687486.654       -3207.629          46.000  
  24824261.963   130452386.711        3028.593          39.000  
  23358916.039   124691415.205       -4129.211          46.000  
  20105112.714   107511140.164        2076.295          47.000  
  20365585.691   107021887.511         167.283          47.000  
  23470837.400   125641294.986       -4486.357          42.000  
  23093646.984   121358028.312       -2178.925          44.000  
  19743192.314   105723909.519       -2231.830          51.000  
  19504542.254   104336194.254       -1546.117          52.000  
  22161543.988   116459824.848        -238.715          45.000  
  20540810.901   107942728.919         521.384          48.000  
  21409188.739   112506060.092        1798.161          47.000  
  25753211.496   135334034.558       -3764.207          33.000  
  24413756.864                       -2525.019          23.000  
 16  9 24 14  5  5.0000000  0 22R16G11R17G23G27R 1R 2G28G 8G17R22R24
                                G 1R 7G32R 8R23G14G22G 3G10R15
  24393223.936   130304209.051         398.012          39.000  
  20049477.266   105360767.984        -775.418          45.000  
  24359667.882   130353555.998        3669.947          33.000  
  25320392.873   133059605.978        3146.239          39.000  
  24863121.190   130656513.996       -4127.693          39.000  
  19832294.626   106015077.770        1771.535          50.000  
  24058447.292   128380370.971        3856.857          39.000  
  23358427.863   122749398.673        -836.628          43.000  
  21824912.570   114690694.192       -3207.534          46.000  
  24823685.338   130449357.867        3028.762          39.000  
  23359688.804   124695544.299       -4129.138          46.000  
  20104724.552   107509063.970        2076.005          47.000  
  20365553.792   107021720.210         167.136          47.000  
  23471675.778   125645781.030       -4485.994          42.000  
  23094061.602   121360207.287       -2179.131          44.000  
  19743609.165   105726141.578       -2232.289          51.000  
  19504831.718   104337740.553       -1546.649          52.000  
  22161589.289   116460063.710        -239.123          45.000  
  20540711.609   107942207.616         521.191          48.000  
  21408846.331   112504262.269        1797.683          47.000  
  25753928.247   135337798.821       -3763.931          33.000  
  24414229.171                       -2527.200          23.000  
 16  9 24 14  5  6.0000000  0 22R16G11R17G23G27R 1R 2G28G 8G17R22R24
                                G 1R 7G32R 8R23G14G22G 3G10R15
  24393149.563   130303811.750         396.978          39.000  
  20049624.894   105361543.697        -776.203          45.000  
  24358982.193   130349885.579        3669.889          34.000  
  25319794.051   133056459.579        3146.535          38.000  
  24863906.834   130660642.083       -4128.281          39.000  
  19831963.247   106013306.809        1770.484          50.000  
  24057724.922   128376514.454        3856.360          39.000  
  23358586.870   122750235.680        -837.303          43.000  
  21825522.804   114693902.199       -3208.295          46.000  
  24823109.202   130446329.198        3028.574          39.000  
  23360462.267   124699673.696       -4129.628          47.000  
  20104336.284   107506988.285        2075.427          47.000  
  20365522.207   107021553.299         166.674          47.000  
  23472514.226   125650267.220       -4486.286          42.000  
  23094476.254   121362386.871       -2179.888          44.000  
  19744026.260   105728374.350       -2233.220          51.000  
  19505121.148   104339287.567       -1547.479          52.000  
  22161634.869   116460303.254        -239.926          45.000  
  20540612.283   107941686.799         520.507          48.000  
  21408504.446   112502464.883        1796.953          47.000  
  25754645.032   135341563.107       -3764.421          33.000  
  24414703.050                       -2522.903          23.000  
 16  9 24 14  5  7.0000000  0 22R16G11R17G23G27R 1R 2G28G 8G17R22R24
                                G 1R 7G32R 8R23G14G22G 3G10R15
  24393075.225   130303415.153         396.251          39.000  
  20049772.384   105362319.835        -776.314          45.000  
  24358296.260   130346214.983        3670.421          35.000  
  25319195.055   133053313.050        3146.320          38.000  
  24864692.233   130664770.089       -4128.021          39.000  
  19831632.111   106011536.437        1770.104          50.000  
  24057002.379   128372658.020        3856.239          39.000  
  23358746.225   122751073.130        -837.581          43.000  
  21826133.388   114697110.511       -3208.462          46.000  
  24822532.926   130443300.537        3028.834          39.000  
  23361235.905   124703803.216       -4129.564          47.000  
  20103947.773   107504912.966        2075.033          47.000  
  20365490.553   107021386.623         166.547          47.000  
  23473352.534   125654753.375       -4486.158          43.000  
  23094891.290   121364566.909       -2179.995          45.000  
  19744442.866   105730607.657       -2233.452          50.000  
  19505410.507   104340835.156       -1547.802          52.000  
  22161680.623   116460543.308        -240.232          45.000  
  20540513.305   107941166.316         520.362          48.000  
  21408162.701   112500667.794        1796.991          47.000  
  25755361.503   135345327.248       -3764.229          34.000  
  24415178.359                       -2514.426          23.000  
 16  9 24 14  5  8.0000000  0 22R16G11R17G23G27R 1R 2G28G 8G17R22R24
                                G 1R 7G32R 8R23G14G22G 3G10R15
  24393001.062   130303019.340         395.237          39.000  
  20049920.292   105363096.555        -776.815          45.000  
  24357610.082   130342544.269        3671.017          35.000  
  25318596.443   133050166.436        3146.993          38.000  
  24865478.191   130668898.202       -4128.130          39.000  
  19831300.976   106009766.799        1769.303          50.000  
  24056279.870   128368801.734        3856.371          39.000  
  23358905.476   122751911.185        -838.187          43.000  
  21826744.006   114700319.241       -3208.886          46.000  
  24821956.755   130440272.016        3028.631          39.000  
  23362009.508   124707933.033       -4129.949          48.000  
  20103559.401   107502838.145        2074.541          47.000  
  20365459.107   107021220.331         166.071          47.000  
  23474190.738   125659239.646       -4486.392          43.000  
  23095306.500   121366747.550       -2180.825          45.000  
  19744860.171   105732841.655       -2234.272          50.000  
  19505699.553   104342383.461       -1548.540          52.000  
  22161726.238   116460784.025        -241.029          45.000  
  20540414.781   107940646.295         519.908          48.000  
  21407820.781   112498871.134        1796.570          47.000  
  25756077.939   135349091.360       -3764.290          34.000  
  24415653.668                       -2525.139          23.000  
 16  9 24 14  5  9.0000000  0 22R16G11R17G23G27R 1R 2G28G 8G17R22R24
                                G 1R 7G32R 8R23G14G22G 3G10R15
  24392927.178   130302624.277         394.634          39.000  
  20050068.479   105363873.814        -777.402          45.000  
  24356924.114   130338873.521        3670.686          34.000  
  25317997.796   133047019.784        3147.152          39.000  
  24866263.974   130673026.378       -4128.014          39.000  
  19830969.806   106007997.867        1768.791          50.000  
  24055556.977   128364945.574        3856.280          39.000  
  23359064.657   122752749.800        -838.968          43.000  
  21827354.624   114703528.388       -3209.292          46.000  
  24821380.304   130437243.622        3028.489          39.000  
  23362783.356   124712063.091       -4130.151          48.000  
  20103171.133   107500763.807        2074.196          47.000  
  20365427.174   107021054.388         165.904          47.000  
  23475029.151   125663726.002       -4486.160          43.000  
  23095721.746   121368928.742       -2181.307          45.000  
  19745277.231   105735076.325       -2234.783          51.000  
  19505989.191   104343932.439       -1549.216          52.000  
  22161771.923   116461025.366        -241.379          45.000  
  20540315.664   107940126.713         519.458          48.000  
  21407478.687   112497074.881        1796.313          47.000  
  25756794.026   135352855.403       -3763.803          33.000  
  24416127.406                       -2525.297          24.000  
 16  9 24 14  5 10.0000000  0 22R16G11R17G23G27R 1R 2G28G 8G17R22R24
                                G 1R 7G32R 8R23G14G22G 3G10R15
  24392853.259   130302230.124         393.859          39.000  
  20050216.596   105364651.768        -778.153          45.000  
  24356238.042   130335202.809        3670.775          35.000  
  25317399.009   133043873.213        3146.562          38.000  
  24867049.234   130677154.765       -4128.223          39.000  
  19830639.019   106006229.793        1767.902          50.000  
  24054833.910   128361089.653        3856.167          39.000  
  23359224.431   122753589.100        -839.411          43.000  
  21827965.521   114706738.075       -3209.821          46.000  
  24820803.854   130434215.498        3028.348          39.000  
  23363557.133   124716193.528       -4130.319          48.000  
  20102783.494   107498690.067        2073.619          47.000  
  20365395.414   107020888.940         165.262          47.000  
  23475867.879   125668212.633       -4486.345          43.000  
  23096137.026   121371110.649       -2181.987          45.000  
  19745694.884   105737311.820       -2235.625          51.000  
  19506278.551   104345482.249       -1550.007          52.000  
  22161818.201   116461267.471        -242.159          45.000  
  20540216.861   107939607.715         519.044          48.000  
  21407137.117   112495279.185        1795.609          47.000  
  25757510.392   135356619.577       -3764.444          34.000  
  24416599.400                       -2524.737          24.000  
 16  9 24 14  5 11.0000000  0 22R16G11R17G23G27R 1R 2G28G 8G17R22R24
                                G 1R 7G32R 8R23G14G22G 3G10R15
  24392779.444   130301836.691         393.123          38.000  
  20050364.749   105365430.185        -778.569          45.000  
  24355552.074   130331531.968        3671.720          34.000  
  25316800.118   133040726.506        3146.760          39.000  
  24867834.843   130681283.176       -4128.759          39.000  
  19830308.059   106004462.356        1767.162          50.000  
  24054111.157   128357233.806        3855.912          39.000  
  23359384.135   122754428.922        -840.008          43.000  
  21828576.662   114709948.115       -3210.190          46.000  
  24820227.543   130431187.426        3028.201          40.000  
  23364330.911   124720324.148       -4130.682          48.000  
  20102396.274   107496616.734        2073.263          47.000  
  20365363.655   107020723.773         165.033          47.000  
  23476706.711   125672699.326       -4486.738          43.000  
  23096552.236   121373293.065       -2182.509          45.000  
  19746112.154   105739547.898       -2236.279          51.000  
  19506567.771   104347032.686       -1550.632          52.000  
  22161864.234   116461510.146        -242.791          45.000  
  20540118.302   107939089.102         518.494          48.000  
  21406795.197   112493483.833        1795.233          47.000  
  25758226.514   135360383.574       -3764.052          34.000  
  24417073.627                       -2527.562          23.000  
 16  9 24 14  5 12.0000000  0 22R16G11R17G23G27R 1R 2G28G 8G17R22R24
                                G 1R 7G32R 8R23G14G22G 3G10R15
  24392705.665   130301443.895         392.361          38.000  
  20050512.796   105366208.973        -779.016          45.000  
  24354865.966   130327860.951        3670.997          35.000  
  25316200.982   133037579.561        3146.925          39.000  
  24868620.696   130685411.438       -4128.419          39.000  
  19829977.377   106002695.427        1766.598          50.000  
  24053388.334   128353377.898        3855.815          39.000  
  23359544.503   122755269.112        -840.742          43.000  
  21829187.664   114713158.373       -3210.447          46.000  
  24819651.337   130428159.285        3028.159          40.000  
  23365104.409   124724454.797       -4130.937          48.000  
  20102008.914   107494543.697        2072.808          47.000  
  20365332.628   107020558.778         164.679          47.000  
  23477545.543   125677185.901       -4486.702          43.000  
  23096967.831   121375475.856       -2183.039          45.000  
  19746529.598   105741784.447       -2236.893          51.000  
  19506857.724   104348583.613       -1551.338          52.000  
  22161910.722   116461753.277        -243.578          45.000  
  20540019.708   107938570.737         518.145          48.000  
  21406453.731   112491688.688        1794.787          47.000  
  25758943.125   135364147.444       -3764.041          34.000  
  24417545.201                       -2522.870          22.000  
 16  9 24 14  5 13.0000000  0 22R16G11R17G23G27R 1R 2G28G 8G17R22R24
                                G 1R 7G32R 8R23G14G22G 3G10R15
  24392631.990   130301051.898         391.359          39.000  
  20050661.333   105366988.354        -779.841          45.000  
  24354179.823   130324189.843        3671.352          34.000  
  25315602.474   133034432.617        3146.875          39.000  
  24869406.444   130689539.846       -4128.806          39.000  
  19829647.358   106000929.255        1765.749          50.000  
  24052665.511   128349522.225        3855.458          39.000  
  23359704.661   122756109.905        -841.235          43.000  
  21829798.387   114716369.101       -3211.047          46.000  
  24819075.514   130425131.333        3027.668          40.000  
  23365878.117   124728585.746       -4131.197          48.000  
  20101621.170   107492471.179        2072.295          47.000  
  20365301.078   107020394.199         164.303          47.000  
  23478384.025   125681672.652       -4486.705          44.000  
  23097383.565   121377659.265       -2183.836          45.000  
  19746947.356   105744021.706       -2237.657          51.000  
  19507147.746   104350135.265       -1552.062          52.000  
  22161957.244   116461997.070        -244.269          45.000  
  20539921.394   107938052.874         517.583          48.000  
  21406112.161   112489893.998        1794.431          47.000  
  25759659.177   135367911.247       -3763.514          34.000  
  24418018.242                       -2527.302          22.000  
 16  9 24 14  5 14.0000000  0 22R16G11R17G23G27R 1R 2G28G 8G17R22R24
                                G 1R 7G32R 8R23G14G22G 3G10R15
  24392558.804   130300660.865         390.490          39.000  
  20050809.555   105367768.426        -780.305          45.000  
  24353493.611   130320518.823        3671.581          34.000  
  25315003.862   133031285.773        3146.817          39.000  
  24870192.193   130693668.457       -4128.748          39.000  
  19829317.165   105999163.936        1765.025          50.000  
  24051942.514   128345666.873        3855.219          39.000  
  23359864.470   122756951.415        -841.767          43.000  
  21830409.843   114719580.395       -3211.548          46.000  
  24818499.901   130422103.648        3027.753          40.000  
  23366651.580   124732717.093       -4131.409          47.000  
  20101233.601   107490399.296        2071.697          47.000  
  20365269.912   107020230.107         164.126          47.000  
  23479222.334   125686159.636       -4486.864          44.000  
  23097799.089   121379843.389       -2184.371          45.000  
  19747365.568   105746259.780       -2238.263          51.000  
  19507437.873   104351687.754       -1552.812          52.000  
  22162003.696   116462241.649        -244.919          45.000  
  20539823.254   107937535.616         517.090          48.000  
  21405770.800   112488099.876        1794.027          47.000  
  25760375.055   135371675.233       -3763.898          34.000  
  24418491.631                       -2521.824          23.000  
 16  9 24 14  5 15.0000000  0 22R16G11R17G23G27R 1R 2G28G 8G17R22R24
                                G 1R 7G32R 8R23G14G22G 3G10R15
  24392485.897   130300270.589         390.084          40.000  
  20050957.951   105368549.039        -780.727          45.000  
  24352807.294   130316847.769        3671.314          34.000  
  25314405.075   133028138.827        3147.075          39.000  
  24870978.255   130697797.162       -4128.712          39.000  
  19828987.042   105997399.304        1764.570          50.000  
  24051219.865   128341811.652        3855.523          38.000  
  23360024.698   122757793.484        -842.177          43.000  
  21831020.914   114722792.095       -3211.694          46.000  
  24817923.765   130419076.072        3028.031          40.000  
  23367424.695   124736848.693       -4131.550          47.000  
  20100846.415   107488327.881        2071.425          47.000  
  20365238.781   107020066.382         163.907          47.000  
  23480060.503   125690646.690       -4487.037          44.000  
  23098214.998   121382028.081       -2184.792          45.000  
  19747783.675   105748498.539       -2238.930          51.000  
  19507728.420   104353240.922       -1553.305          52.000  
  22162049.730   116462486.847        -245.257          45.000  
  20539724.834   107937018.776         516.865          48.000  
  21405429.787   112486306.153        1793.734          47.000  
  25761091.247   135375439.111       -3763.268          35.000  
  24418962.054                       -2524.869          22.000  
 16  9 24 14  5 16.0000000  0 22R16G11R17G23G27R 1R 2G28G 8G17R22R24
                                G 1R 7G32R 8R23G14G22G 3G10R15
  24392413.339   130299881.113         389.083          40.000  
  20051106.488   105369330.217        -781.282          45.000  
  24352120.942   130313176.671        3671.508          34.000  
  25313806.254   133024991.877        3146.957          39.000  
  24871763.934   130701925.926       -4128.625          40.000  
  19828656.814   105995635.396        1763.631          50.000  
  24050497.322   128337956.594        3855.278          38.000  
  23360185.135   122758636.137        -842.819          43.000  
  21831632.126   114726004.234       -3212.047          46.000  
  24817347.908   130416048.667        3027.614          40.000  
  23368198.752   124740980.547       -4131.712          47.000  
  20100459.509   107486256.959        2070.916          47.000  
  20365207.824   107019903.034         163.434          47.000  
  23480898.776   125695133.867       -4487.190          44.000  
  23098630.453   121384213.363       -2185.409          45.000  
  19748201.713   105750738.013       -2239.569          51.000  
  19508018.826   104354794.802       -1553.984          52.000  
  22162096.357   116462732.713        -246.040          45.000  
  20539626.485   107936502.411         516.240          48.000  
  21405088.601   112484512.863        1793.263          47.000  
  25761807.299   135379203.005       -3763.521          35.000  
  24419434.886                       -2535.721          23.000  
 16  9 24 14  5 17.0000000  0 22R16G11R17G23G27R 1R 2G28G 8G17R22R24
                                G 1R 7G32R 8R23G14G22G 3G10R15
  24392341.095   130299492.367         388.501          40.000  
  20051255.059   105370111.917        -781.652          45.000  
  24351434.765   130309505.486        3671.976          34.000  
  25313207.327   133021844.813        3147.809          39.000  
  24872549.927   130706054.761       -4128.575          40.000  
  19828326.796   105993872.167        1763.151          50.000  
  24049775.092   128334101.683        3854.575          38.000  
  23360345.642   122759479.321        -843.265          43.000  
  21832243.162   114729216.766       -3212.614          46.000  
  24816771.737   130413021.366        3027.370          40.000  
  23368972.983   124745112.626       -4131.930          47.000  
  20100071.940   107484186.500        2070.454          47.000  
  20365176.693   107019740.018         162.938          47.000  
  23481737.294   125699621.132       -4486.973          43.000  
  23099046.187   121386399.190       -2185.880          45.000  
  19748619.890   105752978.145       -2240.217          51.000  
  19508309.721   104356349.346       -1554.650          52.000  
  22162143.368   116462979.183        -246.773          45.000  
  20539528.519   107935986.471         515.931          48.000  
  21404747.554   112482719.959        1793.126          47.000  
  25762523.421   135382966.856       -3763.701          35.000  
  24419906.286                       -2528.292          22.000  
 16  9 24 14  5 18.0000000  0 22R16G11R17G23G27R 1R 2G28G 8G17R22R24
                                G 1R 7G32R 8R23G14G22G 3G10R15
  24392268.537   130299104.432         387.704          40.000  
  20051404.014   105370894.193        -782.303          45.000  
  24350748.343   130305834.266        3671.921          35.000  
  25312608.296   133018697.756        3147.626          39.000  
  24873335.919   130710183.699       -4128.681          40.000  
  19827997.021   105992109.695        1762.357          50.000  
  24049052.234   128330246.876        3855.198          39.000  
  23360506.184   122760323.113        -843.907          43.000  
  21832854.897   114732429.751       -3213.109          46.000  
  24816195.496   130409994.207        3027.362          40.000  
  23369747.563   124749244.981       -4132.206          47.000  
  20099684.824   107482116.564        2069.954          47.000  
  20365145.527   107019577.372         162.791          47.000  
  23482575.882   125704108.521       -4487.002          44.000  
  23099462.549   121388585.612       -2186.422          45.000  
  19749038.451   105755218.935       -2240.911          50.000  
  19508600.826   104357904.599       -1555.278          52.000  
  22162190.693   116463226.307        -247.127          45.000  
  20539430.275   107935471.002         515.473          48.000  
  21404406.437   112480927.497        1792.671          47.000  
  25763239.892   135386730.669       -3763.972          36.000  
  24420378.209                       -2531.862          22.000  
 16  9 24 14  5 19.0000000  0 22R16G11R17G23G27R 1R 2G28G 8G17R22R24
                                G 1R 7G32R 8R23G14G22G 3G10R15
  24392196.188   130298717.162         386.848          40.000  
  20051552.899   105371676.873        -783.040          45.000  
  24350061.537   130302162.894        3670.889          34.000  
  25312009.335   133015550.500        3147.121          39.000  
  24874122.121   130714312.584       -4129.179          40.000  
  19827667.422   105990347.794        1761.354          50.000  
  24048330.074   128326392.090        3854.723          39.000  
  23360666.901   122761167.310        -844.843          43.000  
  21833466.527   114735642.994       -3213.483          46.000  
  24815619.429   130406967.039        3026.939          40.000  
  23370521.620   124753377.446       -4132.697          48.000  
  20099297.569   107480046.983        2069.119          47.000  
  20365114.884   107019414.963         162.264          47.000  
  23483414.330   125708595.849       -4487.606          44.000  
  23099878.806   121390772.484       -2187.574          45.000  
  19749456.802   105757460.234       -2241.803          50.000  
  19508891.930   104359460.409       -1556.292          52.000  
  22162237.529   116463473.932        -248.144          45.000  
  20539332.379   107934955.845         514.763          48.000  
  21404065.180   112479135.318        1791.567          47.000  
  25763956.154   135390494.308       -3763.810          35.000  
  24420852.018                       -2525.504          22.000  
 16  9 24 14  5 20.0000000  0 22R16G11R17G23G27R 1R 2G28G 8G17R22R24
                                G 1R 7G32R 8R23G14G22G 3G10R15
  24392123.909   130298330.597         386.221          40.000  
  20051701.715   105372460.045        -783.596          45.000  
  24349375.429   130298491.286        3671.724          34.000  
  25311410.269   133012403.135        3147.199          39.000  
  24874907.940   130718441.480       -4129.222          40.000  
  19827337.822   105988586.550        1760.644          50.000  
  24047608.089   128322537.391        3854.724          39.000  
  23360827.652   122762012.030        -845.321          43.000  
  21834077.913   114738856.605       -3213.830          46.000  
  24815043.223   130403939.938        3026.703          40.000  
  23371295.712   124757510.109       -4132.965          48.000  
  20098910.558   107477977.822        2068.676          46.000  
  20365083.928   107019252.852         161.551          47.000  
  23484252.534   125713083.211       -4487.681          44.000  
  23100295.273   121392959.841       -2187.928          45.000  
  19749875.259   105759702.151       -2242.484          50.000  
  19509183.035   104361016.829       -1557.037          52.000  
  22162284.959   116463722.127        -248.728          45.000  
  20539234.553   107934441.067         514.396          49.000  
  21403724.413   112477343.477        1791.262          47.000  
  25764672.136   135394257.843       -3764.000          35.000  
  24421323.941                       -2532.183          22.000  
 16  9 24 14  5 21.0000000  0 22R16G11R17G23G27R 1R 2G28G 8G17R22R24
                                G 1R 7G32R 8R23G14G22G 3G10R15
  24392052.015   130297944.874         385.466          39.000  
  20051850.495   105373243.794        -783.962          45.000  
  24348689.322   130294819.643        3671.584          33.000  
  25310811.517   133009255.752        3147.103          39.000  
  24875693.863   130722570.471       -4129.279          40.000  
  19827008.606   105986826.058        1760.166          50.000  
  24046885.790   128318682.910        3854.381          38.000  
  23360988.473   122762857.331        -845.497          43.000  
  21834689.543   114742070.653       -3214.240          46.000  
  24814466.877   130400912.988        3026.908          40.000  
  23372069.664   124761643.053       -4133.251          47.000  
  20098523.861   107475909.152        2068.313          46.000  
  20365053.215   107019091.100         161.489          47.000  
  23485090.633   125717570.711       -4487.653          43.000  
  23100711.845   121395147.800       -2188.120          45.000  
  19750293.540   105761944.802       -2243.025          50.000  
  19509474.384   104362573.947       -1557.559          52.000  
  22162332.807   116463970.988        -249.238          45.000  
  20539136.797   107933926.768         513.987          49.000  
  21403383.854   112475552.072        1791.128          47.000  
  25765387.979   135398021.352       -3763.247          36.000  
  24421796.389                       -2532.580          22.000  
 16  9 24 14  5 22.0000000  0 22R16G11R17G23G27R 1R 2G28G 8G17R22R24
                                G 1R 7G32R 8R23G14G22G 3G10R15
  24391979.910   130297559.917         384.429          39.000  
  20051999.764   105374028.070        -784.499          45.000  
  24348003.109   130291148.022        3670.952          33.000  
  25310212.626   133006108.237        3147.471          39.000  
  24876479.681   130726699.500       -4129.401          40.000  
  19826679.460   105985066.267        1759.335          50.000  
  24046163.316   128314828.506        3854.318          38.000  
  23361149.120   122763703.195        -846.312          43.000  
  21835301.453   114745285.104       -3214.650          46.000  
  24813890.741   130397886.152        3026.456          40.000  
  23372844.104   124765776.236       -4133.469          47.000  
  20098137.094   107473840.920        2067.800          47.000  
  20365022.329   107018929.710         161.169          47.000  
  23485928.522   125722058.302       -4487.504          43.000  
  23101128.102   121397336.303       -2188.871          45.000  
  19750712.206   105764188.135       -2243.824          50.000  
  19509765.767   104364131.718       -1558.196          52.000  
  22162380.132   116464220.463        -250.048          45.000  
  20539039.076   107933412.892         513.554          49.000  
  21403043.121   112473761.064        1790.598          47.000  
  25766104.136   135401784.815       -3763.236          36.000  
  24422269.045                       -2537.824          23.000  
 16  9 24 14  5 23.0000000  0 22R16G11R17G23G27R 1R 2G28G 8G17R22R24
                                G 1R 7G32R 8R23G14G22G 3G10R15
  24391908.295   130297175.813         383.337          39.000  
  20052149.138   105374812.964        -785.257          45.000  
  24347316.792   130287476.413        3670.612          33.000  
  25309613.525   133002960.750        3147.383          38.000  
  24877265.290   130730828.639       -4129.568          40.000  
  19826350.349   105983307.251        1758.408          50.000  
  24045440.946   128310974.363        3853.406          39.000  
  23361309.732   122764549.676        -847.026          43.000  
  21835913.013   114748500.023       -3214.983          46.000  
  24813314.779   130394859.497        3026.378          40.000  
  23373618.719   124769909.727       -4133.916          47.000  
  20097750.293   107471773.210        2067.356          47.000  
  20364991.442   107018768.727         160.766          47.000  
  23486766.761   125726546.077       -4488.107          43.000  
  23101544.883   121399525.451       -2189.572          45.000  
  19751130.941   105766432.190       -2244.615          50.000  
  19510057.081   104365690.247       -1559.110          52.000  
  22162427.911   116464470.632        -250.726          45.000  
  20538941.494   107932899.530         512.956          49.000  
  21402702.318   112471970.528        1790.096          47.000  
  25766820.118   135405548.338       -3764.236          36.000  
  24422744.668                       -2544.691          22.000  
 16  9 24 14  5 24.0000000  0 22R16G11R17G23G27R 1R 2G28G 8G17R22R24
                                G 1R 7G32R 8R23G14G22G 3G10R15
  24391837.237   130296792.503         382.949          40.000  
  20052298.477   105375598.441        -785.782          45.000  
  24346630.545   130283804.653        3671.763          33.000  
  25309014.528   132999813.242        3147.421          38.000  
  24878051.073   130734957.918       -4129.390          40.000  
  19826021.517   105981548.962        1757.838          51.000  
  24044718.787   128307120.398        3854.166          39.000  
  23361471.251   122765396.754        -847.315          43.000  
  21836525.236   114751715.378       -3215.469          46.000  
  24812738.747   130391833.019        3026.383          39.000  
  23374393.230   124774043.476       -4133.992          47.000  
  20097364.085   107469706.030        2066.912          47.000  
  20364960.834   107018608.148         160.363          47.000  
  23487605.244   125731033.977       -4487.872          43.000  
  23101961.210   121401715.209       -2190.072          45.000  
  19751549.991   105768676.931       -2245.147          50.000  
  19510348.360   104367249.492       -1559.565          52.000  
  22162475.550   116464721.452        -251.120          45.000  
  20538844.052   107932386.636         512.646          49.000  
  21402361.655   112470180.442        1789.780          47.000  
  25767536.485   135409311.764       -3763.378          36.000  
  24423218.826                       -2528.636          21.000  
 16  9 24 14  5 25.0000000  0 22R16G11R17G23G27R 1R 2G28G 8G17R22R24
                                G 1R 7G32R 8R23G14G22G 3G10R15
  24391765.587   130296410.085         381.747          39.000  
  20052448.165   105376384.544        -786.476          45.000  
  24345944.228   130280132.975        3671.976          33.000  
  25308415.846   132996665.773        3147.483          38.000  
  24878836.856   130739087.358       -4129.528          40.000  
  19825693.034   105979791.475        1757.083          51.000  
  24043996.417   128303266.685        3853.744          39.000  
  23361632.561   122766244.494        -848.262          43.000  
  21837137.390   114754931.258       -3216.274          46.000  
  24812162.645   130388806.770        3025.906          39.000  
  23375167.112   124778177.558       -4134.267          46.000  
  20096977.562   107467639.425        2066.420          47.000  
  20364930.575   107018448.000         160.010          47.000  
  23488443.692   125735522.096       -4488.326          44.000  
  23102378.166   121403905.611       -2190.687          45.000  
  19751969.389   105770922.430       -2245.897          50.000  
  19510640.128   104368809.528       -1560.442          52.000  
  22162523.783   116464973.008        -251.904          45.000  
  20538746.436   107931874.276         512.108          49.000  
  21402021.341   112468390.850        1789.343          47.000  
  25768252.153   135413075.311       -3763.312          35.000  
  24423694.135                       -2531.551          21.000  
 16  9 24 14  5 26.0000000  0 22R16G11R17G23G27R 1R 2G28G 8G17R22R24
                                G 1R 7G32R 8R23G14G22G 3G10R15
  24391694.355   130296028.363         380.790          39.000  
  20052598.237   105377171.130        -786.958          45.000  
  24345258.016   130276461.143        3672.479          33.000  
  25307816.815   132993518.174        3147.195          36.000  
  24879622.640   130743216.795       -4129.323          40.000  
  19825364.621   105978034.631        1756.528          51.000  
  24043274.048   128299413.029        3853.522          40.000  
  23361793.906   122767092.722        -848.644          43.000  
  21837749.683   114758147.443       -3216.077          46.000  
  24811586.544   130385780.543        3026.197          39.000  
  23375941.274   124782311.852       -4134.359          46.000  
  20096591.354   107465573.251        2065.953          47.000  
  20364900.177   107018288.147         159.747          47.000  
  23489282.280   125740010.227       -4488.117          43.000  
  23102795.087   121406096.509       -2191.095          45.000  
  19752388.823   105773168.516       -2246.328          50.000  
  19510931.512   104370370.161       -1560.987          52.000  
  22162572.259   116465225.131        -252.523          45.000  
  20538649.168   107931362.299         511.766          49.000  
  21401680.992   112466601.609        1788.898          47.000  
  25768968.170   135416838.732       -3763.436          34.000  
  24424167.699                       -2531.486          22.000  
 16  9 24 14  5 27.0000000  0 22R16G11R17G23G27R 1R 2G28G 8G17R22R24
                                G 1R 7G32R 8R23G14G22G 3G10R15
  24391623.263   130295647.599         379.656          39.000  
  20052748.099   105377958.418        -787.846          45.000  
  24344572.082   130272789.494        3671.021          33.000  
  25307218.203   132990370.692        3146.960          38.000  
  24880408.283   130747346.463       -4130.079          40.000  
  19825036.662   105976278.644        1755.358          51.000  
  24042552.098   128295559.654        3852.423          40.000  
  23361955.355   122767941.662        -849.587          43.000  
  21838361.662   114761364.215       -3217.304          46.000  
  24811010.443   130382754.640        3025.488          40.000  
  23376715.819   124786446.546       -4135.197          46.000  
  20096205.111   107463507.741        2064.948          47.000  
  20364869.395   107018128.808         158.981          47.000  
  23490120.728   125744498.599       -4488.785          43.000  
  23103212.077   121408288.149       -2192.191          45.000  
  19752808.884   105775415.442       -2247.520          50.000  
  19511223.454   104371931.645       -1562.182          52.000  
  22162620.422   116465478.056        -253.579          45.000  
  20538551.970   107930850.922         510.868          49.000  
  21401340.887   112464812.921        1788.085          47.000  
  25769684.432   135420602.267       -3763.208          34.000  
  24424643.078                       -2537.944          21.000  
 16  9 24 14  5 28.0000000  0 22R16G11R17G23G27R 1R 2G28G 8G17R22R24
                                G 1R 7G32R 8R23G14G22G 3G10R15
  24391552.275   130295267.619         378.989          39.000  
  20052897.857   105378746.265        -788.185          45.000  
  24343886.184   130269117.709        3671.832          32.000  
  25306619.312   132987223.110        3147.549          38.000  
  24881194.450   130751476.220       -4130.044          40.000  
  19824708.423   105974523.380        1754.845          51.000  
  24041830.147   128291706.397        3853.136          39.000  
  23362116.770   122768791.197        -849.957          43.000  
  21838973.816   114764581.427       -3217.638          46.000  
  24810434.550   130379728.871        3025.550          39.000  
  23377490.329   124790581.499       -4135.236          47.000  
  20095818.938   107461442.735        2064.566          47.000  
  20364839.171   107017969.865         158.480          47.000  
  23490959.106   125748987.052       -4488.710          44.000  
  23103629.172   121410480.373       -2192.672          45.000  
  19753228.946   105777663.067       -2248.121          50.000  
  19511515.291   104373493.836       -1562.702          52.000  
  22162668.340   116465731.613        -253.841          45.000  
  20538454.633   107930340.005         510.496          49.000  
  21401000.503   112463024.672        1787.855          47.000  
  25770400.380   135424365.830       -3764.477          34.000  
  24425119.852                       -2533.049          19.000  
 16  9 24 14  5 29.0000000  0 22R16G11R17G23G27R 1R 2G28G 8G17R22R24
                                G 1R 7G32R 8R23G14G22G 3G10R15
  24391481.288   130294888.229         379.242          39.000  
  20053047.650   105379534.491        -788.442          45.000  
  24343200.356   130265445.760        3671.294          32.000  
  25306020.560   132984075.355        3148.284          38.000  
  24881980.618   130755605.869       -4129.625          40.000  
  19824380.150   105972768.646        1754.561          51.000  
  24041107.743   128287853.157        3853.275          39.000  
  23362278.847   122769641.092        -850.071          43.000  
  21839586.109   114767798.872       -3217.706          46.000  
  24809858.623   130376703.032        3025.989          40.000  
  23378264.840   124794716.509       -4135.045          47.000  
  20095432.974   107459378.028        2064.507          47.000  
  20364808.738   107017811.073         158.624          47.000  
  23491797.310   125753475.400       -4488.115          43.000  
  23104047.035   121412672.977       -2192.799          45.000  
  19753648.938   105779911.187       -2248.258          50.000  
  19511807.268   104375056.538       -1562.965          52.000  
  22162716.852   116465985.642        -254.267          45.000  
  20538357.680   107929829.363         510.479          49.000  
  21400660.573   112461236.633        1788.192          48.000  
  25771116.781   135428129.116       -3762.734          34.000  
  24425593.486                       -2533.584          18.000  
 16  9 24 14  5 30.0000000  0 22R16G11R17G23G27R 1R 2G28G 8G17R22R24
                                G 1R 7G32R 8R23G14G22G 3G10R15
  24391410.405   130294509.629         378.411          39.000  
  20053197.652   105380323.229        -789.134          45.000  
  24342515.749   130261773.574        3673.979          32.000  
  25305421.389   132980927.499        3147.951          38.000  
  24882766.541   130759735.556       -4129.774          40.000  
  19824051.981   105971014.595        1753.711          51.000  
  24040385.828   128284000.069        3852.788          39.000  
  23362440.436   122770491.544        -850.715          43.000  
  21840198.263   114771016.664       -3218.098          46.000  
  24809282.941   130373677.320        3025.466          40.000  
  23379039.769   124798851.752       -4135.381          47.000  
  20095046.731   107457313.770        2063.931          46.000  
  20364778.444   107017652.609         158.281          47.000  
  23492636.037   125757963.863       -4488.691          43.000  
  23104464.409   121414866.116       -2193.414          45.000  
  19754069.000   105782159.926       -2249.017          50.000  
  19512099.594   104376619.877       -1563.566          52.000  
  22162765.119   116466240.271        -255.067          45.000  
  20538260.482   107929319.130         510.047          49.000  
  21400320.329   112459449.001        1787.532          47.000  
  25771832.833   135431892.348       -3762.727          33.000  
  24426070.331                       -2534.345          17.000  
 16  9 24 14  5 31.0000000  0 22R16G11R17G23G27R 1R 2G28G 8G17R22R24
                                G 1R 7G32R 8R23G14G22G 3G10R15
  24391339.732   130294131.872         377.080          39.000  
  20053347.829   105381112.558        -789.865          45.000  
  24341826.919   130258101.579        3670.998          32.000  
  25304822.323   132977779.631        3147.885          38.000  
  24883551.800   130763865.397       -4130.093          40.000  
  19823724.475   105969261.304        1752.728          51.000  
  24039663.703   128280147.205        3852.452          40.000  
  23362602.479   122771342.598        -851.442          43.000  
  21840810.626   114774234.943       -3218.707          46.000  
  24808707.223   130370651.748        3025.358          40.000  
  23379814.245   124802987.284       -4135.749          47.000  
  20094660.627   107455250.023        2063.270          46.000  
  20364747.871   107017494.559         157.668          47.000  
  23493474.415   125762452.468       -4488.937          43.000  
  23104881.819   121417059.896       -2194.250          45.000  
  19754489.061   105784409.377       -2250.086          50.000  
  19512391.886   104378183.956       -1564.614          52.000  
  22162813.735   116466495.569        -255.771          45.000  
  20538163.633   107928809.400         509.349          49.000  
  21399980.468   112457661.832        1786.713          48.000  
  25772548.920   135435655.612       -3763.495          33.000  
  24426548.188                       -2534.345          16.000  
 16  9 24 14  5 32.0000000  0 22R16G11R17G23G27R 1R 2G28G 8G17R22R24
                                G 1R 7G32R 8R23G14G22G 3G10R15
  24391269.128   130293754.761         376.652          39.000  
  20053498.389   105381902.329        -790.262          45.000  
  24341135.262   130254429.310        3672.051          31.000  
  25304223.397   132974631.622        3147.307          38.000  
  24884337.758   130767995.169       -4129.815          40.000  
  19823396.900   105967508.618        1752.057          51.000  
  24038941.787   128276294.355        3852.930          40.000  
  23362764.522   122772194.101        -852.033          43.000  
  21841423.164   114777453.535       -3219.007          46.000  
  24808131.750   130367626.230        3025.149          40.000  
  23380588.651   124807122.965       -4135.934          47.000  
  20094274.838   107453186.652        2062.867          46.000  
  20364717.787   107017336.751         157.541          47.000  
  23494313.282   125766941.098       -4488.698          44.000  
  23105299.367   121419254.118       -2194.621          45.000  
  19754909.262   105786659.365       -2250.468          50.000  
  19512684.491   104379748.602       -1565.211          52.000  
  22162862.526   116466751.389        -256.255          45.000  
  20538066.575   107928300.004         509.000          49.000  
  21399640.887   112455874.949        1786.354          48.000  
  25773265.007   135439418.698       -3763.236          33.000  
  24427025.521                       -2534.345          16.000  
 16  9 24 14  5 33.0000000  0 22R16G11R17G23G27R 1R 2G28G 8G17R22R24
                                G 1R 7G32R 8R23G14G22G 3G10R15
  24391198.175   130293378.438         376.106          39.000  
  20053648.705   105382692.642        -790.751          45.000  
  24340446.572   130250756.900        3672.520          31.000  
  25303624.191   132971483.514        3148.106          39.000  
  24885123.995   130772125.035       -4130.000          40.000  
  19823069.359   105965756.623        1751.568          51.000  
  24038219.732   128272441.602        3852.598          40.000  
  23362926.844   122773046.181        -852.475          43.000  
  21842035.876   114780672.527       -3219.302          46.000  
  24807556.067   130364600.815        3025.308          40.000  
  23381363.475   124811258.860       -4136.062          48.000  
  20093888.979   107451123.725        2062.624          46.000  
  20364687.843   107017179.307         157.142          47.000  
  23495152.289   125771429.848       -4488.882          43.000  
  23105716.672   121421448.912       -2195.184          45.000  
  19755329.394   105788910.022       -2251.096          50.000  
  19512977.410   104381313.918       -1565.708          52.000  
  22162911.596   116467007.843        -256.719          45.000  
  20537969.866   107927791.041         508.696          49.000  
  21399300.957   112454088.473        1786.143          48.000  
  25773980.815   135443181.760       -3763.030          32.000  
  24427501.667                       -2533.415          16.000  
 16  9 24 14  5 34.0000000  0 22R16G11R17G23G27R 1R 2G28G 8G17R22R24
                                G 1R 7G32R 8R23G14G22G 3G10R15
  24391128.025   130293002.896         375.160          39.000  
  20053799.196   105383483.497        -791.207          45.000  
  24339763.221   130247084.545        3672.435          32.000  
  25303024.916   132968335.402        3147.904          38.000  
  24885909.569   130776254.951       -4130.304          39.000  
  19822742.133   105964005.344        1750.847          51.000  
  24037497.817   128268588.994        3852.385          40.000  
  23363088.991   122773898.795        -852.803          43.000  
  21842648.623   114783891.921       -3219.520          47.000  
  24806980.629   130361575.515        3025.188          40.000  
  23382139.067   124815394.995       -4136.338          48.000  
  20093503.189   107449061.280        2061.979          46.000  
  20364658.003   107017022.192         156.792          47.000  
  23495991.330   125775918.653       -4488.881          43.000  
  23106134.605   121423644.262       -2195.651          45.000  
  19755749.944   105791161.366       -2251.799          50.000  
  19513269.841   104382879.933       -1566.460          52.000  
  22162959.968   116467264.927        -257.442          45.000  
  20537873.017   107927282.524         508.207          49.000  
  21398960.887   112452302.410        1785.811          48.000  
  25774696.623   135446944.770       -3762.950          32.000  
  24427977.186                       -2542.567          17.000  
 16  9 24 14  5 35.0000000  0 22R16G11R17G23G27R 1R 2G28G 8G17R22R24
                                G 1R 7G32R 8R23G14G22G 3G10R15
  24391057.980   130292628.103         373.898          39.000  
  20053949.756   105384274.865        -792.074          45.000  
  24339075.473   130243412.001        3671.262          32.000  
  25302425.780   132965187.168        3147.814          38.000  
  24886695.248   130780384.893       -4130.370          39.000  
  19822414.802   105962254.727        1749.908          51.000  
  24036775.936   128264736.493        3852.070          40.000  
  23363251.313   122774751.958        -854.043          43.000  
  21843261.544   114787111.685       -3220.314          47.000  
  24806404.772   130358550.320        3024.841          40.000  
  23382914.311   124819531.319       -4136.780          48.000  
  20093117.749   107446999.267        2061.416          47.000  
  20364628.093   107016865.420         156.124          47.000  
  23496830.371   125780407.445       -4489.115          43.000  
  23106552.502   121425840.143       -2196.736          45.000  
  19756170.878   105793413.331       -2252.705          50.000  
  19513562.516   104384446.575       -1567.423          52.000  
  22163009.143   116467522.613        -258.536          45.000  
  20537776.343   107926774.405         507.490          49.000  
  21398621.306   112450516.712        1784.901          48.000  
  25775413.059   135450707.700       -3763.521          32.000  
  24428454.729                       -2542.432          19.000  
 16  9 24 14  5 36.0000000  0 22R16G11R17G23G27R 1R 2G28G 8G17R22R24
                                G 1R 7G32R 8R23G14G22G 3G10R15
  24390987.761   130292254.017         373.698          38.000  
  20054100.352   105385066.714        -792.085          45.000  
  24338391.180   130239739.295        3673.031          32.000  
  25301826.784   132962038.813        3148.739          38.000  
  24887480.996   130784514.837       -4129.818          39.000  
  19822087.435   105960504.768        1749.627          51.000  
  24036054.055   128260884.088        3852.402          41.000  
  23363413.530   122775605.614        -854.039          43.000  
  21843874.116   114790331.817       -3220.302          46.000  
  24805828.984   130355525.172        3025.545          40.000  
  23383689.345   124823667.873       -4136.728          48.000  
  20092732.308   107444937.693        2061.413          47.000  
  20364598.114   107016708.933         156.315          47.000  
  23497668.785   125784896.287       -4488.756          43.000  
  23106970.435   121428036.516       -2196.564          45.000  
  19756591.603   105795665.898       -2252.865          50.000  
  19513855.261   104386013.828       -1567.542          52.000  
  22163057.864   116467780.855        -258.408          45.000  
  20537679.983   107926266.681         507.587          49.000  
  21398281.410   112448731.365        1785.179          48.000  
  25776128.832   135454470.521       -3762.295          32.000  
  24428930.177                       -2536.391          19.000  
 16  9 24 14  5 37.0000000  0 22R16G11R17G23G27R 1R 2G28G 8G17R22R24
                                G 1R 7G32R 8R23G14G22G 3G10R15
  24390917.925   130291880.726         372.733          38.000  
  20054251.436   105385859.149        -792.844          45.000  
  24337704.445   130236066.654        3673.014          32.000  
  25301227.857   132958890.435        3148.185          38.000  
  24888267.024   130788644.903       -4129.795          39.000  
  19821760.488   105958755.549        1748.759          51.000  
  24035332.524   128257031.905        3851.737          41.000  
  23363575.887   122776459.854        -854.468          43.000  
  21844486.968   114793552.388       -3220.932          46.000  
  24805252.778   130352500.218        3024.707          40.000  
  23384464.518   124827804.684       -4137.005          48.000  
  20092346.973   107442876.667        2060.543          47.000  
  20364568.379   107016552.841         155.773          47.000  
  23498507.477   125789385.313       -4489.186          43.000  
  23107388.193   121430233.512       -2197.302          45.000  
  19757012.398   105797919.158       -2253.568          51.000  
  19514148.843   104387581.798       -1568.372          52.000  
  22163107.074   116468039.779        -259.492          45.000  
  20537583.169   107925759.429         506.902          49.000  
  21397941.934   112446946.458        1784.752          48.000  
  25776845.059   135458233.384       -3763.271          32.000  
  24429408.104                       -2539.892          21.000  
 16  9 24 14  5 38.0000000  0 22R16G11R17G23G27R 1R 2G28G 8G17R22R24
                                G 1R 7G32R 8R23G14G22G 3G10R15
  24390848.124   130291508.162         372.549          39.000  
  20054402.206   105386652.069        -793.140          45.000  
  24337018.093   130232393.847        3673.368          32.000  
  25300628.791   132955741.952        3148.396          38.000  
  24889053.086   130792774.997       -4130.139          39.000  
  19821433.715   105957006.990        1748.349          51.000  
  24034610.818   128253179.773        3851.948          41.000  
  23363738.348   122777314.611        -855.173          42.000  
  21845099.750   114796773.311       -3221.042          47.000  
  24804677.270   130349475.302        3024.861          40.000  
  23385239.866   124831941.700       -4137.248          48.000  
  20091961.462   107440816.050        2060.414          47.000  
  20364538.713   107016397.025         155.646          47.000  
  23499346.065   125793874.389       -4489.034          43.000  
  23107806.301   121432431.012       -2197.771          45.000  
  19757433.436   105800173.053       -2254.293          50.000  
  19514442.007   104389150.402       -1568.849          52.000  
  22163156.423   116468299.254        -259.767          45.000  
  20537486.669   107925252.561         506.650          49.000  
  21397602.527   112445161.907        1784.421          48.000  
  25777561.111   135461996.057       -3762.396          33.000  
  24429884.809                       -2541.590          24.000  
 16  9 24 14  5 39.0000000  0 22R16G11R17G23G27R 1R 2G28G 8G17R22R24
                                G 1R 7G32R 8R23G14G22G 3G10R15
  24390778.393   130291136.388         371.254          39.000  
  20054553.324   105387445.500        -793.758          45.000  
  24336331.706   130228720.977        3672.833          33.000  
  25300030.005   132952593.393        3148.440          38.000  
  24889838.555   130796905.104       -4130.063          39.000  
  19821106.803   105955259.110        1747.451          51.000  
  24033889.216   128249327.763        3852.083          40.000  
  23363901.194   122778169.889        -856.033          43.000  
  21845712.881   114799994.619       -3221.740          47.000  
  24804101.762   130346450.502        3024.503          39.000  
  23386014.900   124836078.911       -4137.414          48.000  
  20091576.127   107438755.881        2059.746          47.000  
  20364509.397   107016241.542         155.351          47.000  
  23500184.338   125798363.522       -4489.313          42.000  
  23108224.338   121434629.052       -2198.486          45.000  
  19757854.196   105802427.583       -2254.904          51.000  
  19514735.136   104390719.693       -1569.763          52.000  
  22163205.981   116468559.329        -260.405          45.000  
  20537390.414   107924746.095         506.165          49.000  
  21397262.946   112443377.727        1783.910          48.000  
  25778277.198   135465758.749       -3762.992          34.000  
  24430360.292                       -2543.646          25.000  
 16  9 24 14  5 40.0000000  0 22R16G11R17G23G27R 1R 2G28G 8G17R22R24
                                G 1R 7G32R 8R23G14G22G 3G10R15
  24390709.360   130290765.556         370.579          39.000  
  20054704.583   105388239.644        -794.400          45.000  
  24335645.284   130225048.158        3673.657          33.000  
  25299431.078   132949444.905        3148.333          38.000  
  24890624.129   130801035.448       -4130.428          39.000  
  19820779.995   105953512.106        1746.639          51.000  
  24033167.371   128245476.063        3851.604          40.000  
  23364064.284   122779025.908        -856.562          43.000  
  21846325.907   114803216.525       -3222.207          46.000  
  24803526.393   130343425.967        3024.430          39.000  
  23386789.306   124840216.552       -4137.744          48.000  
  20091191.000   107436696.341        2059.406          47.000  
  20364479.941   107016086.591         154.778          47.000  
  23501022.751   125802852.882       -4489.066          42.000  
  23108642.620   121436827.793       -2198.977          45.000  
  19758275.514   105804682.940       -2255.688          51.000  
  19515028.334   104392289.851       -1570.487          52.000  
  22163255.575   116468820.208        -261.076          45.000  
  20537294.333   107924240.245         505.645          49.000  
  21396923.609   112441594.135        1783.285          48.000  
  25778993.425   135469521.510       -3762.847          34.000  
  24430834.624                       -2542.692          26.000  
 16  9 24 14  5 41.0000000  0 22R16G11R17G23G27R 1R 2G28G 8G17R22R24
                                G 1R 7G32R 8R23G14G22G 3G10R15
  24390640.292   130290395.343         369.547          39.000  
  20054855.841   105389034.141        -794.889          45.000  
  24334960.991   130221375.142        3673.103          32.000  
  25298831.977   132946296.176        3148.202          38.000  
  24891410.017   130805165.656       -4130.173          39.000  
  19820453.711   105951765.607        1745.909          51.000  
  24032445.281   128241624.318        3851.366          40.000  
  23364227.164   122779882.274        -857.002          43.000  
  21846939.282   114806438.606       -3222.281          46.000  
  24802950.676   130340401.373        3024.619          40.000  
  23387564.654   124844354.246       -4138.107          48.000  
  20090805.734   107434637.086        2058.646          47.000  
  20364450.450   107015931.784         154.446          47.000  
  23501860.955   125807342.112       -4489.448          42.000  
  23109061.181   121439026.931       -2199.541          45.000  
  19758697.146   105806938.740       -2256.411          51.000  
  19515321.882   104393860.484       -1571.190          52.000  
  22163305.134   116469081.515        -261.810          45.000  
  20537198.182   107923734.641         505.087          49.000  
  21396584.063   112439810.750        1782.700          48.000  
  25779709.373   135473284.036       -3762.757          34.000  
  24431311.469                       -2543.831          27.000  
 16  9 24 14  5 42.0000000  0 22R16G11R17G23G27R 1R 2G28G 8G17R22R24
                                G 1R 7G32R 8R23G14G22G 3G10R15
  24390571.189   130290026.061         368.400          39.000  
  20055007.240   105389829.324        -795.235          45.000  
  24334276.594   130217702.232        3673.081          32.000  
  25298232.842   132943147.480        3148.990          38.000  
  24892196.464   130809296.094       -4130.525          39.000  
  19820127.183   105950019.960        1745.297          51.000  
  24031723.260   128237772.835        3851.263          40.000  
  23364390.533   122780739.342        -857.400          43.000  
  21847552.832   114809661.266       -3222.676          47.000  
  24802375.098   130337377.068        3024.371          39.000  
  23388340.142   124848492.327       -4138.239          48.000  
  20090420.818   107432578.465        2058.331          47.000  
  20364420.785   107015777.489         154.050          47.000  
  23502699.298   125811831.578       -4489.354          42.000  
  23109479.358   121441226.791       -2200.186          45.000  
  19759118.639   105809195.332       -2256.868          51.000  
  19515615.848   104395431.945       -1571.779          52.000  
  22163355.425   116469343.613        -262.613          45.000  
  20537101.648   107923229.624         504.772          49.000  
  21396244.935   112438027.910        1782.676          48.000  
  25780425.006   135477046.677       -3762.513          35.000  
  24431786.813                       -2545.431          25.000  
 16  9 24 14  5 43.0000000  0 22R16G11R17G23G27R 1R 2G28G 8G17R22R24
                                G 1R 7G32R 8R23G14G22G 3G10R15
  24390502.365   130289657.414         368.202          39.000  
  20055158.707   105390624.966        -796.065          45.000  
  24333596.977   130214029.114        3672.807          33.000  
  25297633.392   132939998.727        3148.721          38.000  
  24892982.666   130813426.491       -4130.631          39.000  
  19819800.201   105948274.925        1744.705          51.000  
  24031001.729   128233921.389        3851.503          41.000  
  23364553.867   122781596.881        -857.934          43.000  
  21848166.102   114812884.238       -3223.089          47.000  
  24801799.275   130334352.778        3024.110          39.000  
  23389116.153   124852630.548       -4138.386          48.000  
  20090035.796   107430520.214        2058.181          46.000  
  20364391.643   107015623.442         153.830          46.000  
  23503537.712   125816321.056       -4489.262          43.000  
  23109897.849   121443427.097       -2200.689          45.000  
  19759540.201   105811452.496       -2257.479          51.000  
  19515910.094   104397003.978       -1572.394          52.000  
  22163405.228   116469606.223        -263.010          45.000  
  20537005.741   107922724.942         504.528          49.000  
  21395905.563   112436245.395        1782.340          48.000  
  25781140.989   135480809.207       -3762.966          35.000  
  24432262.785                       -2546.766          25.000  
 16  9 24 14  5 44.0000000  0 22R16G11R17G23G27R 1R 2G28G 8G17R22R24
                                G 1R 7G32R 8R23G14G22G 3G10R15
  24390433.437   130289289.576         367.699          39.000  
  20055310.420   105391421.184        -796.664          45.000  
  24332912.789   130210355.949        3673.126          33.000  
  25297034.396   132936849.920        3148.279          39.000  
  24893768.554   130817556.977       -4130.363          39.000  
  19819473.881   105946530.645        1743.866          51.000  
  24030279.709   128230070.191        3850.699          41.000  
  23364717.061   122782455.037        -858.570          43.000  
  21848779.512   114816107.658       -3223.641          47.000  
  24801223.697   130331328.663        3023.964          39.000  
  23389891.990   124856769.053       -4138.734          48.000  
  20089651.228   107428462.497        2057.353          47.000  
  20364362.536   107015469.797         153.350          47.000  
  23504376.648   125820810.690       -4489.660          43.000  
  23110316.759   121445628.025       -2201.299          45.000  
  19759961.868   105813710.389       -2258.398          50.000  
  19516204.095   104398576.724       -1573.228          52.000  
  22163455.415   116469869.522        -263.894          45.000  
  20536909.486   107922220.763         503.851          49.000  
  21395566.471   112434463.323        1781.777          48.000  
  25781856.901   135484571.718       -3762.424          35.000  
  24432739.944                       -2545.507          25.000  
 16  9 24 14  5 45.0000000  0 22R16G11R17G23G27R 1R 2G28G 8G17R22R24
                                G 1R 7G32R 8R23G14G22G 3G10R15
  24390364.753   130288922.610         366.472          39.000  
  20055461.957   105392218.026        -796.963          45.000  
  24332224.937   130206682.859        3672.145          34.000  
  25296435.644   132933701.119        3148.687          39.000  
  24894554.686   130821687.644       -4130.541          39.000  
  19819147.562   105944787.158        1743.171          51.000  
  24029558.072   128226219.184        3850.677          41.000  
  23364880.849   122783313.818        -859.145          43.000  
  21849392.853   114819331.559       -3223.993          46.000  
  24800648.154   130328304.757        3023.626          39.000  
  23390667.512   124860907.859       -4138.909          48.000  
  20089266.521   107426405.339        2056.934          47.000  
  20364333.499   107015316.594         153.120          46.000  
  23505215.166   125825300.467       -4489.770          43.000  
  23110735.703   121447829.581       -2201.737          45.000  
  19760383.535   105815969.019       -2258.937          50.000  
  19516497.992   104400150.223       -1573.784          52.000  
  22163505.637   116470133.511        -264.227          45.000  
  20536813.964   107921717.100         503.430          49.000  
  21395227.448   112432681.740        1781.432          48.000  
  25782573.093   135488334.265       -3762.361          35.000  
  24433216.474                       -2546.146          26.000  
 16  9 24 14  5 46.0000000  0 22R16G11R17G23G27R 1R 2G28G 8G17R22R24
                                G 1R 7G32R 8R23G14G22G 3G10R15
  24390295.964   130288556.339         365.829          39.000  
  20055613.844   105393015.378        -797.710          45.000  
  24331539.003   130203009.589        3672.789          34.000  
  25295836.682   132930552.258        3148.736          39.000  
  24895340.714   130825818.334       -4130.732          39.000  
  19818821.767   105943044.339        1742.353          51.000  
  24028836.541   128222368.301        3850.981          41.000  
  23365044.358   122784173.129        -859.895          43.000  
  21850006.647   114822555.844       -3224.730          47.000  
  24800072.646   130325280.916        3023.884          39.000  
  23391443.000   124865046.863       -4139.247          48.000  
  20088881.569   107424348.626        2056.344          46.000  
  20364304.636   107015163.700         152.726          47.000  
  23506053.928   125829790.332       -4490.152          43.000  
  23111154.613   121450031.658       -2202.344          45.000  
  19760805.447   105818228.274       -2259.740          50.000  
  19516792.412   104401724.370       -1574.566          52.000  
  22163555.893   116470398.100        -265.071          45.000  
  20536718.092   107921213.834         502.996          49.000  
  21394888.285   112430900.538        1780.775          48.000  
  25783289.285   135492096.725       -3762.784          35.000  
  24433693.877                       -2547.676          27.000  
 16  9 24 14  5 47.0000000  0 22R16G11R17G23G27R 1R 2G28G 8G17R22R24
                                G 1R 7G32R 8R23G14G22G 3G10R15
  24390227.420   130288190.819         365.035          39.000  
  20055765.521   105393813.197        -798.132          45.000  
  24330850.418   130199336.211        3673.915          34.000  
  25295237.407   132927403.239        3148.629          39.000  
  24896126.323   130829949.016       -4130.716          38.000  
  19818495.762   105941302.141        1741.954          51.000  
  24028114.765   128218517.467        3850.963          41.000  
  23365207.936   122785032.898        -859.954          43.000  
  21850620.301   114825780.412       -3224.677          47.000  
  24799496.824   130322257.146        3023.915          39.000  
  23392218.592   124869186.024       -4139.265          48.000  
  20088497.489   107422292.312        2056.108          46.000  
  20364275.529   107015011.083         152.433          47.000  
  23506892.656   125834280.210       -4489.763          43.000  
  23111573.768   121452234.248       -2202.848          45.000  
  19761227.184   105820488.091       -2259.903          51.000  
  19517086.518   104403299.099       -1574.978          52.000  
  22163606.394   116470663.225        -265.283          45.000  
  20536622.290   107920710.932         502.739          49.000  
  21394549.402   112429119.653        1780.618          48.000  
  25784005.442   135495859.056       -3762.503          35.000  
  24434173.025   130568799.2622      -2548.611          27.000  
 16  9 24 14  5 48.0000000  0 22R16G11R17G23G27R 1R 2G28G 8G17R22R24
                                G 1R 7G32R 8R23G14G22G 3G10R15
  24390159.120   130287826.076         364.609          38.000  
  20055917.513   105394611.565        -798.719          45.000  
  24330162.460   130195662.749        3673.596          33.000  
  25294638.062   132924254.125        3149.417          39.000  
  24896912.106   130834079.764       -4130.603          38.000  
  19818169.757   105939560.671        1741.133          51.000  
  24027392.989   128214666.809        3850.680          41.000  
  23365371.410   122785893.243        -860.518          42.000  
  21851234.165   114829005.430       -3225.304          47.000  
  24798921.176   130319233.519        3023.537          39.000  
  23392993.382   124873325.455       -4139.583          47.000  
  20088112.677   107420236.488        2055.557          46.000  
  20364246.422   107014858.829         152.220          47.000  
  23507731.278   125838770.217       -4490.127          43.000  
  23111992.957   121454437.400       -2203.440          45.000  
  19761649.374   105822748.589       -2260.809          51.000  
  19517380.728   104404874.534       -1575.759          52.000  
  22163657.174   116470929.001        -266.005          45.000  
  20536526.628   107920208.484         502.201          49.000  
  21394210.693   112427339.179        1780.360          48.000  
  25784721.634   135499621.385       -3762.370          34.000  
  24434648.963   130571347.4192      -2548.445          29.000  
 16  9 24 14  5 49.0000000  0 22R16G11R17G23G27R 1R 2G28G 8G17R22R24
                                G 1R 7G32R 8R23G14G22G 3G10R15
  24390091.029   130287462.179         363.361          37.000  
  20056069.539   105395410.486        -799.603          45.000  
  24329475.550   130191989.226        3673.755          34.000  
  25294038.717   132921105.063        3148.491          38.000  
  24897697.924   130838210.607       -4130.982          38.000  
  19817843.717   105937819.930        1740.054          51.000  
  24026671.388   128210816.332        3850.010          41.000  
  23365535.232   122786754.176        -861.734          42.000  
  21851847.784   114832230.855       -3226.079          46.000  
  24798345.912   130316210.002        3023.307          39.000  
  23393768.311   124877465.143       -4140.189          47.000  
  20087727.795   107418181.167        2054.779          46.000  
  20364217.664   107014706.957         151.343          47.000  
  23508569.971   125843260.305       -4490.370          43.000  
  23112412.216   121456641.121       -2204.390          45.000  
  19762071.704   105825009.779       -2261.886          51.000  
  19517675.114   104406450.675       -1576.768          52.000  
  22163707.885   116471195.423        -267.156          45.000  
  20536431.245   107919706.496         501.419          49.000  
  21393872.124   112425559.151        1779.437          48.000  
  25785437.930   135503383.667       -3761.963          33.000  
  24435118.827   130573896.1082      -2548.929          28.000  
 16  9 24 14  5 50.0000000  0 22R16G11R17G23G27R 1R 2G28G 8G17R22R24
                                G 1R 7G32R 8R23G14G22G 3G10R15
  24390022.589   130287099.137         362.207          37.000  
  20056221.565   105396210.033        -800.083          45.000  
  24328789.198   130188315.775        3673.065          34.000  
  25293439.511   132917955.954        3148.815          38.000  
  24898483.952   130842341.574       -4130.840          38.000  
  19817518.340   105936079.952        1739.590          51.000  
  24025949.891   128206966.011        3850.111          41.000  
  23365698.880   122787615.744        -862.226          42.000  
  21852461.508   114835456.756       -3226.296          46.000  
  24797770.648   130313186.714        3023.165          40.000  
  23394543.485   124881605.149       -4140.334          47.000  
  20087343.472   107416126.394        2054.434          46.000  
  20364189.081   107014555.486         151.232          47.000  
  23509408.977   125847750.517       -4490.476          44.000  
  23112831.579   121458845.484       -2204.814          45.000  
  19762493.895   105827271.697       -2262.420          51.000  
  19517969.603   104408027.566       -1577.371          51.000  
  22163758.630   116471462.527        -267.572          45.000  
  20536335.583   107919205.016         501.060          49.000  
  21393533.625   112423779.570        1779.238          48.000  
  25786153.424   135507146.003       -3762.636          32.000  
  24435600.069   130576445.5222      -2549.635          27.000  
 16  9 24 14  5 51.0000000  0 22R16G11R17G23G27R 1R 2G28G 8G17R22R24
                                G 1R 7G32R 8R23G14G22G 3G10R15
  24389954.498   130286736.845         361.946          36.000  
  20056373.592   105397010.098        -800.398          45.000  
  24328102.951   130184642.256        3672.855          34.000  
  25292839.852   132914806.777        3149.152          38.000  
  24899270.084   130846472.615       -4131.137          38.000  
  19817192.789   105934340.659        1738.965          51.000  
  24025228.289   128203115.830        3849.972          41.000  
  23365863.122   122788477.821        -862.422          43.000  
  21853075.442   114838683.062       -3226.698          46.000  
  24797194.861   130310163.512        3023.218          39.000  
  23395318.938   124885745.363       -4140.455          47.000  
  20086959.183   107414072.067        2054.158          46.000  
  20364160.637   107014404.358         150.902          47.000  
  23510247.669   125852240.775       -4490.178          43.000  
  23113251.292   121461050.392       -2205.250          45.000  
  19762916.016   105829534.237       -2262.912          50.000  
  19518264.198   104409605.120       -1577.918          51.000  
  22163809.584   116471730.255        -268.033          45.000  
  20536240.340   107918703.963         500.713          49.000  
  21393194.812   112422000.391        1778.975          48.000  
  25786869.546   135510908.199       -3761.771          32.000  
  24436077.402   130578995.4622      -2550.196          27.000  
 16  9 24 14  5 52.0000000  0 22R16G11R17G23G27R 1R 2G28G 8G17R22R24
                                G 1R 7G32R 8R23G14G22G 3G10R15
  24389886.687   130286375.350         361.533          37.000  
  20056525.757   105397810.746        -800.650          45.000  
  24327416.529   130180968.641        3674.081          33.000  
  25292240.646   132911657.586        3149.542          38.000  
  24900056.181   130850603.740       -4130.991          38.000  
  19816867.273   105932602.104        1738.393          51.000  
  24024506.723   128199265.849        3850.195          41.000  
  23366026.910   122789340.534        -862.856          42.000  
  21853689.340   114841909.808       -3227.015          46.000  
  24796619.876   130307140.481        3023.170          39.000  
  23396094.007   124889885.863       -4140.617          47.000  
  20086574.999   107412018.269        2053.647          46.000  
  20364132.263   107014253.628         150.768          47.000  
  23511086.222   125856731.167       -4490.362          43.000  
  23113671.284   121463255.895       -2205.487          45.000  
  19763338.416   105831797.473       -2263.468          51.000  
  19518558.862   104411183.382       -1578.473          51.000  
  22163860.818   116471998.635        -268.419          45.000  
  20536145.062   107918203.380         500.533          49.000  
  21392856.277   112420221.664        1778.690          48.000  
  25787585.843   135514670.489       -3762.522          32.000  
  24436551.036   130581546.1192      -2551.600          27.000  
 16  9 24 14  5 53.0000000  0 22R16G11R17G23G27R 1R 2G28G 8G17R22R24
                                G 1R 7G32R 8R23G14G22G 3G10R15
  24389818.771   130286014.520         360.501          39.000  
  20056678.133   105398611.839        -801.315          45.000  
  24326730.003   130177294.987        3672.363          32.000  
  25291641.196   132908508.247        3149.204          38.000  
  24900842.314   130854734.824       -4131.134          39.000  
  19816542.454   105930864.159        1737.562          51.000  
  24023784.982   128195415.946        3849.876          41.000  
  23366190.942   122790203.663        -863.305          42.000  
  21854303.658   114845136.846       -3227.213          46.000  
  24796044.996   130304117.483        3023.186          40.000  
  23396869.215   124894026.489       -4140.767          47.000  
  20086190.920   107409964.822        2053.139          47.000  
  20364103.714   107014103.145         150.234          47.000  
  23511924.670   125861221.532       -4490.450          43.000  
  23114091.450   121465461.860       -2206.279          45.000  
  19763761.199   105834061.286       -2264.173          51.000  
  19518853.597   104412762.203       -1579.232          51.000  
  22163912.087   116472267.556        -269.326          45.000  
  20536049.784   107917703.148         499.937          49.000  
  21392517.918   112418443.239        1778.273          48.000  
  25788301.267   135518432.554       -3761.826          32.000  
  24437027.741   130584097.1532      -2551.428          27.000  
 16  9 24 14  5 54.0000000  0 22R16G11R17G23G27R 1R 2G28G 8G17R22R24
                                G 1R 7G32R 8R23G14G22G 3G10R15
  24389751.203   130285654.320         359.587          38.000  
  20056830.578   105399413.329        -802.031          45.000  
  24326041.592   130173620.886        3673.732          31.000  
  25291041.886   132905358.688        3149.327          38.000  
  24901628.481   130858865.823       -4131.329          39.000  
  19816217.287   105929126.759        1736.862          51.000  
  24023063.171   128191566.019        3849.374          41.000  
  23366355.497   122791067.223        -864.177          43.000  
  21854917.417   114848364.161       -3227.996          46.000  
  24795469.942   130301094.428        3022.932          40.000  
  23397644.563   124898167.210       -4141.025          47.000  
  20085807.294   107407911.691        2052.656          46.000  
  20364075.654   107013952.861         149.977          47.000  
  23512763.432   125865711.874       -4490.617          43.000  
  23114511.233   121467668.246       -2207.025          45.000  
  19764184.263   105836325.633       -2264.852          51.000  
  19519148.470   104414341.546       -1579.909          51.000  
  22163963.146   116472536.945        -269.880          45.000  
  20535954.156   107917203.196         499.552          48.000  
  21392179.558   112416665.040        1778.075          48.000  
  25789017.319   135522194.457       -3761.840          32.000  
  24437503.748   130586648.746       -2551.833          28.000  
 16  9 24 14  5 55.0000000  0 22R16G11R17G23G27R 1R 2G28G 8G17R22R24
                                G 1R 7G32R 8R23G14G22G 3G10R15
  24389683.741   130285295.040         359.171          37.000  
  20056983.197   105400215.518        -802.465          45.000  
  24325355.903   130169946.971        3674.722          32.000  
  25290442.506   132902209.247        3149.472          38.000  
  24902414.439   130862997.076       -4131.539          39.000  
  19815892.538   105927390.234        1736.285          51.000  
  24022341.639   128187716.389        3849.848          42.000  
  23366519.425   122791931.505        -864.399          42.000  
  21855531.455   114851592.042       -3228.026          46.000  
  24794894.992   130298071.714        3022.668          39.000  
  23398421.028   124902308.331       -4141.168          48.000  
  20085423.773   107405859.213        2052.373          47.000  
  20364047.769   107013803.100         149.657          48.000  
  23513602.334   125870202.524       -4490.749          44.000  
  23114931.504   121469875.355       -2207.334          46.000  
  19764607.326   105838590.830       -2265.482          51.000  
  19519443.519   104415921.760       -1580.535          51.000  
  22164014.694   116472807.129        -270.333          45.000  
  20535859.157   107916703.853         499.243          48.000  
  21391841.547   112414887.476        1777.402          48.000  
  25789733.511   135525956.458       -3761.919          32.000  
  24437981.919   130589201.073       -2552.272          27.000  
 16  9 24 14  5 56.0000000  0 22R16G11R17G23G27R 1R 2G28G 8G17R22R24
                                G 1R 7G32R 8R23G14G22G 3G10R15
  24389616.837   130284936.493         358.376          37.000  
  20057135.817   105401018.168        -802.865          45.000  
  24324666.340   130166273.056        3673.434          31.000  
  25289843.405   132899059.649        3149.922          38.000  
  24903200.955   130867128.283       -4131.064          39.000  
  19815567.860   105925654.331        1735.553          51.000  
  24021620.247   128183866.873        3849.561          41.000  
  23366684.015   122792796.260        -865.006          42.000  
  21856145.877   114854820.259       -3228.215          46.000  
  24794319.798   130295048.982        3022.889          40.000  
  23399197.667   124906449.602       -4141.482          48.000  
  20085040.217   107403807.150        2051.850          47.000  
  20364019.604   107013653.603         149.382          48.000  
  23514441.480   125874693.163       -4490.447          44.000  
  23115351.775   121472082.944       -2207.555          46.000  
  19765030.703   105840856.565       -2265.925          50.000  
  19519738.706   104417502.561       -1581.079          51.000  
  22164066.172   116473077.871        -271.039          45.000  
  20535764.158   107916204.867         498.760          48.000  
  21391503.257   112413110.199        1777.155          48.000  
  25790449.249   135529718.319       -3761.522          32.000  
  24438461.381   130591753.903       -2553.377          27.000  
 16  9 24 14  5 57.0000000  0 22R16G11R17G23G27R 1R 2G28G 8G17R22R24
                                G 1R 7G32R 8R23G14G22G 3G10R15
  24389549.688   130284578.754         357.709          37.000  
  20057289.030   105401821.371        -803.264          45.000  
  24323983.548   130162598.999        3673.861          32.000  
  25289243.571   132895910.023        3149.620          38.000  
  24903987.087   130871259.572       -4131.004          39.000  
  19815243.181   105923919.148        1735.023          51.000  
  24020898.821   128180017.489        3849.384          42.000  
  23366848.675   122793661.580        -865.381          42.000  
  21856760.404   114858048.880       -3228.665          46.000  
  24793744.639   130292026.446        3022.586          40.000  
  23399973.923   124910591.114       -4141.534          49.000  
  20084656.697   107401755.573        2051.490          47.000  
  20363991.649   107013504.479         149.148          48.000  
  23515280.556   125879183.858       -4490.508          45.000  
  23115771.906   121474291.119       -2208.276          45.000  
  19765453.836   105843122.962       -2266.462          50.000  
  19520034.453   104419084.089       -1581.676          51.000  
  22164117.860   116473349.247        -271.548          45.000  
  20535669.334   107915706.327         498.462          48.000  
  21391165.281   112411333.348        1776.910          48.000  
  25791164.917   135533480.184       -3761.743          33.000  
  24438941.123   130594307.315       -2553.314          27.000  
 16  9 24 14  5 58.0000000  0 22R16G11R17G23G27R 1R 2G28G 8G17R22R24
                                G 1R 7G32R 8R23G14G22G 3G10R15
  24389482.819   130284221.882         356.265          37.000  
  20057442.208   105402625.252        -804.093          45.000  
  24323295.974                        3680.652          31.000  
  25288644.087   132892760.441        3149.814          37.000  
  24904773.045   130875391.054       -4131.436          39.000  
  19814918.956   105922184.802        1733.940          51.000  
  24020177.673   128176168.389        3848.764          42.000  
  23367013.510   122794527.603        -866.230          42.000  
  21857375.455   114861278.043       -3229.377          46.000  
  24793169.200   130289004.130        3022.289          40.000  
  23400750.388   124914732.997       -4142.041          49.000  
  20084273.280   107399704.612        2050.583          47.000  
  20363963.624   107013355.839         148.381          48.000  
  23516119.633   125883674.740       -4491.021          44.000  
  23116192.387   121476499.971       -2209.082          45.000  
  19765877.038   105845390.150       -2267.503          50.000  
  19520330.129   104420666.442       -1582.830          51.000  
  22164170.106   116473621.387        -272.586          45.000  
  20535574.475   107915208.371         497.662          48.000  
  21390827.341   112409557.027        1776.261          48.000  
  25791880.900   135537242.148       -3762.171          34.000  
  24439419.992   130596861.554       -2554.693          26.000  
 16  9 24 14  5 59.0000000  0 22R16G11R17G23G27R 1R 2G28G 8G17R22R24
                                G 1R 7G32R 8R23G14G22G 3G10R15
  24389416.787   130283865.729         356.107          38.000  
  20057595.177   105403429.600        -804.640          45.000  
  24322607.284   130155227.3323       3674.459          30.000  
  25288044.532   132889610.736        3150.318          37.000  
  24905559.073   130879522.533       -4131.232          39.000  
  19814594.696   105920451.091        1733.436          51.000  
  24019456.525   128172319.336        3848.855          42.000  
  23367178.554   122795394.110        -867.006          42.000  
  21857990.086   114864507.523       -3229.726          46.000  
  24792594.181   130285981.863        3022.208          40.000  
  23401525.945   124918875.066       -4142.073          48.000  
  20083890.143   107397654.049        2050.429          47.000  
  20363935.424   107013207.461         148.206          48.000  
  23516958.639   125888165.646       -4490.840          44.000  
  23116612.937   121478709.302       -2209.600          46.000  
  19766300.730   105847657.936       -2268.127          50.000  
  19520625.806   104422249.369       -1583.237          51.000  
  22164222.003   116473894.050        -272.843          45.000  
  20535479.755   107914710.760         497.379          48.000  
  21390489.120   112407781.031        1775.981          48.000  
  25792596.812   135541003.981       -3762.149          34.000  
  24439898.581                       -2564.580          24.000  
 16  9 24 14  6  0.0000000  0 22R16G11R17G23G27R 1R 2G28G 8G17R22R24
                                G 1R 7G32R 8R23G14G22G 3G10R15
  24389350.267   130283510.258         354.883          38.000  
  20057748.459   105404234.341        -804.962          45.000  
  24321914.964   130151521.8722       3674.948          31.000  
  25287445.047   132886460.861        3150.064          37.000  
  24906345.589   130883653.915       -4131.271          39.000  
  19814270.471   105918717.931        1732.947          51.000  
  24018735.587   128168470.284        3849.204          42.000  
  23367343.703   122796260.999        -867.393          42.000  
  21858604.578   114867737.269       -3229.909          46.000  
  24792019.789   130282959.589        3022.456          40.000  
  23402301.782   124923017.248       -4142.312          48.000  
  20083506.657   107395603.829        2049.955          47.000  
  20363907.120   107013059.300         147.980          48.000  
  23517797.541   125892656.516       -4490.828          44.000  
  23117033.243   121480919.064       -2210.057          46.000  
  19766724.177   105849926.264       -2268.632          50.000  
  19520922.145   104423832.823       -1583.726          51.000  
  22164273.760   116474167.215        -273.409          45.000  
  20535385.349   107914213.457         497.154          48.000  
  21390151.284   112406005.307        1775.455          48.000  
  25793312.725   135544765.582       -3761.168          34.000  
  24440376.299                       -2566.469          24.000  
 16  9 24 14  6  1.0000000  0 22R16G11R17G23G27R 1R 2G28G 8G17R22R24
                                G 1R 7G32R 8R23G14G22G 3G10R15
  24389283.537   130283155.537         354.705          37.000  
  20057901.358   105405039.594        -805.560          45.000  
  24321232.416   130147847.4652       3674.128          32.000  
  25286845.388   132883310.873        3150.136          37.000  
  24907131.965   130887785.365       -4131.526          40.000  
  19813946.455   105916985.445        1732.123          51.000  
  24018014.683   128164621.394        3848.450          42.000  
  23367508.573   122797128.425        -867.491          42.000  
  21859219.489   114870967.406       -3230.521          47.000  
  24791445.049   130279937.432        3022.056          40.000  
  23403077.339   124927159.645       -4142.555          48.000  
  20083123.206   107393554.077        2049.531          47.000  
  20363879.269   107012911.478         147.492          48.000  
  23518636.513   125897147.474       -4491.017          44.000  
  23117453.898   121483129.364       -2210.530          45.000  
  19767147.833   105852195.222       -2269.320          50.000  
  19521218.869   104425416.939       -1584.558          51.000  
  22164325.552   116474440.980        -273.984          45.000  
  20535290.978   107913716.574         496.555          49.000  
  21389813.239   112404229.954        1775.161          48.000  
  25794028.917   135548527.185       -3761.563          35.000  
  24440855.551                       -2563.799          22.000  
 16  9 24 14  6  2.0000000  0 22R16G11R17G23G27R 1R 2G28G 8G17R22R24
                                G 1R 7G32R 8R23G14G22G 3G10R15
  24389217.157   130282801.545         353.510          38.000  
  20058054.641   105405845.347        -806.067          45.000  
  24320544.564   130144172.8102       3675.238          32.000  
  25286245.624   132880160.783        3150.439          37.000  
  24907918.517   130891916.828       -4131.700          40.000  
  19813622.544   105915253.621        1731.431          51.000  
  24017293.955   128160772.556        3848.815          42.000  
  23367673.268   122797996.374        -868.263          42.000  
  21859834.225   114874197.889       -3230.771          47.000  
  24790870.029   130276915.364        3021.653          40.000  
  23403852.967   124931302.218       -4142.774          48.000  
  20082740.034   107391504.758        2049.014          47.000  
  20363851.070   107012763.950         147.315          48.000  
  23519475.170   125901638.519       -4491.071          43.000  
  23117874.692   121485340.181       -2211.370          46.000  
  19767571.873   105854464.769       -2270.009          50.000  
  19521515.243   104427001.673       -1585.042          51.000  
  22164377.694   116474715.324        -274.692          45.000  
  20535196.468   107913220.093         496.036          49.000  
  21389475.612   112402454.983        1774.661          48.000  
  25794744.829   135552288.701       -3761.993          35.000  
  24441332.780                       -2557.664          21.000  
 16  9 24 14  6  3.0000000  0 22R16G11R17G23G27R 1R 2G28G 8G17R22R24
                                G 1R 7G32R 8R23G14G22G 3G10R15
  24389151.021   130282448.274         352.715          37.000  
  20058208.098   105406651.615        -806.897          45.000  
  24319860.166   130140498.2052       3674.072          34.000  
  25285646.139   132877010.614        3149.881          38.000  
  24908704.789   130896048.305       -4131.984          40.000  
  19813298.459   105913522.455        1730.620          51.000  
  24016572.947   128156923.825        3848.436          42.000  
  23367838.382   122798864.844        -868.787          42.000  
  21860449.485   114877428.747       -3231.333          47.000  
  24790294.975   130273893.350        3021.726          41.000  
  23404628.734   124935444.976       -4143.118          48.000  
  20082357.037   107389455.873        2048.460          47.000  
  20363822.801   107012616.741         146.878          48.000  
  23520313.967   125906129.588       -4491.243          44.000  
  23118295.487   121487551.501       -2211.773          45.000  
  19767995.565   105856734.905       -2270.690          50.000  
  19521812.700   104428587.051       -1585.918          51.000  
  22164430.324   116474990.245        -275.362          45.000  
  20535102.062   107912723.997         495.677          49.000  
  21389137.706   112400680.351        1774.191          48.000  
  25795460.707   135556050.060       -3761.167          35.000  
  24441812.382                       -2561.710          20.000  
 16  9 24 14  6  4.0000000  0 22R16G11R17G23G27R 1R 2G28G 8G17R22R24
                                G 1R 7G32R 8R23G14G22G 3G10R15
  24389085.268   130282095.863         351.925          38.000  
  20058361.381   105407458.494        -807.307          45.000  
  24319177.060   130136823.5612       3674.821          34.000  
  25285046.864   132873860.479        3149.727          38.000  
  24909491.060   130900179.933       -4131.841          40.000  
  19812974.862   105911792.074        1730.008          51.000  
  24015852.113   128153075.321        3848.648          42.000  
  23368003.496   122799733.961        -869.455          42.000  
  21861064.186   114880660.084       -3231.351          47.000  
  24789720.235   130270871.545        3021.795          41.000  
  23405404.221   124939588.057       -4143.158          47.000  
  20081973.726   107387407.538        2048.168          47.000  
  20363794.531   107012469.960         146.694          48.000  
  23521153.113   125910620.801       -4491.383          44.000  
  23118716.281   121489763.484       -2212.165          45.000  
  19768419.291   105859005.801       -2271.230          50.000  
  19522109.668   104430173.192       -1586.433          51.000  
  22164483.268   116475265.885        -275.996          46.000  
  20535007.552   107912228.430         495.373          49.000  
  21388800.079   112398906.236        1773.811          48.000  
  25796176.445   135559811.512       -3761.651          34.000  
  24442289.296                       -2555.465          21.000  
 16  9 24 14  6  5.0000000  0 22R16G11R17G23G27R 1R 2G28G 8G17R22R24
                                G 1R 7G32R 8R23G14G22G 3G10R15
  24389019.202   130281744.146         351.750          37.000  
  20058515.117   105408265.863        -807.622          45.000  
  24318491.406   130133148.8122       3674.672          33.000  
  25284447.205   132870710.221        3150.429          37.000  
  24910277.402   130904311.582       -4131.735          39.000  
  19812650.951   105910062.340        1729.412          51.000  
  24015130.965   128149226.896        3848.619          42.000  
  23368168.959   122800603.592        -870.071          42.000  
  21861679.062   114883891.781       -3231.834          46.000  
  24789145.145   130267849.836        3021.803          41.000  
  23406180.477   124943731.331       -4143.364          48.000  
  20081590.868   107385359.621        2047.846          47.000  
  20363766.332   107012323.472         146.500          47.000  
  23521992.259   125915112.011       -4491.174          44.000  
  23119137.181   121491975.975       -2212.812          45.000  
  19768843.087   105861277.309       -2271.821          50.000  
  19522407.019   104431759.961       -1587.105          52.000  
  22164536.246   116475542.093        -276.377          46.000  
  20534913.425   107911733.259         494.971          49.000  
  21388462.592   112397132.458        1773.725          48.000  
  25796892.358   135563572.836       -3761.221          34.000  
  24442766.141                       -2551.916          20.000  
 16  9 24 14  6  6.0000000  0 22R16G11R17G23G27R 1R 2G28G 8G17R22R24
                                G 1R 7G32R 8R23G14G22G 3G10R15
  24388953.449   130281393.319         350.149          37.000  
  20058668.679   105409073.810        -808.269          45.000  
  24317804.251   130129474.0582       3674.026          34.000  
  25283847.580   132867559.914        3150.216          38.000  
  24911063.116   130908443.277       -4131.789          39.000  
  19812327.284   105908333.341        1728.665          51.000  
  24014409.957   128145378.705        3847.963          42.000  
  23368334.422   122801473.762        -870.400          41.000  
  21862293.799   114887123.922       -3232.419          46.000  
  24788569.951   130264828.254        3021.531          40.000  
  23406957.465   124947874.861       -4143.659          48.000  
  20081207.801   107383312.189        2047.162          47.000  
  20363738.132   107012177.383         145.929          47.000  
  23522831.719   125919603.376       -4491.376          44.000  
  23119558.045   121494189.027       -2213.239          45.000  
  19769267.092   105863549.518       -2272.425          50.000  
  19522703.917   104433347.433       -1587.777          52.000  
  22164589.016   116475818.957        -277.242          46.000  
  20534819.020   107911238.549         494.383          49.000  
  21388125.035   112395359.113        1772.994          48.000  
  25797607.991   135567334.176       -3761.537          33.000  
  24443243.998                       -2555.725          19.000  
 16  9 24 14  6  7.0000000  0 22R16G11R17G23G27R 1R 2G28G 8G17R22R24
                                G 1R 7G32R 8R23G14G22G 3G10R15
  24388888.046   130281043.227         349.500          37.000  
  20058822.241   105409882.302        -808.998          45.000  
  24317117.236   130125799.1242       3674.642          34.000  
  25283248.200   132864409.588        3149.975          38.000  
  24911849.702   130912575.100       -4132.216          39.000  
  19812003.583   105906605.057        1727.590          51.000  
  24013689.089   128141530.656        3847.469          42.000  
  23368500.164   122802344.521        -871.095          42.000  
  21862908.954   114890356.474       -3233.033          46.000  
  24787995.211   130261806.821        3021.172          41.000  
  23407734.384   124952018.652       -4144.303          48.000  
  20080824.838   107381265.258        2046.308          47.000  
  20363710.351   107012031.659         145.127          47.000  
  23523670.761   125924094.815       -4491.658          44.000  
  23119979.363   121496402.677       -2214.202          45.000  
  19769691.621   105865822.421       -2273.477          50.000  
  19523001.129   104434935.603       -1588.831          52.000  
  22164642.099   116476096.469        -278.106          46.000  
  20534725.138   107910744.291         493.624          49.000  
  21387787.652   112393586.205        1772.285          48.000  
  25798323.590   135571095.475       -3761.750          34.000  
  24443724.472                       -2554.383          21.000  
 16  9 24 14  6  8.0000000  0 22R16G11R17G23G27R 1R 2G28G 8G17R22R24
                                G 1R 7G32R 8R23G14G22G 3G10R15
  24388822.224   130280693.873         348.953          37.000  
  20058976.501   105410691.300        -809.352          45.000  
  24316430.256   130122123.6051       3675.199          34.000  
  25282649.099   132861259.101        3150.695          39.000  
  24912635.764   130916706.913       -4131.866          39.000  
  19811680.684   105904877.421        1727.295          51.000  
  24012968.011   128137682.646        3848.126          42.000  
  23368665.941   122803215.801        -871.546          42.000  
  21863523.864   114893589.374       -3232.997          46.000  
  24787420.366   130258785.460        3021.068          40.000  
  23408510.709   124956162.617       -4143.993          48.000  
  20080442.364   107379218.752        2046.398          47.000  
  20363682.501   107011886.216         145.295          47.000  
  23524509.593   125928586.339       -4491.527          43.000  
  23120400.646   121498616.821       -2214.349          45.000  
  19770116.045   105868095.904       -2273.672          50.000  
  19523298.446   104436524.395       -1589.023          52.000  
  22164695.113   116476374.556        -278.426          46.000  
  20534631.325   107910250.412         493.627          49.000  
  21387450.305   112391813.621        1772.272          48.000  
  25799039.677   135574856.660       -3761.161          33.000  
  24444203.341                       -2563.204          22.000  
 16  9 24 14  6  9.0000000  0 22R16G11R17G23G27R 1R 2G28G 8G17R22R24
                                G 1R 7G32R 8R23G14G22G 3G10R15
  24388756.855   130280345.241         348.574          37.000  
  20059130.482   105411500.850        -809.908          45.000  
  24315743.415   130118448.639        3675.062          34.000  
  25282049.998   132858108.599        3150.510          39.000  
  24913422.420   130920838.783       -4131.960          40.000  
  19811357.960   105903150.511        1726.555          51.000  
  24012246.793   128133834.797        3847.703          42.000  
  23368831.858   122804087.644        -872.300          42.000  
  21864139.438   114896822.714       -3233.610          46.000  
  24786845.486   130255764.237        3021.029          40.000  
  23409286.441   124960306.855       -4144.282          48.000  
  20080059.995   107377172.788        2045.671          47.000  
  20363654.964   107011741.157         144.716          47.000  
  23525347.796   125933077.961       -4491.561          43.000  
  23120822.348   121500831.545       -2214.863          45.000  
  19770540.679   105870370.065       -2274.465          50.000  
  19523595.728   104438113.901       -1589.751          52.000  
  22164747.848   116476653.276        -279.017          46.000  
  20534537.618   107909756.990         493.204          49.000  
  21387113.062   112390041.470        1772.036          48.000  
  25799755.973   135578617.795       -3760.900          33.000  
  24444680.918                       -2564.751          23.000  
 16  9 24 14  6 10.0000000  0 22R16G11R17G23G27R 1R 2G28G 8G17R22R24
                                G 1R 7G32R 8R23G14G22G 3G10R15
  24388691.940   130279997.530         347.856          38.000  
  20059284.707   105412311.013        -810.495          45.000  
  24315056.610   130114773.637        3674.574          34.000  
  25281450.723   132854958.154        3150.325          39.000  
  24914208.657   130924970.840       -4132.320          40.000  
  19811034.712   105901424.396        1725.851          51.000  
  24011525.750   128129987.160        3847.678          42.000  
  23368997.879   122804960.123        -872.682          42.000  
  21864755.012   114900056.519       -3233.937          46.000  
  24786270.466   130252743.204        3021.115          40.000  
  23410062.906   124964451.429       -4144.673          48.000  
  20079677.207   107375127.395        2045.179          47.000  
  20363627.149   107011596.508         144.503          47.000  
  23526186.698   125937569.746       -4491.657          43.000  
  23121243.945   121503046.917       -2215.685          45.000  
  19770965.382   105872644.966       -2275.229          50.000  
  19523892.870   104439704.174       -1590.529          52.000  
  22164800.862   116476932.715        -279.615          46.000  
  20534443.910   107909264.091         492.742          49.000  
  21386775.749   112388269.812        1771.510          48.000  
  25800471.712   135582379.030       -3761.259          33.000  
  24445159.229                       -2555.897          24.000  
 16  9 24 14  6 11.0000000  0 22R16G11R17G23G27R 1R 2G28G 8G17R22R24
                                G 1R 7G32R 8R23G14G22G 3G10R15
  24388626.956   130279650.606         346.075          38.000  
  20059439.106   105413121.715        -811.125          45.000  
  24314369.804   130111098.519        3675.001          34.000  
  25280851.413   132851807.601        3150.476          39.000  
  24914995.348   130929102.940       -4132.453          40.000  
  19810712.092   105899698.994        1724.849          51.000  
  24010804.603   128126139.736        3846.908          41.000  
  23369164.075   122805833.155        -873.487          42.000  
  21865370.481   114903290.742       -3234.664          46.000  
  24785695.796   130249722.324        3020.445          40.000  
  23410838.987   124968596.252       -4145.311          48.000  
  20079295.047   107373082.495        2044.630          47.000  
  20363599.612   107011452.226         143.927          47.000  
  23527025.705   125942061.594       -4492.007          43.000  
  23121665.508   121505262.846       -2216.455          45.000  
  19771390.400   105874920.517       -2276.019          50.000  
  19524190.606   104441295.127       -1591.436          52.000  
  22164854.469   116477212.778        -280.479          46.000  
  20534350.272   107908771.623         492.050          49.000  
  21386438.960   112386498.547        1771.099          48.000  
  25801187.345   135586140.146       -3760.395          32.000  
  24445637.504                       -2556.824          25.000  
 16  9 24 14  6 12.0000000  0 22R16G11R17G23G27R 1R 2G28G 8G17R22R24
                                G 1R 7G32R 8R23G14G22G 3G10R15
  24388562.076   130279304.488         345.695          38.000  
  20059593.680   105413932.991        -811.355          45.000  
  24313683.033   130107423.465        3675.273          34.000  
  25280252.451   132848657.027        3150.935          39.000  
  24915781.724   130933235.121       -4132.136          40.000  
  19810389.473   105897974.330        1724.509          51.000  
  24010083.455   128122292.530        3847.229          41.000  
  23369330.061   122806706.785        -873.981          41.000  
  21865985.881   114906525.396       -3234.679          46.000  
  24785120.985   130246701.597        3021.006          40.000  
  23411615.591   124972741.303       -4145.044          49.000  
  20078912.818   107371038.084        2044.482          47.000  
  20363571.832   107011308.311         143.988          47.000  
  23527864.851   125946553.529       -4491.786          42.000  
  23122086.896   121507479.351       -2216.728          45.000  
  19771815.313   105877196.738       -2276.290          50.000  
  19524487.469   104442886.786       -1591.799          52.000  
  22164907.901   116477493.487        -280.720          46.000  
  20534256.460   107908279.621         492.010          49.000  
  21386101.857   112384727.722        1771.078          48.000  
  25801902.909   135589901.281       -3760.635          32.000  
  24446116.513                       -2563.312          25.000  
 16  9 24 14  6 13.0000000  0 22R16G11R17G23G27R 1R 2G28G 8G17R22R24
                                G 1R 7G32R 8R23G14G22G 3G10R15
  24388497.475   130278958.989         345.457          38.000  
  20059748.150   105414744.678        -811.815          45.000  
  24312996.123   130103748.120        3675.582          34.000  
  25279652.932   132845506.292        3150.902          39.000  
  24916568.066   130937367.216       -4131.898          40.000  
  19810066.748   105896250.248        1723.979          51.000  
  24009362.621   128118445.353        3847.211          41.000  
  23369496.327   122807580.817        -874.316          41.000  
  21866601.315   114909760.318       -3235.027          46.000  
  24784546.280   130243680.852        3020.726          40.000  
  23412392.335   124976886.455       -4145.019          48.000  
  20078530.379   107368994.013        2044.023          47.000  
  20363544.504   107011164.636         143.762          47.000  
  23528703.962   125951045.464       -4491.718          43.000  
  23122508.737   121509696.298       -2216.943          45.000  
  19772240.330   105879473.475       -2276.848          50.000  
  19524785.449   104444478.978       -1592.301          52.000  
  22164961.578   116477774.698        -281.336          46.000  
  20534163.276   107907787.930         491.698          49.000  
  21385765.381   112382957.175        1770.540          48.000  
  25802618.786   135593662.288       -3760.976          33.000  
  24446592.520                       -2562.764          25.000  
 16  9 24 14  6 14.0000000  0 22R16G11R17G23G27R 1R 2G28G 8G17R22R24
                                G 1R 7G32R 8R23G14G22G 3G10R15
  24388433.084   130278614.211         344.252          38.000  
  20059902.479   105415556.842        -812.808          45.000  
  24312309.317   130100072.652        3675.077          35.000  
  25279053.656   132842355.401        3151.071          39.000  
  24917354.198   130941499.344       -4132.040          39.000  
  19809743.815   105894526.799        1722.962          51.000  
  24008641.613   128114598.159        3847.270          42.000  
  23369662.628   122808455.321        -874.707          41.000  
  21867217.168   114912995.556       -3235.253          46.000  
  24783971.400   130240660.155        3020.789          40.000  
  23413169.359   124981031.737       -4145.459          49.000  
  20078148.184   107366950.294        2043.461          47.000  
  20363517.247   107011021.227         143.042          47.000  
  23529542.585   125955537.393       -4492.097          43.000  
  23122931.032   121511913.733       -2217.905          45.000  
  19772665.522   105881750.810       -2277.819          50.000  
  19525083.638   104446071.774       -1593.151          52.000  
  22165015.080   116478056.471        -282.160          46.000  
  20534069.673   107907296.602         491.008          49.000  
  21385428.488   112381186.965        1769.900          48.000  
  25803334.594   135597423.120       -3760.893          33.000  
  24447071.528                       -2563.905          25.000  
 16  9 24 14  6 15.0000000  0 22R16G11R17G23G27R 1R 2G28G 8G17R22R24
                                G 1R 7G32R 8R23G14G22G 3G10R15
  24388368.832   130278270.139         343.411          38.000  
  20060057.437   105416369.454        -813.121          45.000  
  24311622.197   130096397.043        3675.339          35.000  
  25278453.927   132839204.392        3150.546          39.000  
  24918140.261   130945631.459       -4132.233          39.000  
  19809421.125   105892803.960        1722.515          51.000  
  24007921.059   128110751.028        3846.953          42.000  
  23369829.242   122809330.346        -875.467          41.000  
  21867832.916   114916231.134       -3235.803          46.000  
  24783396.345   130237639.511        3020.519          40.000  
  23413945.544   124985177.207       -4145.747          48.000  
  20077766.059   107364906.976        2043.051          47.000  
  20363489.990   107010878.090         142.987          47.000  
  23530381.382   125960029.376       -4491.986          43.000  
  23123353.432   121514131.643       -2218.199          46.000  
  19773090.889   105884028.754       -2278.380          50.000  
  19525381.514   104447665.175       -1593.815          52.000  
  22165068.932   116478338.783        -282.630          46.000  
  20533976.314   107906805.640         490.686          49.000  
  21385091.524   112379417.074        1769.634          48.000  
  25804050.507   135601183.803       -3760.367          33.000  
  24447550.781                       -2564.854          26.000  
 16  9 24 14  6 16.0000000  0 22R16G11R17G23G27R 1R 2G28G 8G17R22R24
                                G 1R 7G32R 8R23G14G22G 3G10R15
  24388304.371   130277926.954         342.544          37.000  
  20060212.186   105417182.706        -813.499          45.000  
  24310935.392   130092721.460        3675.596          34.000  
  25277853.919   132836053.408        3150.716          39.000  
  24918926.952   130949763.700       -4132.228          40.000  
  19809099.029   105891081.912        1721.844          51.000  
  24007200.295   128106904.100        3847.158          42.000  
  23369995.822   122810205.983        -875.849          41.000  
  21868448.316   114919467.193       -3236.075          46.000  
  24782821.396   130234619.078        3020.470          40.000  
  23414722.463   124989322.989       -4145.845          49.000  
  20077384.318   107362864.237        2042.505          47.000  
  20363462.872   107010735.396         142.577          47.000  
  23531220.458   125964521.515       -4492.195          43.000  
  23123775.379   121516350.193       -2218.864          45.000  
  19773516.220   105886307.444       -2278.922          50.000  
  19525679.633   104449259.339       -1594.393          52.000  
  22165122.818   116478621.813        -283.263          46.000  
  20533882.851   107906315.191         490.220          49.000  
  21384754.874   112377647.678        1769.347          48.000  
  25804766.350   135604944.547       -3760.275          33.000  
  24448030.173                       -2563.274          26.000  
 16  9 24 14  6 17.0000000  0 22R16G11R17G23G27R 1R 2G28G 8G17R22R24
                                G 1R 7G32R 8R23G14G22G 3G10R15
  24388240.189   130277584.467         342.020          37.000  
  20060367.144   105417996.475        -814.143          45.000  
  24310248.761   130089045.792        3675.685          35.000  
  25277254.329   132832902.328        3150.929          39.000  
  24919713.154   130953895.972       -4132.595          39.000  
  19808776.968   105889360.562        1720.732          51.000  
  24006479.671   128103057.346        3846.431          42.000  
  23370162.681   122811082.159        -876.556          41.000  
  21869064.099   114922703.630       -3236.760          46.000  
  24782246.516   130231598.761        3020.224          40.000  
  23415499.835   124993468.986       -4146.309          49.000  
  20077002.368   107360821.979        2041.854          47.000  
  20363435.685   107010593.029         142.008          47.000  
  23532059.674   125969013.704       -4492.148          43.000  
  23124197.639   121518569.296       -2219.544          46.000  
  19773941.657   105888586.757       -2279.886          50.000  
  19525977.369   104450854.147       -1595.427          52.000  
  22165176.844   116478905.457        -284.254          46.000  
  20533789.631   107905825.173         489.543          49.000  
  21384418.294   112375878.678        1768.550          48.000  
  25805481.844   135608705.257       -3760.484          32.000  
  24448511.485                       -2565.769          27.000  
 16  9 24 14  6 18.0000000  0 22R16G11R17G23G27R 1R 2G28G 8G17R22R24
                                G 1R 7G32R 8R23G14G22G 3G10R15
  24388176.391   130277242.781         341.243          37.000  
  20060522.067   105418810.764        -814.603          45.000  
  24309562.025   130085370.029        3675.596          36.000  
  25276654.740   132829751.189        3150.834          39.000  
  24920499.007   130958028.284       -4132.104          39.000  
  19808454.592   105887639.890        1720.251          51.000  
  24005759.186   128099210.711        3846.443          42.000  
  23370329.645   122811958.870        -876.948          41.000  
  21869680.162   114925940.437       -3237.067          46.000  
  24781671.706   130228578.530        3020.221          40.000  
  23416276.998   124997615.204       -4146.388          49.000  
  20076620.348   107358780.188        2041.542          47.000  
  20363408.812   107010450.993         141.742          47.000  
  23532899.134   125973505.946       -4492.373          44.000  
  23124620.004   121520788.919       -2220.063          46.000  
  19774367.198   105890866.664       -2280.203          50.000  
  19526275.488   104452449.583       -1595.734          52.000  
  22165230.940   116479189.685        -284.579          46.000  
  20533696.587   107905335.559         489.366          49.000  
  21384081.435   112374110.034        1768.431          48.000  
  25806197.442   135612465.890       -3760.381          31.000  
  24448991.541   130647997.4623      -2565.805          28.000  
 16  9 24 14  6 19.0000000  0 22R16G11R17G23G27R 1R 2G28G 8G17R22R24
                                G 1R 7G32R 8R23G14G22G 3G10R15
  24388112.523   130276901.749         341.314          36.000  
  20060677.199   105419625.479        -814.947          45.000  
  24308875.045   130081694.135        3676.014          36.000  
  25276055.116   132826599.869        3151.316          38.000  
  24921285.279   130962160.564       -4132.128          39.000  
  19808132.915   105885919.843        1719.808          51.000  
  24005038.562   128095364.109        3846.379          42.000  
  23370496.434   122812836.010        -877.286          41.000  
  21870296.119   114929177.548       -3237.023          46.000  
  24781096.895   130225558.328        3020.325          41.000  
  23417054.022   125001761.570       -4146.480          49.000  
  20076238.991   107356738.777        2041.353          47.000  
  20363382.113   107010309.204         141.740          47.000  
  23533738.489   125977998.166       -4492.256          43.000  
  23125042.544   121523009.003       -2220.196          45.000  
  19774793.192   105893147.141       -2280.694          50.000  
  19526573.608   104454045.597       -1596.091          52.000  
  22165285.070   116479474.443        -285.049          46.000  
  20533603.542   107904846.287         489.171          49.000  
  21383744.751   112372341.709        1768.174          48.000  
  25806913.076   135616226.397       -3761.267          31.000  
  24449472.783   130650563.4932      -2565.932          28.000  
 16  9 24 14  6 20.0000000  0 22R16G11R17G23G27R 1R 2G28G 8G17R22R24
                                G 1R 7G32R 8R23G14G22G 3G10R15
  24388048.865   130276561.606         339.368          36.000  
  20060832.227   105420440.834        -815.698          45.000  
  24308188.309   130078018.253        3675.737          37.000  
  25275455.666   132823448.594        3151.024          39.000  
  24922071.481   130966292.985       -4132.350          39.000  
  19807811.238   105884200.577        1718.922          51.000  
  24004317.833   128091517.743        3846.101          42.000  
  23370663.502   122813713.794        -878.232          41.000  
  21870912.601   114932415.137       -3237.690          47.000  
  24780522.085   130222538.306        3020.156          41.000  
  23417831.429   125005908.239       -4146.869          49.000  
  20075857.494   107354697.918        2040.493          47.000  
  20363355.344   107010167.830         141.342          47.000  
  23534577.601   125982490.537       -4492.228          43.000  
  23125464.734   121525229.724       -2220.770          45.000  
  19775219.292   105895428.362       -2281.562          50.000  
  19526872.216   104455642.372       -1597.348          52.000  
  22165338.852   116479759.911        -285.798          46.000  
  20533510.288   107904357.525         488.630          49.000  
  21383408.590   112370573.865        1767.551          48.000  
  25807628.639   135619986.897       -3760.271          31.000  
  24449951.722   130653130.2312      -2567.407          29.000  
 16  9 24 14  6 21.0000000  0 22R16G11R17G23G27R 1R 2G28G 8G17R22R24
                                G 1R 7G32R 8R23G14G22G 3G10R15
  24387985.137   130276222.203         338.578          35.000  
  20060987.464   105421256.711        -816.049          45.000  
  24307501.678   130074342.257        3675.822          36.000  
  25274856.111   132820297.193        3151.355          39.000  
  24922857.927   130970425.435       -4132.435          39.000  
  19807489.421   105882481.977        1718.295          51.000  
  24003597.314   128087671.469        3846.195          42.000  
  23370830.815   122814592.097        -878.363          42.000  
  21871528.873   114935653.097       -3238.062          47.000  
  24779947.799   130219518.403        3020.038          41.000  
  23418608.173   125010055.130       -4146.979          49.000  
  20075475.962   107352657.492        2040.338          47.000  
  20363328.366   107010026.801         140.978          47.000  
  23535416.537   125986982.991       -4492.469          43.000  
  23125887.274   121527450.975       -2221.357          45.000  
  19775645.461   105897710.212       -2282.131          50.000  
  19527170.580   104457239.800       -1597.754          52.000  
  22165393.052   116480045.968        -286.330          46.000  
  20533417.174   107903869.176         488.157          49.000  
  21383071.975   112368806.393        1767.145          48.000  
  25808344.168   135623747.370       -3760.768          31.000  
  24450432.964   130655697.4292      -2567.189          29.000  
 16  9 24 14  6 22.0000000  0 22R16G11R17G23G27R 1R 2G28G 8G17R22R24
                                G 1R 7G32R 8R23G14G22G 3G10R15
  24387921.269   130275883.516         338.086          35.000  
  20061142.701   105422073.084        -816.467          45.000  
  24306814.732   130070666.114        3676.085          36.000  
  25274256.487   132817145.717        3151.819          39.000  
  24923644.025   130974557.887       -4132.287          38.000  
  19807168.058   105880764.024        1717.809          51.000  
  24002876.829   128083825.235        3846.627          42.000  
  23370997.988   122815470.937        -879.261          42.000  
  21872144.830   114938891.415       -3238.464          46.000  
  24779373.023   130216498.565        3020.111          40.000  
  23419384.917   125014202.202       -4147.052          49.000  
  20075094.466   107350617.504        2039.954          47.000  
  20363301.458   107009886.071         140.790          47.000  
  23536255.509   125991475.443       -4492.217          43.000  
  23126310.128   121529672.743       -2221.907          45.000  
  19776071.909   105899992.637       -2282.526          50.000  
  19527469.048   104458837.873       -1598.232          51.000  
  22165447.427   116480332.606        -286.820          46.000  
  20533324.374   107903381.215         487.939          49.000  
  21382735.675   112367039.261        1767.270          48.000  
  25809059.766   135627507.670       -3759.699          31.000  
  24450910.053   130658265.2212      -2567.918          29.000  
 16  9 24 14  6 23.0000000  0 22R16G11R17G23G27R 1R 2G28G 8G17R22R24
                                G 1R 7G32R 8R23G14G22G 3G10R15
  24387857.750   130275545.469         337.432          35.000  
  20061298.287   105422889.878        -817.132          45.000  
  24306127.857   130066989.796        3676.322          36.000  
  25273656.932   132813994.071        3151.417          39.000  
  24924430.541   130978690.286       -4132.520          38.000  
  19806846.415   105879046.669        1716.822          51.000  
  24002156.344   128079979.095        3845.858          42.000  
  23371165.231   122816350.187        -879.613          41.000  
  21872760.928   114942130.024       -3239.192          46.000  
  24778798.248   130213478.758        3019.496          40.000  
  23420162.464   125018349.389       -4147.334          50.000  
  20074713.179   107348577.879        2039.342          47.000  
  20363274.724   107009745.573         140.161          47.000  
  23537094.655   125995967.895       -4492.654          43.000  
  23126732.946   121531894.929       -2222.376          45.000  
  19776498.393   105902275.595       -2283.475          50.000  
  19527767.656   104460436.498       -1599.066          51.000  
  22165501.662   116480619.750        -287.588          45.000  
  20533231.713   107902893.577         487.240          49.000  
  21382399.514   112365272.441        1766.622          48.000  
  25809774.981   135631267.853       -3759.621          31.000  
  24451395.553   130660833.4852      -2568.931          31.000  
 16  9 24 14  6 24.0000000  0 22R16G11R17G23G27R 1R 2G28G 8G17R22R24
                                G 1R 7G32R 8R23G14G22G 3G10R15
  24387794.755   130275208.220         336.921          36.000  
  20061453.455   105423707.216        -817.694          45.000  
  24305440.877   130063313.422        3676.135          37.000  
  25273057.029   132810842.336        3151.978          38.000  
  24925216.673   130982822.776       -4132.489          38.000  
  19806525.122   105877330.032        1716.091          51.000  
  24001435.825   128076133.118        3845.683          42.000  
  23371332.823   122817230.006        -880.266          41.000  
  21873377.200   114945369.030       -3239.384          46.000  
  24778223.752   130210459.056        3019.685          40.000  
  23420939.766   125022496.813       -4147.589          50.000  
  20074332.136   107346538.735        2038.730          47.000  
  20363247.641   107009605.422         139.934          47.000  
  23537933.382   126000460.414       -4492.504          43.000  
  23127156.079   121534117.706       -2223.098          45.000  
  19776925.155   105904559.206       -2283.945          50.000  
  19528066.544   104462035.807       -1599.820          51.000  
  22165556.316   116480907.531        -288.273          45.000  
  20533139.122   107902406.369         486.894          49.000  
  21382063.388   112363506.031        1766.093          48.000  
  25810490.300   135635028.020       -3760.352          31.000  
  24451878.784   130663401.8111      -2569.216          30.000  
 16  9 24 14  6 25.0000000  0 22R16G11R17G23G27R 1R 2G28G 8G17R22R24
                                G 1R 7G32R 8R23G14G22G 3G10R15
  24387731.759   130274871.705         336.488          36.000  
  20061609.111   105424525.026        -818.045          45.000  
  24304753.617   130059636.918        3676.223          37.000  
  25272457.439   132807690.514        3151.658          38.000  
  24926002.456   130986955.250       -4132.551          38.000  
  19806203.968   105875614.023        1715.746          51.000  
  24000715.271   128072287.248        3846.075          42.000  
  23371500.136   122818110.314        -880.791          41.000  
  21873993.506   114948608.403       -3239.629          46.000  
  24777648.977   130207439.426        3019.757          40.000  
  23421716.859   125026644.415       -4147.663          49.000  
  20073951.058   107344500.002        2038.546          47.000  
  20363220.943   107009465.576         139.721          47.000  
  23538772.703   126004952.953       -4492.319          43.000  
  23127579.072   121536340.962       -2223.320          45.000  
  19777351.918   105906843.445       -2284.469          50.000  
  19528365.745   104463635.725       -1600.230          51.000  
  22165611.180   116481195.863        -288.618          45.000  
  20533046.287   107901919.549         486.595          49.000  
  21381727.576   112361739.959        1765.865          48.000  
  25811205.934   135638788.058       -3760.130          31.000  
  24452365.401   130665971.145       -2569.200          30.000  
 16  9 24 14  6 26.0000000  0 22R16G11R17G23G27R 1R 2G28G 8G17R22R24
                                G 1R 7G32R 8R23G14G22G 3G10R15
  24387668.904   130274536.028         335.775          35.000  
  20061764.592   105425343.448        -818.662          45.000  
  24304066.463   130055960.421        3676.295          37.000  
  25271857.885   132804538.709        3151.774          39.000  
  24926788.798   130991087.866       -4132.686          38.000  
  19805882.884   105873898.792        1714.938          51.000  
  23999994.751   128068441.594        3845.677          42.000  
  23371667.658   122818991.239        -880.855          41.000  
  21874610.337   114951848.236       -3239.719          46.000  
  24777074.620   130204420.006        3019.304          40.000  
  23422493.673   125030792.316       -4147.956          49.000  
  20073570.294   107342461.823        2037.948          47.000  
  20363194.348   107009326.137         139.335          47.000  
  23539611.988   126009445.661       -4492.905          43.000  
  23128002.066   121538564.853       -2224.099          45.000  
  19777778.645   105909128.423       -2285.310          50.000  
  19528664.493   104465236.403       -1601.021          51.000  
  22165666.323   116481484.903        -289.222          46.000  
  20532953.801   107901433.236         486.199          49.000  
  21381391.066   112359974.361        1765.300          48.000  
  25811921.288   135642548.107       -3759.343          31.000  
  24452846.608   130668541.239       -2570.125          30.000  
 16  9 24 14  6 27.0000000  0 22R16G11R17G23G27R 1R 2G28G 8G17R22R24
                                G 1R 7G32R 8R23G14G22G 3G10R15
  24387606.153   130274201.093         335.118          35.000  
  20061920.318   105426162.365        -819.281          45.000  
  24303379.273   130052283.810        3676.713          37.000  
  25271258.016   132801386.769        3151.942          38.000  
  24927575.000   130995220.461       -4132.299          38.000  
  19805561.905   105872184.198        1714.279          51.000  
  23999273.952   128064595.996        3845.356          42.000  
  23371835.529   122819872.683        -881.727          41.000  
  21875226.958   114955088.448       -3240.303          46.000  
  24776499.950   130201400.648        3019.371          40.000  
  23423270.627   125034940.394       -4148.022          49.000  
  20073189.286   107340424.060        2037.571          47.000  
  20363167.824   107009187.001         139.125          47.000  
  23540450.925   126013938.373       -4492.689          43.000  
  23128425.652   121540789.243       -2224.667          46.000  
  19778205.617   105911413.971       -2285.704          50.000  
  19528963.869   104466837.693       -1601.495          51.000  
  22165721.151   116481774.508        -289.827          45.000  
  20532861.489   107900947.315         485.711          49.000  
  21381055.044   112358209.108        1765.148          48.000  
  25812637.026   135646308.073       -3759.224          31.000  
  24453329.107   130671111.795       -2571.266          30.000  
 16  9 24 14  6 28.0000000  0 22R16G11R17G23G27R 1R 2G28G 8G17R22R24
                                G 1R 7G32R 8R23G14G22G 3G10R15
  24387543.541   130273867.216         333.511          36.000  
  20062076.567   105426982.027        -820.104          45.000  
  24302692.223   130048607.337        3677.018          37.000  
  25270658.182   132798234.988        3151.551          38.000  
  24928361.063   130999353.352       -4132.689          38.000  
  19805241.240   105870470.545        1713.187          51.000  
  23998553.223   128060750.757        3845.181          42.000  
  23372003.225   122820754.887        -882.379          41.000  
  21875843.299   114958329.268       -3241.333          46.000  
  24775925.523   130198381.628        3018.974          40.000  
  23424047.615   125039088.951       -4148.763          49.000  
  20072808.348   107338387.021        2036.622          47.000  
  20363141.404   107009048.441         138.251          47.000  
  23541290.455   126018431.431       -4493.166          43.000  
  23128849.239   121543014.406       -2225.437          46.000  
  19778632.764   105913700.382       -2286.783          50.000  
  19529263.454   104468439.904       -1602.648          51.000  
  22165776.399   116482064.960        -290.922          45.000  
  20532769.108   107900462.037         484.995          49.000  
  21380718.988   112356444.497        1764.272          48.000  
  25813352.660   135650068.218       -3760.398          31.000  
  24453813.106   130673683.139       -2571.457          29.000  
 16  9 24 14  6 29.0000000  0 22R16G11R17G23G27R 1R 2G28G 8G17R22R24
                                G 1R 7G32R 8R23G14G22G 3G10R15
  24387481.349   130273533.947         331.990          35.000  
  20062232.537   105427802.109        -820.720          45.000  
  24302005.208   130044930.738        3676.067          37.000  
  25270058.558   132795083.032        3151.745          38.000  
  24929147.160   131003486.187       -4133.194          37.000  
  19804921.307   105868757.467        1712.420          51.000  
  23997832.390   128056905.543        3844.521          43.000  
  23372170.782   122821637.531        -883.176          41.000  
  21876459.990   114961570.360       -3241.867          46.000  
  24775351.062   130195362.605        3018.809          40.000  
  23424824.394   125043237.601       -4149.160          49.000  
  20072427.270   107336350.336        2036.086          47.000  
  20363114.880   107008910.095         137.819          47.000  
  23542130.229   126022924.436       -4493.405          43.000  
  23129273.000   121545240.009       -2226.083          46.000  
  19779059.840   105915987.311       -2287.533          50.000  
  19529562.656   104470042.646       -1603.432          51.000  
  22165831.716   116482355.911        -291.757          45.000  
  20532676.936   107899977.065         484.464          49.000  
  21380383.141   112354680.147        1763.773          47.000  
  25814068.223   135653828.204       -3760.704          32.000  
  24454287.996   130676254.917       -2571.819          29.000  
 16  9 24 14  6 30.0000000  0 22R16G11R17G23G27R 1R 2G28G 8G17R22R24
                                G 1R 7G32R 8R23G14G22G 3G10R15
  24387419.470   130273201.468         331.505          35.000  
  20062388.891   105428622.785        -821.154          45.000  
  24301317.809   130041254.051        3676.566          38.000  
  25269458.794   132791931.070        3152.194          38.000  
  24929933.327   131007619.120       -4133.114          37.000  
  19804601.340   105867045.157        1711.711          51.000  
  23997111.766   128053060.511        3844.615          42.000  
  23372339.072   122822520.782        -883.613          41.000  
  21877076.855   114964811.881       -3241.775          46.000  
  24774776.496   130192343.772        3018.748          40.000  
  23425601.278   125047386.538       -4149.331          49.000  
  20072046.611   107334314.191        2035.718          47.000  
  20363088.635   107008772.155         137.500          47.000  
  23542969.689   126027417.573       -4493.430          43.000  
  23129697.180   121547466.223       -2226.788          46.000  
  19779486.882   105918274.971       -2288.219          50.000  
  19529862.346   104471646.109       -1603.975          51.000  
  22165887.033   116482647.531        -292.045          45.000  
  20532584.554   107899492.600         484.055          48.000  
  21380047.224   112352916.271        1763.271          47.000  
  25814783.961   135657588.116       -3759.633          32.000  
  24454764.806   130678827.424       -2572.472          28.000  
 16  9 24 14  6 31.0000000  0 22R16G11R17G23G27R 1R 2G28G 8G17R22R24
                                G 1R 7G32R 8R23G14G22G 3G10R15
  24387357.627   130272869.760         331.420          35.000  
  20062545.350   105429443.958        -821.249          45.000  
  24300630.864   130037577.300        3676.328          37.000  
  25268859.169   132788779.039        3152.273          38.000  
  24930719.739   131011752.102       -4133.322          37.000  
  19804281.443   105865333.529        1711.320          51.000  
  23996390.967   128049215.633        3844.616          43.000  
  23372507.083   122823404.532        -883.631          41.000  
  21877693.616   114968053.808       -3242.237          46.000  
  24774202.279   130189325.054        3018.633          40.000  
  23426378.161   125051535.676       -4149.244          48.000  
  20071665.847   107332278.509        2035.396          47.000  
  20363062.809   107008634.543         137.437          47.000  
  23543808.905   126031910.757       -4493.202          43.000  
  23130121.255   121549692.974       -2227.002          46.000  
  19779914.133   105920563.276       -2288.635          50.000  
  19530162.210   104473250.233       -1604.449          51.000  
  22165942.769   116482939.767        -292.419          45.000  
  20532492.347   107899008.541         483.898          48.000  
  21379711.552   112351152.745        1763.572          47.000  
  25815499.350   135661347.996       -3759.791          32.000  
  24455241.895   130681400.453       -2573.303          27.000  
 16  9 24 14  6 32.0000000  0 22R16G11R17G23G27R 1R 2G28G 8G17R22R24
                                G 1R 7G32R 8R23G14G22G 3G10R15
  24387295.958   130272538.792         330.889          36.000  
  20062702.088   105430265.661        -821.734          45.000  
  24299943.535   130033900.464        3677.163          37.000  
  25268259.405   132785626.913        3152.117          39.000  
  24931506.465   131015885.110       -4132.771          38.000  
  19803961.161   105863622.588        1710.825          51.000  
  23995670.552   128045370.886        3844.846          43.000  
  23372675.024   122824288.832        -884.422          40.000  
  21878310.586   114971296.097       -3242.262          46.000  
  24773627.574   130186306.419        3018.643          41.000  
  23427155.324   125055685.037       -4149.345          48.000  
  20071284.734   107330243.263        2035.125          46.000  
  20363036.913   107008497.263         137.265          47.000  
  23544648.261   126036403.993       -4493.015          43.000  
  23130545.575   121551920.241       -2227.298          46.000  
  19780341.629   105922852.209       -2288.905          50.000  
  19530462.179   104474855.004       -1604.846          51.000  
  22165998.714   116483232.588        -292.947          45.000  
  20532400.210   107898524.888         483.792          48.000  
  21379375.705   112349389.636        1762.937          47.000  
  25816214.426   135665107.839       -3759.931          32.000  
  24455726.173                       -2573.024          26.000  
 16  9 24 14  6 33.0000000  0 22R16G11R17G23G27R 1R 2G28G 8G17R22R24
                                G 1R 7G32R 8R23G14G22G 3G10R15
  24387234.324   130272208.578         329.930          36.000  
  20062858.686   105431087.863        -821.958          45.000  
  24299256.275   130030223.538        3677.491          37.000  
  25267659.816   132782474.716        3152.040          38.000  
  24932293.295   131020018.150       -4132.670          38.000  
  19803641.334   105861912.327        1710.110          51.000  
  23994950.137   128041526.257        3844.527          43.000  
  23372843.174   122825173.648        -884.755          40.000  
  21878927.625   114974538.765       -3242.787          46.000  
  24773053.287   130183287.885        3018.514          40.000  
  23427932.313   125059834.600       -4149.461          48.000  
  20070903.622   107328208.471        2034.801          46.000  
  20363010.912   107008360.302         136.915          47.000  
  23545487.686   126040897.274       -4493.102          43.000  
  23130969.650   121554148.063       -2227.959          46.000  
  19780769.089   105925141.761       -2289.626          50.000  
  19530762.149   104476460.442       -1605.498          51.000  
  22166054.520   116483526.017        -293.529          45.000  
  20532308.108   107898041.661         483.204          48.000  
  21379040.382   112347626.876        1762.826          47.000  
  25816929.570   135668867.543       -3759.612          33.000  
  24456210.207                       -2573.928          25.000  
 16  9 24 14  6 34.0000000  0 22R16G11R17G23G27R 1R 2G28G 8G17R22R24
                                G 1R 7G32R 8R23G14G22G 3G10R15
  24387172.515   130271879.127         329.604          36.000  
  20063015.075   105431910.619        -822.687          45.000  
  24298568.562   130026546.526        3677.417          36.000  
  25267060.017   132779322.462        3152.264          38.000  
  24933080.090   131024151.253       -4132.805          38.000  
  19803321.576   105860202.767        1709.566          51.000  
  23994229.967   128037681.760        3844.600          43.000  
  23373011.778   122826059.020        -885.145          40.000  
  21879544.770   114977781.812       -3242.763          46.000  
  24772478.896   130180269.468        3018.668          40.000  
  23428709.441   125063984.416       -4149.644          48.000  
  20070522.718   107326174.172        2034.355          46.000  
  20362985.330   107008223.689         136.673          47.000  
  23546327.286   126045390.601       -4493.065          43.000  
  23131393.934   121556376.411       -2228.311          46.000  
  19781196.410   105927431.960       -2290.245          50.000  
  19531062.467   104478066.535       -1606.000          51.000  
  22166110.500   116483820.063        -293.954          45.000  
  20532216.180   107897558.857         482.937          48.000  
  21378705.128   112345864.540        1762.447          47.000  
  25817644.855   135672627.238       -3759.929          33.000  
  24456695.114                       -2574.750          26.000  
 16  9 24 14  6 35.0000000  0 22R16G11R17G23G27R 1R 2G28G 8G17R22R24
                                G 1R 7G32R 8R23G14G22G 3G10R15
  24387111.509   130271550.520         327.985          36.000  
  20063171.743   105432733.949        -823.603          45.000  
  24297881.303   130022869.471        3677.304          36.000  
  25266459.974   132776170.163        3152.212          38.000  
  24933866.641   131028284.435       -4133.428          38.000  
  19803002.132   105858493.951        1708.331          51.000  
  23993509.762   128033837.436        3844.390          42.000  
  23373180.452   122826944.979        -885.980          40.000  
  21880161.914   114981025.285       -3243.403          46.000  
  24771904.400   130177251.216        3018.163          40.000  
  23429486.290   125068134.470       -4150.172          47.000  
  20070142.548   107324140.394        2033.620          46.000  
  20362959.434   107008087.460         136.017          47.000  
  23547166.990   126049884.073       -4493.403          43.000  
  23131817.940   121558605.357       -2229.305          46.000  
  19781624.603   105929722.848       -2291.207          50.000  
  19531362.785   104479673.340       -1607.158          51.000  
  22166166.865   116484114.780        -295.040          45.000  
  20532124.218   107897076.523         482.133          48.000  
  21378369.421   112344102.633        1761.759          47.000  
  25818359.755   135676386.865       -3759.423          32.000  
  24457177.787                       -2574.607          25.000  
 16  9 24 14  6 36.0000000  0 22R16G11R17G23G27R 1R 2G28G 8G17R22R24
                                G 1R 7G32R 8R23G14G22G 3G10R15
  24387050.677   130271222.671         327.485          36.000  
  20063328.515   105433557.852        -824.482          45.000  
  24297194.008   130019192.375        3676.698          37.000  
  25265859.826   132773017.841        3152.216          38.000  
  24934652.774   131032417.736       -4133.912          37.000  
  19802682.933   105856785.852        1707.489          51.000  
  23992789.312   128029993.268        3843.840          43.000  
  23373349.021   122827831.529        -886.882          40.000  
  21880779.268   114984269.212       -3244.456          46.000  
  24771329.939   130174233.122        3017.854          40.000  
  23430263.592   125072284.785       -4150.685          47.000  
  20069762.342   107322107.148        2032.752          46.000  
  20362933.817   107007951.614         135.409          47.000  
  23548006.555   126054377.708       -4494.107          43.000  
  23132242.259   121560834.900       -2230.020          46.000  
  19782052.727   105932014.431       -2292.175          50.000  
  19531663.103   104481280.858       -1608.181          51.000  
  22166222.950   116484410.145        -295.886          45.000  
  20532032.569   107896594.663         481.302          48.000  
  21378033.679   112342341.156        1760.841          47.000  
  25819075.319   135680146.534       -3760.038          32.000  
  24457661.786                       -2577.189          25.000  
 16  9 24 14  6 37.0000000  0 22R16G11R17G23G27R 1R 2G28G 8G17R22R24
                                G 1R 7G32R 8R23G14G22G 3G10R15
  24386989.846   130270895.654         326.674          36.000  
  20063485.637   105434382.308        -824.838          45.000  
  24296506.958   130015515.225        3677.109          37.000  
  25265259.608   132769865.499        3152.627          38.000  
  24935438.906   131036551.073       -4133.259          37.000  
  19802363.559   105855078.477        1707.043          51.000  
  23992069.141   128026149.258        3843.981          43.000  
  23373517.765   122828718.636        -887.185          40.000  
  21881396.691   114987513.543       -3244.699          46.000  
  24770755.722   130171215.170        3017.873          40.000  
  23431040.476   125076435.384       -4150.647          47.000  
  20069382.172   107320074.387        2032.648          46.000  
  20362907.921   107007816.139         135.280          47.000  
  23548845.981   126058871.459       -4493.869          43.000  
  23132666.963   121563065.007       -2230.344          46.000  
  19782480.955   105934306.690       -2292.566          50.000  
  19531963.177   104482889.069       -1608.469          51.000  
  22166279.453   116484706.147        -296.364          45.000  
  20531940.781   107896113.243         481.353          48.000  
  21377698.739   112340580.098        1760.990          47.000  
  25819790.429   135683906.151       -3759.361          32.000  
  24458143.691                       -2576.062          26.000  
 16  9 24 14  6 38.0000000  0 22R16G11R17G23G27R 1R 2G28G 8G17R22R24
                                G 1R 7G32R 8R23G14G22G 3G10R15
  24386929.154   130270569.233         326.105          37.000  
  20063642.584   105435207.122        -824.903          45.000  
  24295819.734   130011837.823        3677.278          37.000  
  25264659.740   132766712.907        3152.509          38.000  
  24936225.387   131040684.306       -4132.886          38.000  
  19802044.046   105853371.608        1706.688          51.000  
  23991348.866   128022305.211        3844.240          42.000  
  23373686.508   122829606.145        -887.866          40.000  
  21882014.115   114990758.085       -3244.445          46.000  
  24770181.051   130168197.172        3017.949          40.000  
  23431817.883   125080586.029       -4150.592          47.000  
  20069001.792   107318041.920        2032.427          46.000  
  20362882.373   107007680.833         135.340          47.000  
  23549685.476   126063365.101       -4493.550          44.000  
  23133091.457   121565295.499       -2230.747          46.000  
  19782909.219   105936599.409       -2292.834          50.000  
  19532263.705   104484497.782       -1608.850          51.000  
  22166335.922   116485002.599        -296.581          46.000  
  20531849.237   107895632.095         481.115          48.000  
  21377363.730   112338819.273        1760.757          47.000  
  25820505.399   135687665.512       -3758.359          32.000  
  24458626.050                       -2576.703          26.000  
 16  9 24 14  6 39.0000000  0 22R16G11R17G23G27R 1R 2G28G 8G17R22R24
                                G 1R 7G32R 8R23G14G22G 3G10R15
  24386868.532   130270243.725         324.738          37.000  
  20063799.427   105436032.578        -825.553          45.000  
  24295132.754   130008160.476        3677.512          37.000  
  25264059.696   132763560.356        3152.601          38.000  
  24937012.008   131044817.709       -4133.569          38.000  
  19801725.125   105851665.531        1705.885          51.000  
  23990628.172   128018461.432        3844.067          42.000  
  23373855.147   122830494.267        -888.319          40.000  
  21882631.329   114994003.132       -3245.226          46.000  
  24769606.695   130165179.373        3017.934          40.000  
  23432595.639   125084736.982       -4150.902          47.000  
  20068621.517   107316010.011        2031.762          46.000  
  20362856.966   107007545.963         134.890          47.000  
  23550524.971   126067858.904       -4493.731          43.000  
  23133515.986   121567526.624       -2231.236          46.000  
  19783337.656   105938892.867       -2293.652          50.000  
  19532564.093   104486107.279       -1609.712          51.000  
  22166392.426   116485299.761        -297.315          45.000  
  20531758.042   107895151.475         480.647          48.000  
  21377028.476   112337058.956        1760.249          47.000  
  25821220.369   135691424.985       -3759.146          31.000  
  24459110.922                       -2577.222          26.000  
 16  9 24 14  6 40.0000000  0 22R16G11R17G23G27R 1R 2G28G 8G17R22R24
                                G 1R 7G32R 8R23G14G22G 3G10R15
  24386807.491   130269918.971         324.183          36.000  
  20063956.688   105436858.543        -826.436          45.000  
  24294445.425   130004483.037        3677.286          37.000  
  25263459.618   132760407.707        3152.315          38.000  
  24937798.943   131048951.125       -4133.645          38.000  
  19801406.380   105849960.135        1704.940          51.000  
  23989907.792   128014617.832        3843.178          42.000  
  23374024.100   122831382.931        -889.048          39.000  
  21883249.311   114997248.541       -3245.662          46.000  
  24769032.269   130162161.685        3017.297          40.000  
  23433373.395   125088888.160       -4151.503          47.000  
  20068241.626   107313978.536        2031.024          46.000  
  20362831.593   107007411.421         134.257          47.000  
  23551364.536   126072352.727       -4493.865          42.000  
  23133940.619   121569758.290       -2232.026          46.000  
  19783766.408   105941186.935       -2294.500          50.000  
  19532864.830   104487717.427       -1610.582          51.000  
  22166449.244   116485597.542        -298.296          46.000  
  20531666.498   107894671.264         479.870          48.000  
  21376693.502   112335299.005        1759.702          47.000  
  25821934.781   135695184.358       -3759.311          31.000  
  24459591.536                       -2579.481          26.000  
 16  9 24 14  6 41.0000000  0 22R16G11R17G23G27R 1R 2G28G 8G17R22R24
                                G 1R 7G32R 8R23G14G22G 3G10R15
  24386747.183   130269594.975         323.475          37.000  
  20064113.950   105437685.087        -826.998          45.000  
  24293758.305   130000805.589        3677.230          37.000  
  25262859.331   132757255.049        3152.303          38.000  
  24938585.564   131053084.641       -4133.692          38.000  
  19801087.634   105848255.491        1704.098          51.000  
  23989187.133   128010774.382        3843.383          42.000  
  23374192.914   122832272.196        -889.896          39.000  
  21883867.014   115000494.413       -3246.397          46.000  
  24768457.982   130159144.164        3017.147          40.000  
  23434151.047   125093039.608       -4151.870          47.000  
  20067861.734   107311947.573        2030.546          46.000  
  20362805.627   107007277.265         133.781          47.000  
  23552204.624   126076846.697       -4494.029          43.000  
  23134365.392   121571990.556       -2232.741          46.000  
  19784195.300   105943481.696       -2295.262          50.000  
  19533165.846   104489328.285       -1611.336          51.000  
  22166506.341   116485895.977        -298.938          46.000  
  20531575.024   107894191.530         479.240          48.000  
  21376358.842   112333539.500        1759.138          47.000  
  25822650.799   135698943.748       -3759.915          30.000  
  24460073.406                       -2578.536          25.000  
 16  9 24 14  6 42.0000000  0 22R16G11R17G23G27R 1R 2G28G 8G17R22R24
                                G 1R 7G32R 8R23G14G22G 3G10R15
  24386686.561   130269271.871         322.603          37.000  
  20064271.351   105438512.277        -827.524          45.000  
  24293071.429   129997128.199        3677.448          37.000  
  25262259.113   132754102.439        3152.325          37.000  
  24939372.604   131057218.308       -4133.488          39.000  
  19800768.295   105846551.647        1703.356          51.000  
  23988466.753   128006931.204        3843.026          42.000  
  23374362.181   122833162.100        -890.389          39.000  
  21884484.752   115003740.777       -3246.740          46.000  
  24767884.079   130156126.870        3017.106          40.000  
  23434929.117   125097191.404       -4152.058          47.000  
  20067481.913   107309917.213        2029.981          46.000  
  20362780.220   107007143.566         133.426          47.000  
  23553045.061   126081340.868       -4494.085          44.000  
  23134790.375   121574223.468       -2233.187          46.000  
  19784624.191   105945777.236       -2295.999          50.000  
  19533467.107   104490939.914       -1612.170          51.000  
  22166563.194   116486195.148        -299.682          46.000  
  20531483.760   107893712.336         478.726          48.000  
  21376023.693   112331780.512        1758.724          47.000  
  25823361.546   135702703.136       -3759.823          30.000  
  24460556.742                       -2579.416          25.000  
 16  9 24 14  6 43.0000000  0 22R16G11R17G23G27R 1R 2G28G 8G17R22R24
                                G 1R 7G32R 8R23G14G22G 3G10R15
  24386626.218   130268949.640         321.743          37.000  
  20064428.821   105439340.036        -828.082          45.000  
  24292383.926   129993450.754        3677.153          36.000  
  25261659.175   132750949.789        3152.676          37.000  
  24940159.190   131061352.087       -4133.784          39.000  
  19800449.445   105844848.551        1702.706          51.000  
  23987746.722   128003088.189        3842.807          42.000  
  23374531.552   122834052.598        -890.718          39.000  
  21885102.210   115006987.579       -3247.072          46.000  
  24767309.478   130153109.742        3017.181          40.000  
  23435707.118   125101343.460       -4152.192          47.000  
  20067102.371   107307887.394        2029.416          46.000  
  20362754.987   107007010.264         133.047          47.000  
  23553884.836   126085835.152       -4494.435          43.000  
  23135214.974   121576456.993       -2233.633          46.000  
  19785053.083   105948073.496       -2296.674          50.000  
  19533768.821   104492552.244       -1612.689          51.000  
  22166619.837   116486494.974        -300.096          45.000  
  20531392.704   107893233.610         478.564          48.000  
  21375689.102   112330021.963        1758.387          47.000  
  25824078.122   135706462.522       -3759.138          30.000  
  24461041.893                       -2580.561          26.000  
 16  9 24 14  6 44.0000000  0 22R16G11R17G23G27R 1R 2G28G 8G17R22R24
                                G 1R 7G32R 8R23G14G22G 3G10R15
  24386565.771   130268628.114         321.069          37.000  
  20064586.327   105440168.306        -828.430          45.000  
  24291696.492   129989773.194        3677.705          36.000  
  25261059.376   132747797.064        3153.031          37.000  
  24940945.601   131065485.897       -4133.781          38.000  
  19800130.804   105843146.123        1702.132          51.000  
  23987026.377   127999245.249        3842.868          42.000  
  23374701.203   122834943.635        -891.350          39.000  
  21885719.739   115010234.745       -3247.207          46.000  
  24766735.331   130150092.727        3016.802          40.000  
  23436484.979   125105495.712       -4152.259          47.000  
  20066722.968   107305858.036        2029.183          46.000  
  20362729.614   107006877.274         132.841          47.000  
  23554724.784   126090329.467       -4494.264          43.000  
  23135640.096   121578691.028       -2234.182          46.000  
  19785482.149   105950370.370       -2297.168          50.000  
  19534070.989   104494165.204       -1613.225          51.000  
  22166677.388   116486795.397        -300.708          46.000  
  20531301.719   107892755.297         478.141          48.000  
  21375354.756   112328263.787        1757.893          47.000  
  25824790.789   135710221.806       -3759.703          30.000  
  24461526.975                       -2580.022          26.000  
 16  9 24 14  6 45.0000000  0 22R16G11R17G23G27R 1R 2G28G 8G17R22R24
                                G 1R 7G32R 8R23G14G22G 3G10R15
  24386505.672   130268307.339         319.971          37.000  
  20064744.217   105440997.079        -829.058          45.000  
  24291009.267   129986095.553        3677.943          36.000  
  25260459.018   132744644.260        3152.539          37.000  
  24941732.432   131069619.718       -4133.869          38.000  
  19799812.791   105841444.367        1701.365          51.000  
  23986306.032   127995402.428        3842.671          42.000  
  23374870.820   122835835.172        -891.832          39.000  
  21886337.441   115013482.283       -3247.672          46.000  
  24766161.114   130147075.762        3016.758          40.000  
  23437262.874   125109648.164       -4152.590          47.000  
  20066343.321   107303829.123        2028.666          46.000  
  20362704.207   107006744.586         132.597          47.000  
  23555564.943   126094823.826       -4494.467          43.000  
  23136065.288   121580925.582       -2234.844          46.000  
  19785911.145   105952667.836       -2297.802          50.000  
  19534373.157   104495778.801       -1613.817          51.000  
  22166734.625   116487096.391        -301.302          46.000  
  20531211.048   107892277.380         477.640          48.000  
  21375020.480   112326505.953        1757.731          47.000  
  25825507.399   135713981.038       -3759.186          28.000  
  24462009.229                       -2583.207          25.000  
 16  9 24 14  6 46.0000000  0 22R16G11R17G23G27R 1R 2G28G 8G17R22R24
                                G 1R 7G32R 8R23G14G22G 3G10R15
  24386445.853   130267987.275         319.802          36.000  
  20064901.862   105441826.353        -829.451          45.000  
  24290322.252   129982417.811        3677.559          35.000  
  25259858.905   132741491.318        3153.363          37.000  
  24942519.053   131073753.571       -4133.978          38.000  
  19799494.848   105839743.292        1700.613          51.000  
  23985585.548   127991559.762        3842.302          42.000  
  23375040.610   122836727.243        -892.575          39.000  
  21886955.389   115016730.175       -3248.035          46.000  
  24765587.002   130144058.913        3016.587          40.000  
  23438040.526   125113800.811       -4152.816          47.000  
  20065963.849   107301800.673        2028.122          46.000  
  20362678.939   107006612.233         132.042          47.000  
  23556405.031   126099318.215       -4494.614          44.000  
  23136490.619   121583160.657       -2235.362          46.000  
  19786340.525   105954965.905       -2298.439          50.000  
  19534675.430   104497393.063       -1614.621          51.000  
  22166792.176   116487397.992        -302.005          46.000  
  20531120.132   107891799.867         477.305          48.000  
  21374686.238   112324748.519        1757.061          47.000  
  25826228.128   135717740.150       -3759.205          27.000  
  24462490.471                       -2583.968          25.000  
 16  9 24 14  6 47.0000000  0 22R16G11R17G23G27R 1R 2G28G 8G17R22R24
                                G 1R 7G32R 8R23G14G22G 3G10R15
  24386385.999   130267668.057         318.486          36.000  
  20065059.961   105442656.183        -830.022          45.000  
  24289634.853   129978740.007        3677.304          34.000  
  25259258.618   132738338.394        3152.815          37.000  
  24943305.569   131077887.475       -4133.864          38.000  
  19799176.870   105838042.928        1700.137          51.000  
  23984865.412   127987717.241        3842.689          42.000  
  23375210.785   122837619.855        -892.626          39.000  
  21887573.301   115019978.480       -3248.436          46.000  
  24765012.995   130141042.185        3016.702          40.000  
  23438818.910   125117953.695       -4153.004          47.000  
  20065584.341   107299772.701        2027.633          46.000  
  20362653.252   107006480.219         131.882          47.000  
  23557245.015   126103812.705       -4494.232          43.000  
  23136916.440   121585396.305       -2235.968          46.000  
  19786769.905   105957264.621       -2298.966          50.000  
  19534977.668   104499008.008       -1615.224          51.000  
  22166849.622   116487700.224        -302.510          46.000  
  20531029.147   107891322.798         476.915          48.000  
  21374351.997   112322991.478        1756.987          47.000  
  25826940.341   135721499.257       -3759.069          27.000  
  24462971.992                       -2582.218          26.000  
 16  9 24 14  6 48.0000000  0 22R16G11R17G23G27R 1R 2G28G 8G17R22R24
                                G 1R 7G32R 8R23G14G22G 3G10R15
  24386326.284   130267349.568         317.832          37.000  
  20065217.816   105443486.530        -830.807          45.000  
  24288947.385   129975062.106        3678.002          35.000  
  25258658.505   132735185.351        3152.890          37.000  
  24944092.469   131082021.420       -4133.871          39.000  
  19798858.857   105836343.250        1698.991          51.000  
  23984145.416   127983874.871        3842.221          43.000  
  23375380.575   122838513.017        -893.870          39.000  
  21888191.806   115023227.169       -3249.072          46.000  
  24764439.022   130138025.584        3016.204          40.000  
  23439597.330   125122106.798       -4153.482          47.000  
  20065205.288   107297745.169        2027.010          46.000  
  20362627.810   107006348.539         131.268          47.000  
  23558084.998   126108307.274       -4494.895          43.000  
  23137341.527   121587632.476       -2236.520          46.000  
  19787199.459   105959564.017       -2300.012          50.000  
  19535279.731   104500623.608       -1616.226          51.000  
  22166907.277   116488003.055        -303.270          46.000  
  20530938.440   107890846.146         476.137          48.000  
  21374017.581   112321234.833        1756.102          47.000  
  25827659.954   135725258.319       -3758.941          27.000  
  24463454.770                       -2585.666          25.000  
 16  9 24 14  6 49.0000000  0 22R16G11R17G23G27R 1R 2G28G 8G17R22R24
                                G 1R 7G32R 8R23G14G22G 3G10R15
  24386267.232   130267031.928         317.311          37.000  
  20065375.845   105444317.476        -831.502          45.000  
  24288260.055   129971384.222        3677.874          33.000  
  25258058.706   132732032.354        3152.514          38.000  
  24944879.229   131086155.503       -4134.288          39.000  
  19798541.159   105834644.342        1698.371          51.000  
  23983425.211   127980032.667        3841.854          42.000  
  23375550.820   122839406.762        -894.135          39.000  
  21888810.242   115026476.309       -3249.321          46.000  
  24763865.364   130135009.138        3016.385          40.000  
  23440375.505   125126260.186       -4153.552          47.000  
  20064825.746   107295718.171        2026.342          46.000  
  20362602.681   107006217.288         130.799          47.000  
  23558924.842   126112801.941       -4494.899          43.000  
  23137766.719   121589869.262       -2237.203          46.000  
  19787629.223   105961864.141       -2300.589          50.000  
  19535581.899   104502239.932       -1616.896          51.000  
  22166965.072   116488306.579        -304.001          46.000  
  20530847.909   107890369.995         475.657          48.000  
  21373683.200   112319478.654        1755.607          47.000  
  25828376.459   135729017.409       -3758.930          26.000  
  24463935.384                       -2583.731          24.000  
 16  9 24 14  6 50.0000000  0 22R16G11R17G23G27R 1R 2G28G 8G17R22R24
                                G 1R 7G32R 8R23G14G22G 3G10R15
  24386207.588   130266715.061         316.847          37.000  
  20065533.944   105445148.961        -831.504          45.000  
  24287572.621   129967706.321        3678.020          34.000  
  25257458.384   132728879.250        3153.552          38.000  
  24945666.583   131090289.607       -4133.697          39.000  
  19798223.809   105832946.148        1698.102          51.000  
  23982705.285   127976190.564        3842.395          42.000  
  23375721.378   122840301.056        -894.191          40.000  
  21889428.643   115029725.861       -3249.610          46.000  
  24763291.461   130131992.827        3016.623          40.000  
  23441153.819   125130413.821       -4153.448          47.000  
  20064446.797   107293691.643        2026.602          46.000  
  20362577.728   107006086.383         130.832          47.000  
  23559764.582   126117296.751       -4494.621          43.000  
  23138192.085   121592106.598       -2237.198          46.000  
  19788058.883   105964164.888       -2300.743          50.000  
  19535883.927   104503856.941       -1617.069          51.000  
  22167023.321   116488610.720        -304.051          46.000  
  20530757.621   107889894.266         475.831          48.000  
  21373349.133   112317722.865        1755.926          47.000  
  25829089.824   135732776.471       -3758.755          25.000  
  24464419.243                       -2581.014          22.000  
 16  9 24 14  6 51.0000000  0 22R16G11R17G23G27R 1R 2G28G 8G17R22R24
                                G 1R 7G32R 8R23G14G22G 3G10R15
  24386148.292   130266399.183         315.549          36.000  
  20065692.357   105445981.199        -832.831          45.000  
  24286885.327   129964028.489        3677.916          35.000  
  25256858.166   132725726.322        3152.837          38.000  
  24946453.867   131094424.007       -4134.616          39.000  
  19797906.006   105831248.881        1696.682          51.000  
  23981985.219   127972348.829        3841.492          42.000  
  23375892.006   122841196.147        -895.611          40.000  
  21890047.148   115032975.983       -3250.251          46.000  
  24762717.628   130128976.865        3015.662          40.000  
  23441931.959   125134567.903       -4154.501          47.000  
  20064067.918   107291665.817        2025.476          46.000  
  20362552.634   107005956.026         129.970          47.000  
  23560604.496   126121791.820       -4495.328          43.000  
  23138617.731   121594344.715       -2238.648          46.000  
  19788489.031   105966466.467       -2302.121          50.000  
  19536186.654   104505474.863       -1618.557          51.000  
  22167081.396   116488915.709        -305.553          46.000  
  20530667.159   107889419.200         474.674          48.000  
  21373015.310   112315967.716        1754.525          47.000  
  25829804.655   135736535.644       -3759.059          25.000  
  24464902.126                       -2579.770          20.000  
 16  9 24 14  6 52.0000000  0 22R16G11R17G23G27R 1R 2G28G 8G17R22R24
                                G 1R 7G32R 8R23G14G22G 3G10R15
  24386089.415   130266084.081         315.292          36.000  
  20065851.189   105446813.992        -832.944          45.000  
  24286197.649   129960350.566        3678.076          33.000  
  25256258.228   132722573.345        3153.324          38.000  
  24947240.767   131098558.451       -4134.239          39.000  
  19797588.272   105829552.337        1696.385          51.000  
  23981265.502   127968507.293        3841.382          42.000  
  23376062.390   122842091.779        -895.661          40.000  
  21890665.514   115036226.557       -3250.671          46.000  
  24762143.516   130125961.044        3016.061          40.000  
  23442710.448   125138722.245       -4154.297          47.000  
  20063689.492   107289640.509        2025.157          46.000  
  20362527.890   107005826.043         129.874          47.000  
  23561444.235   126126286.977       -4495.001          43.000  
  23139043.796   121596583.395       -2238.720          46.000  
  19788918.725   105968768.699       -2302.388          50.000  
  19536489.066   104507093.467       -1618.843          51.000  
  22167139.644   116489221.339        -305.895          46.000  
  20530577.151   107888944.582         474.535          48.000  
  21372681.243   112314212.959        1754.833          47.000  
  25830519.625   135740294.767       -3758.677          25.000  
  24465383.961                       -2576.376          17.000  
 16  9 24 14  6 53.0000000  0 22R16G11R17G23G27R 1R 2G28G 8G17R22R24
                                G 1R 7G32R 8R23G14G22G 3G10R15
  24386030.189   130265769.658         313.911          37.000  
  20066009.497   105447647.192        -833.354          45.000  
  24285509.936   129956672.577        3677.766          34.000  
  25255658.568   132719420.212        3153.077          38.000  
  24948027.458   131102692.851       -4134.244          39.000  
  19797271.097   105827856.372        1695.534          51.000  
  23980545.646   127964665.807        3841.150          42.000  
  23376232.844   122842987.866        -896.195          39.000  
  21891283.950   115039477.405       -3251.158          46.000  
  24761569.578   130122945.230        3015.811          40.000  
  23443488.833   125142876.689       -4154.621          47.000  
  20063311.102   107287615.536        2024.823          46.000  
  20362503.180   107005696.282         129.539          47.000  
  23562283.870   126130782.093       -4495.271          43.000  
  23139470.558   121598822.504       -2239.375          46.000  
  19789348.768   105971071.470       -2303.185          50.000  
  19536791.513   104508712.622       -1619.492          51.000  
  22167197.544   116489527.460        -306.626          46.000  
  20530486.933   107888470.272         474.034          48.000  
  21372347.211   112312458.502        1754.128          47.000  
  25831233.130   135744053.788       -3759.279          26.000  
  24465866.076                       -2576.376          15.000  
 16  9 24 14  6 54.0000000  0 22R16G11R17G23G27R 1R 2G28G 8G17R22R24
                                G 1R 7G32R 8R23G14G22G 3G10R15
  24385971.137   130265456.050         313.124          37.000  
  20066168.189   105448480.963        -834.147          45.000  
  24284822.607   129952994.483        3678.173          34.000  
  25255058.281   132716267.017        3153.131          38.000  
  24948813.939   131106827.305       -4134.393          39.000  
  19796954.096   105826161.106        1694.857          51.000  
  23979825.859   127960824.475        3841.138          42.000  
  23376403.751   122843884.521        -897.020          39.000  
  21891902.630   115042728.653       -3251.506          46.000  
  24760995.606   130119929.547        3015.688          40.000  
  23444266.973   125147031.369       -4154.810          47.000  
  20062932.432   107285591.095        2024.217          46.000  
  20362478.191   107005566.877         129.229          47.000  
  23563123.784   126135277.321       -4495.294          43.000  
  23139896.553   121601062.178       -2239.837          46.000  
  19789778.916   105973374.918       -2303.805          50.000  
  19537094.553   104510332.455       -1620.187          51.000  
  22167255.828   116489834.211        -307.153          46.000  
  20530396.995   107887996.408         473.657          48.000  
  21372013.284   112310704.448        1754.084          47.000  
  25831947.018   135747812.713       -3759.147          28.000  
  24466347.946                       -2597.458          13.000  
 16  9 24 14  6 55.0000000  0 22R16G11R17G23G27R 1R 2G28G 8G17R22R24
                                G 1R 7G32R 8R23G14G22G 3G10R15
  24385912.470   130265143.310         312.833          37.000  
  20066326.812   105449315.349        -834.354          45.000  
  24284135.208   129949316.418        3678.628          35.000  
  25254458.063   132713113.877        3153.204          38.000  
  24949601.189   131110961.938       -4134.578          39.000  
  19796636.886   105824466.647        1694.269          51.000  
  23979106.003   127956983.396        3841.132          42.000  
  23376574.554   122844781.814        -897.463          39.000  
  21892521.554   115045980.409       -3251.820          46.000  
  24760421.738   130116914.121        3015.248          40.000  
  23445045.253   125151186.382       -4154.875          47.000  
  20062553.692   107283567.255        2023.919          46.000  
  20362453.796   107005437.940         128.982          47.000  
  23563963.663   126139772.746       -4495.324          43.000  
  23140322.617   121603302.516       -2240.367          46.000  
  19790209.098   105975679.134       -2304.299          49.000  
  19537397.419   104511953.069       -1620.725          51.000  
  22167314.705   116490141.687        -307.588          46.000  
  20530307.196   107887523.077         473.371          48.000  
  21371680.089   112308950.911        1753.631          47.000  
  25832662.652   135751571.686       -3758.576          31.000  
  24466832.818                       -2597.458          10.000  
 16  9 24 14  6 56.0000000  0 21R16G11R17G23G27R 1R 2G28G 8G17R22R24
                                G 1R 7G32R 8R23G14G22G 3G10
  24385854.186   130264831.327         311.808          37.000  
  20066485.644   105450150.261        -835.031          45.000  
  24283447.948   129945638.289        3678.529          35.000  
  25253858.020   132709960.609        3153.502          39.000  
  24950388.403   131115096.589       -4134.571          39.000  
  19796319.851   105822772.831        1693.623          51.000  
  23978386.495   127953142.387        3841.351          42.000  
  23376745.741   122845679.618        -897.762          39.000  
  21893140.479   115049232.504       -3252.098          46.000  
  24759847.835   130113898.727        3015.489          40.000  
  23445823.428   125155341.602       -4155.113          47.000  
  20062175.372   107281543.872        2023.376          46.000  
  20362429.226   107005309.299         128.745          47.000  
  23564803.507   126144268.175       -4495.281          42.000  
  23140748.752   121605543.366       -2240.986          46.000  
  19790639.142   105977983.953       -2304.870          49.000  
  19537700.076   104513574.319       -1621.397          51.000  
  22167373.093   116490449.756        -308.248          46.000  
  20530217.188   107887050.145         472.871          48.000  
  21371346.790   112307197.742        1753.191          47.000  
  25833377.203   135755330.537       -3758.298          32.000  
 16  9 24 14  6 57.0000000  0 21R16G11R17G23G27R 1R 2G28G 8G17R22R24
                                G 1R 7G32R 8R23G14G22G 3G10
  24385795.623   130264519.969         311.034          37.000  
  20066644.511   105450985.580        -835.723          45.000  
  24282760.794   129941959.863        3678.627          34.000  
  25253258.012   132706807.191        3153.398          39.000  
  24951175.094   131119231.178       -4134.902          39.000  
  19796003.513   105821079.611        1692.767          51.000  
  23977666.639   127949301.402        3840.808          41.000  
  23376917.032   122846577.866        -898.945          39.000  
  21893759.508   115052484.889       -3252.595          46.000  
  24759273.828   130110883.379        3015.241          40.000  
  23446601.638   125159496.912       -4155.569          47.000  
  20061796.841   107279520.850        2022.567          46.000  
  20362404.726   107005180.893         128.245          47.000  
  23565643.141   126148763.565       -4495.725          42.000  
  23141174.921   121607784.656       -2241.641          45.000  
  19791069.499   105980289.299       -2305.838          49.000  
  19538003.186   104515196.129       -1622.284          51.000  
  22167431.726   116490758.327        -309.079          46.000  
  20530127.110   107886577.529         472.263          48.000  
  21371013.002   112305444.847        1752.544          47.000  
  25834092.208   135759089.258       -3759.123          33.000  
 16  9 24 14  6 58.0000000  0 21R16G11R17G23G27R 1R 2G28G 8G17R22R24
                                G 1R 7G32R 8R23G14G22G 3G10
  24385737.479   130264209.354         310.428          37.000  
  20066803.657   105451821.423        -836.142          45.000  
  24282073.255   129938281.486        3677.275          34.000  
  25252657.654   132703653.662        3153.891          39.000  
  24951961.470   131123365.782       -4134.706          39.000  
  19795687.455   105819387.083        1692.019          51.000  
  23976946.748   127945460.526        3840.778          41.000  
  23377087.974   122847476.660        -899.565          39.000  
  21894378.711   115055737.662       -3253.268          46.000  
  24758700.134   130107868.140        3015.122          40.000  
  23447380.546   125163652.425       -4155.894          48.000  
  20061418.381   107277498.285        2022.185          45.000  
  20362380.226   107005052.838         127.630          46.000  
  23566482.846   126153259.009       -4495.693          42.000  
  23141601.614   121610026.481       -2242.191          45.000  
  19791500.031   105982595.266       -2306.321          49.000  
  19538306.122   104516818.609       -1622.985          51.000  
  22167491.127   116491067.521        -309.713          46.000  
  20530037.416   107886105.340         471.762          48.000  
  21370679.319   112303692.367        1752.068          47.000  
  25834810.529   135762847.906       -3758.782          33.000  
 16  9 24 14  6 59.0000000  0 21R16G11R17G23G27R 1R 2G28G 8G17R22R24
                                G 1R 7G32R 8R23G14G22G 3G10
  24385679.195   130263899.588         309.535          37.000  
  20066962.663   105452657.867        -836.740          45.000  
  24281385.821   129934603.008        3678.523          34.000  
  25252057.646   132700500.211        3153.276          39.000  
  24952748.021   131127500.507       -4134.490          39.000  
  19795371.187   105817695.320        1691.430          51.000  
  23976226.822   127941619.890        3840.509          41.000  
  23377259.091   122848376.045        -899.814          39.000  
  21894997.845   115058990.886       -3253.183          46.000  
  24758126.406   130104853.084        3014.860          40.000  
  23448159.174   125167808.222       -4155.976          48.000  
  20061040.200   107275476.249        2021.723          45.000  
  20362355.831   107004925.172         127.390          46.000  
  23567322.376   126157754.602       -4495.555          43.000  
  23142028.621   121612268.922       -2242.838          45.000  
  19791930.562   105984901.956       -2307.060          49.000  
  19538609.581   104518441.828       -1623.599          51.000  
  22167550.039   116491377.387        -310.198          46.000  
  20529947.617   107885633.640         471.447          48.000  
  21370346.160   112301940.319        1751.732          47.000  
  25835527.384   135766606.540       -3758.593          33.000  
 16  9 24 14  7  0.0000000  0 21R16G11R17G23G27R 1R 2G28G 8G17R22R24
                                G 1R 7G32R 8R23G14G22G 3G10
  24385621.225   130263590.569         308.610          38.000  
  20067121.809   105453494.792        -837.169          45.000  
  24280698.597   129930924.484        3678.349          35.000  
  25251457.812   132697346.601        3153.645          39.000  
  24953534.747   131131635.244       -4134.518          39.000  
  19795054.675   105816004.199        1690.746          51.000  
  23975507.279   127937779.403        3840.131          41.000  
  23377430.278   122849275.929        -900.305          39.000  
  21895616.909   115062244.491       -3253.974          46.000  
  24757552.538   130101838.090        3015.035          40.000  
  23448937.384   125171964.196       -4156.136          47.000  
  20060661.949   107273454.624        2021.298          45.000  
  20362331.540   107004797.809         127.087          46.000  
  23568162.325   126162250.246       -4495.428          43.000  
  23142455.488   121614511.852       -2243.372          45.000  
  19792361.059   105987209.228       -2307.512          49.000  
  19538913.145   104520065.668       -1624.204          51.000  
  22167609.020   116491687.830        -310.748          46.000  
  20529858.097   107885162.322         471.042          48.000  
  21370012.826   112300188.615        1751.715          47.000  
  25836243.053   135770365.114       -3759.050          34.000  
 16  9 24 14  7  1.0000000  0 21R16G11R17G23G27R 1R 2G28G 8G17R22R24
                                G 1R 7G32R 8R23G14G22G 3G10
  24385563.395   130263282.159         307.926          37.000  
  20067280.920   105454332.123        -837.837          45.000  
  24280011.128   129927245.718        3678.865          35.000  
  25250857.944   132694192.822        3153.682          40.000  
  24954321.333   131135769.919       -4134.687          38.000  
  19794738.477   105814313.668        1689.870          51.000  
  23974787.597   127933938.918        3840.155          42.000  
  23377601.814   122850176.225        -900.737          39.000  
  21896236.043   115065498.337       -3254.430          46.000  
  24756978.705   130098823.109        3014.459          40.000  
  23449715.664   125176120.282       -4156.534          47.000  
  20060283.768   107271433.338        2020.743          45.000  
  20362307.493   107004670.676         126.524          46.000  
  23569002.204   126166745.826       -4496.049          43.000  
  23142882.146   121616755.211       -2244.046          45.000  
  19792791.801   105989517.029       -2308.415          49.000  
  19539216.640   104521690.061       -1625.038          51.000  
  22167668.421   116491998.761        -311.387          46.000  
  20529768.229   107884691.300         470.591          48.000  
  21369679.491   112298437.201        1751.050          47.000  
  25836957.569   135774123.469       -3758.697          34.000  
 16  9 24 14  7  2.0000000  0 22R16G11R17G23G27R 1R 2G28G 8G17R22R24
                                G 1R 7G32R 8R23G14G22G 3G10R15
  24385505.426   130262974.597         307.498          37.000  
  20067440.066   105455170.078        -838.062          45.000  
  24279323.938   129923566.952        3678.989          35.000  
  25250258.040   132691039.071        3153.761          40.000  
  24955108.303   131139904.728       -4134.672          38.000  
  19794422.070   105812623.923        1689.617          51.000  
  23974068.404   127930098.652        3840.436          42.000  
  23377773.349   122851077.154        -900.787          39.000  
  21896855.281   115068752.660       -3254.303          46.000  
  24756404.942   130095808.330        3015.019          40.000  
  23450494.293   125180276.676       -4156.418          47.000  
  20059905.936   107269412.610        2020.726          45.000  
  20362283.342   107004543.955         126.736          46.000  
  23569842.257   126171241.550       -4495.527          42.000  
  23143309.048   121618999.203       -2244.310          45.000  
  19793222.507   105991825.561       -2308.567          49.000  
  19539520.622   104523315.208       -1625.245          51.000  
  22167727.647   116492310.397        -311.633          46.000  
  20529678.744   107884220.805         470.438          48.000  
  21369345.913   112296686.265        1751.062          47.000  
  25837671.388   135777881.882       -3758.059          34.000  
  24470239.240                       -2597.458          13.000  
 16  9 24 14  7  3.0000000  0 22R16G11R17G23G27R 1R 2G28G 8G17R22R24
                                G 1R 7G32R 8R23G14G22G 3G10R15
  24385448.049   130262667.829         306.392          38.000  
  20067599.770   105456008.560        -838.541          45.000  
  24278636.435   129919888.136        3678.734          35.000  
  25249657.683   132687885.225        3153.927          40.000  
  24955895.203   131144039.587       -4134.992          38.000  
  19794106.151   105810934.869        1688.904          51.000  
  23973348.722   127926258.483        3840.350          42.000  
  23377944.885   122851978.632        -901.395          39.000  
  21897474.624   115072007.373       -3254.622          46.000  
  24755831.353   130092793.661        3014.954          40.000  
  23451273.131   125184433.297       -4156.542          47.000  
  20059528.034   107267392.386        2020.135          45.000  
  20362259.331   107004417.586         126.250          46.000  
  23570682.101   126175737.370       -4495.801          43.000  
  23143736.648   121621243.753       -2244.876          46.000  
  19793653.388   105994134.715       -2309.258          49.000  
  19539824.640   104524941.034       -1625.983          51.000  
  22167787.013   116492622.654        -312.376          46.000  
  20529589.434   107883750.737         469.995          48.000  
  21369012.893   112294935.736        1750.586          47.000  
  25838387.091   135781640.223       -3758.504          35.000  
  24470725.089                       -2593.618          16.000  
 16  9 24 14  7  4.0000000  0 22R16G11R17G23G27R 1R 2G28G 8G17R22R24
                                G 1R 7G32R 8R23G14G22G 3G10R15
  24385391.162   130262361.904         305.670          38.000  
  20067759.230   105456847.655        -839.183          45.000  
  24277949.071   129916209.282        3679.275          34.000  
  25249057.919   132684731.406        3154.079          41.000  
  24956681.405   131148174.554       -4134.723          38.000  
  19793790.337   105809246.588        1688.189          51.000  
  23972629.075   127922418.541        3840.234          42.000  
  23378116.246   122852880.757        -902.396          39.000  
  21898094.177   115075262.540       -3254.921          46.000  
  24755257.904   130089779.205        3014.672          40.000  
  23452051.759   125188590.239       -4156.828          47.000  
  20059150.307   107265372.719        2019.657          45.000  
  20362235.564   107004291.638         125.886          46.000  
  23571522.294   126180233.298       -4495.664          43.000  
  23144163.829   121623488.897       -2245.237          45.000  
  19794084.827   105996444.583       -2309.933          49.000  
  19540128.553   104526567.613       -1626.672          51.000  
  22167846.692   116492935.602        -313.080          46.000  
  20529500.019   107883281.179         469.495          48.000  
  21368679.629   112293185.683        1750.071          47.000  
  25839102.689   135785398.576       -3758.004          36.000  
  24471209.158                       -2595.159          18.000  
 16  9 24 14  7  5.0000000  0 22R16G11R17G23G27R 1R 2G28G 8G17R22R24
                                G 1R 7G32R 8R23G14G22G 3G10R15
  24385334.030   130262056.694         304.793          38.000  
  20067919.214   105457687.221        -839.834          45.000  
  24277261.567   129912530.377        3678.850          35.000  
  25248457.910   132681577.457        3154.387          40.000  
  24957468.166   131152309.515       -4134.804          38.000  
  19793474.767   105807558.939        1687.363          51.000  
  23971909.359   127918578.706        3839.447          42.000  
  23378287.886   122853783.341        -902.828          39.000  
  21898713.973   115078518.054       -3255.600          46.000  
  24754684.560   130086764.797        3014.209          40.000  
  23452830.214   125192747.330       -4157.290          47.000  
  20058772.474   107263353.473        2018.914          45.000  
  20362211.413   107004165.961         125.530          46.000  
  23572362.452   126184729.233       -4496.040          43.000  
  23144591.220   121625734.538       -2245.964          45.000  
  19794516.231   105998755.026       -2310.776          49.000  
  19540433.129   104528194.776       -1627.443          51.000  
  22167906.442   116493249.109        -313.904          46.000  
  20529410.639   107882811.985         469.049          48.000  
  21368346.818   112291435.955        1749.464          47.000  
  25839817.904   135789156.804       -3758.062          35.000  
  24471695.914                       -2590.355          20.000  
 16  9 24 14  7  6.0000000  0 22R16G11R17G23G27R 1R 2G28G 8G17R22R24
                                G 1R 7G32R 8R23G14G22G 3G10R15
  24385277.247   130261752.403         303.627          37.000  
  20068079.302   105458527.434        -840.344          45.000  
  24276574.133   129908851.499        3678.878          35.000  
  25247857.902   132678423.573        3154.001          40.000  
  24958254.507   131156444.625       -4134.880          37.000  
  19793159.616   105805872.116        1686.550          52.000  
  23971189.502   127914739.117        3839.801          42.000  
  23378459.806   122854686.598        -903.367          39.000  
  21899333.735   115081774.054       -3256.030          46.000  
  24754111.006   130083750.606        3014.412          40.000  
  23453609.052   125196904.772       -4157.613          47.000  
  20058395.131   107261334.801        2018.313          45.000  
  20362187.506   107004040.754         125.158          46.000  
  23573202.506   126189225.337       -4495.952          43.000  
  23145018.506   121627980.846       -2246.617          45.000  
  19794947.600   106001066.242       -2311.461          49.000  
  19540737.775   104529822.699       -1628.096          51.000  
  22167966.087   116493563.337        -314.349          46.000  
  20529321.224   107882343.347         468.387          48.000  
  21368013.868   112289686.738        1749.232          47.000  
  25840533.258   135792915.084       -3757.926          35.000  
  24472181.589                       -2595.189          21.000  
 16  9 24 14  7  7.0000000  0 22R16G11R17G23G27R 1R 2G28G 8G17R22R24
                                G 1R 7G32R 8R23G14G22G 3G10R15
  24385220.533   130261448.818         302.845          37.000  
  20068239.391   105459368.157        -841.036          45.000  
  24275886.525   129905172.551        3678.975          35.000  
  25247257.824   132675269.600        3153.940          40.000  
  24959040.954   131160579.800       -4135.491          37.000  
  19792844.535   105804185.992        1685.606          52.000  
  23970470.030   127910899.687        3839.154          42.000  
  23378631.935   122855590.352        -904.096          40.000  
  21899953.532   115085030.433       -3256.517          46.000  
  24753537.417   130080736.556        3014.007          40.000  
  23454387.401   125201062.436       -4157.810          47.000  
  20058017.508   107259316.577        2018.014          46.000  
  20362163.704   107003915.880         124.559          46.000  
  23574042.734   126193721.528       -4496.196          43.000  
  23145445.862   121630227.691       -2247.336          45.000  
  19795379.249   106003378.118       -2312.199          49.000  
  19541042.491   104531451.283       -1628.960          51.000  
  22168026.185   116493878.182        -315.348          46.000  
  20529231.635   107881875.112         467.876          48.000  
  21367681.267   112287937.924        1748.486          47.000  
  25841248.508   135796673.291       -3758.498          33.000  
  24472666.775                       -2581.761          20.000  
 16  9 24 14  7  8.0000000  0 22R16G11R17G23G27R 1R 2G28G 8G17R22R24
                                G 1R 7G32R 8R23G14G22G 3G10R15
  24385163.855   130261145.953         302.384          36.000  
  20068399.235   105460209.372        -841.405          45.000  
  24275198.986   129901493.498        3679.184          34.000  
  25246657.816   132672115.514        3154.362          40.000  
  24959827.610   131164714.983       -4135.327          37.000  
  19792529.454   105802500.510        1685.246          52.000  
  23969750.522   127907060.324        3839.557          42.000  
  23378803.994   122856494.619        -904.283          40.000  
  21900573.469   115088287.152       -3256.799          46.000  
  24752963.724   130077722.569        3014.096          40.000  
  23455165.821   125205220.267       -4157.800          47.000  
  20057640.514   107257298.790        2017.655          46.000  
  20362140.320   107003791.289         124.623          47.000  
  23574882.683   126198217.788       -4496.192          43.000  
  23145873.148   121632475.023       -2247.471          45.000  
  19795810.967   106005690.573       -2312.593          49.000  
  19541347.276   104533080.492       -1629.369          51.000  
  22168086.074   116494193.587        -315.708          46.000  
  20529142.778   107881407.265         467.810          48.000  
  21367348.526   112286189.423        1748.662          47.000  
  25841963.722   135800431.336       -3756.973          31.000  
  24473149.657                       -2591.732          19.000  
 16  9 24 14  7  9.0000000  0 22R16G11R17G23G27R 1R 2G28G 8G17R22R24
                                G 1R 7G32R 8R23G14G22G 3G10R15
  24385107.282   130260843.833         301.582          36.000  
  20068559.253   105461051.053        -841.765          45.000  
  24274511.378   129897814.191        3679.367          33.000  
  25246057.633   132668961.325        3154.271          40.000  
  24960614.230   131168850.098       -4135.250          37.000  
  19792214.059   105800815.666        1684.470          51.000  
  23969030.980   127903221.051        3839.301          43.000  
  23378976.018   122857399.389        -905.126          40.000  
  21901193.196   115091544.184       -3257.074          46.000  
  24752389.786   130074708.621        3014.099          40.000  
  23455944.868   125209378.264       -4158.132          47.000  
  20057263.519   107255281.403        2017.394          45.000  
  20362116.728   107003666.982         124.110          46.000  
  23575723.225   126202714.036       -4496.230          44.000  
  23146300.888   121634722.836       -2247.870          45.000  
  19796242.930   106008003.599       -2313.509          49.000  
  19541652.341   104534710.311       -1630.156          51.000  
  22168145.824   116494509.541        -316.107          45.000  
  20529053.607   107880939.784         467.289          48.000  
  21367015.751   112284441.296        1748.010          47.000  
  25842678.623   135804189.277       -3757.770          30.000  
  24473636.379                       -2593.877          19.000  
 16  9 24 14  7 10.0000000  0 22R16G11R17G23G27R 1R 2G28G 8G17R22R24
                                G 1R 7G32R 8R23G14G22G 3G10R15
  24385051.127   130260542.466         300.769          37.000  
  20068719.411   105461893.287        -842.453          45.000  
  24273823.700   129894134.857        3679.465          34.000  
  25245457.555   132665807.065        3154.397          40.000  
  24961401.340   131172985.309       -4135.169          37.000  
  19791898.943   105799131.534        1683.694          51.000  
  23968311.508   127899381.915        3838.861          43.000  
  23379148.601   122858304.683        -905.442          40.000  
  21901813.411   115094801.639       -3257.815          47.000  
  24751816.512   130071694.817        3013.982          40.000  
  23456724.230   125213536.495       -4158.336          47.000  
  20056886.350   107253264.509        2016.844          45.000  
  20362093.344   107003543.039         123.699          46.000  
  23576563.592   126207210.360       -4496.405          44.000  
  23146728.557   121636971.223       -2248.613          45.000  
  19796675.242   106010317.270       -2314.101          49.000  
  19541957.161   104536340.821       -1630.877          51.000  
  22168205.783   116494826.155        -317.005          45.000  
  20528965.135   107880472.741         466.841          48.000  
  21366683.115   112282693.558        1747.526          47.000  
  25843392.965   135807947.155       -3757.845          29.000  
  24474120.517                       -2590.741          20.000  
 16  9 24 14  7 11.0000000  0 22R16G11R17G23G27R 1R 2G28G 8G17R22R24
                                G 1R 7G32R 8R23G14G22G 3G10R15
  24384995.042   130260241.916         299.998          37.000  
  20068879.674   105462736.077        -843.177          45.000  
  24273136.021   129890455.536        3678.937          35.000  
  25244857.163   132662652.764        3154.255          40.000  
  24962187.961   131177120.586       -4135.236          37.000  
  19791583.757   105797448.107        1682.976          51.000  
  23967592.175   127895542.886        3838.867          43.000  
  23379321.079   122859210.555        -906.198          40.000  
  21902433.383   115098059.486       -3258.043          46.000  
  24751243.377   130068681.158        3013.576          41.000  
  23457503.871   125217694.952       -4158.687          47.000  
  20056509.635   107251248.124        2016.071          45.000  
  20362069.682   107003419.449         123.324          47.000  
  23577403.401   126211706.724       -4496.548          43.000  
  23147156.472   121639220.191       -2249.778          45.000  
  19797107.344   106012631.607       -2314.740          49.000  
  19542262.819   104537972.011       -1631.652          51.000  
  22168266.230   116495143.392        -317.705          45.000  
  20528876.278   107880006.144         466.350          48.000  
  21366350.862   112280946.242        1747.113          47.000  
  25844109.960   135811705.052       -3757.786          30.000  
  24474603.749                       -2583.538          21.000  
 16  9 24 14  7 12.0000000  0 22R16G11R17G23G27R 1R 2G28G 8G17R22R24
                                G 1R 7G32R 8R23G14G22G 3G10R15
  24384939.271   130259942.250         298.933          37.000  
  20069040.146   105463579.474        -843.953          45.000  
  24272445.935   129886776.188        3679.378          31.000  
  25244256.945   132659498.500        3153.625          40.000  
  24962974.966   131181256.004       -4135.696          37.000  
  19791269.478   105795765.459        1681.959          52.000  
  23966872.877   127891704.143        3838.165          43.000  
  23379494.150   122860117.061        -906.935          41.000  
  21903053.110   115101317.822       -3258.686          46.000  
  24750669.893   130065667.708        3013.152          40.000  
  23458283.197   125221853.715       -4159.306          47.000  
  20056132.989   107249232.315        2015.156          46.000  
  20362046.613   107003296.291         122.731          47.000  
  23578243.455   126216203.238       -4496.921          44.000  
  23147584.735   121641469.736       -2249.889          45.000  
  19797539.760   106014946.662       -2315.646          49.000  
  19542567.640   104539603.959       -1632.638          51.000  
  22168326.120   116495461.331        -318.551          45.000  
  20528787.178   107879540.063         465.580          48.000  
  21366018.610   112279199.412        1746.270          47.000  
  25844824.162   135815463.012       -3758.255          31.000  
  24475088.516                       -2595.242          21.000  
 16  9 24 14  7 13.0000000  0 22R16G11R17G23G27R 1R 2G28G 8G17R22R24
                                G 1R 7G32R 8R23G14G22G 3G10R15
  24384883.605   130259643.325         299.331          36.000  
  20069200.828   105464423.438        -844.049          45.000  
  24271757.524   129883096.893        3679.173          33.000  
  25243656.448   132656344.164        3154.875          40.000  
  24963761.726   131185391.512       -4135.523          36.000  
  19790954.956   105794083.532        1681.926          52.000  
  23966153.474   127887865.573        3838.708          43.000  
  23379666.488   122861024.127        -906.924          41.000  
  21903672.767   115104576.585       -3258.623          46.000  
  24750096.758   130062654.389        3013.635          40.000  
  23459062.175   125226012.738       -4158.818          47.000  
  20055756.274   107247217.018        2015.317          46.000  
  20362023.299   107003173.522         122.791          47.000  
  23579083.404   126220699.875       -4496.454          44.000  
  23148013.033   121643719.909       -2250.323          45.000  
  19797972.177   106017262.389       -2315.757          49.000  
  19542872.390   104541236.592       -1632.617          51.000  
  22168386.532   116495779.924        -318.738          45.000  
  20528698.775   107879074.443         465.669          48.000  
  21365686.253   112277453.013        1746.669          47.000  
  25845537.527   135819220.912       -3757.127          30.000  
  24475573.632                       -2595.199          22.000  
 16  9 24 14  7 14.0000000  0 22R16G11R17G23G27R 1R 2G28G 8G17R22R24
                                G 1R 7G32R 8R23G14G22G 3G10R15
  24384828.043   130259345.130         297.939          36.000  
  20069361.719   105465267.848        -844.878          45.000  
  24271066.181   129879417.335        3679.078          34.000  
  25243056.300   132653189.722        3154.516          40.000  
  24964548.661   131189526.971       -4135.568          36.000  
  19790640.747   105792402.234        1680.789          52.000  
  23965434.036   127884027.068        3838.202          43.000  
  23379839.420   122861931.675        -907.808          41.000  
  21904293.506   115107835.659       -3259.558          46.000  
  24749523.379   130059641.120        3013.063          40.000  
  23459841.223   125230171.906       -4159.370          47.000  
  20055379.664   107245202.111        2014.518          46.000  
  20362000.056   107003051.003         122.188          47.000  
  23579922.864   126225196.548       -4496.852          43.000  
  23148441.261   121645970.514       -2250.922          45.000  
  19798405.012   106019578.662       -2316.645          49.000  
  19543177.595   104542869.817       -1633.797          51.000  
  22168447.050   116496099.048        -319.559          45.000  
  20528610.337   107878609.165         464.896          48.000  
  21365353.932   112275706.921        1745.734          47.000  
  25846259.477   135822978.712       -3757.637          31.000  
  24476059.446                       -2612.790          22.000  
 16  9 24 14  7 15.0000000  0 22R16G11R17G23G27R 1R 2G28G 8G17R22R24
                                G 1R 7G32R 8R23G14G22G 3G10R15
  24384772.133   130259047.727         297.687          35.000  
  20069522.366   105466112.834        -844.951          45.000  
  24270373.547   129875737.751        3679.484          33.000  
  25242456.048   132650035.257        3154.569          40.000  
  24965335.736   131193662.508       -4135.258          37.000  
  19790326.399   105790721.671        1680.328          52.000  
  23964714.878   127880188.713        3838.446          43.000  
  23380012.631   122862839.812        -908.186          41.000  
  21904913.792   115111095.148       -3259.372          46.000  
  24748950.174   130056628.016        3013.136          40.000  
  23460620.096   125234331.344       -4159.370          47.000  
  20055003.367   107243187.729        2014.360          46.000  
  20361976.847   107002928.866         122.260          47.000  
  23580762.568   126229693.330       -4496.663          43.000  
  23148869.315   121648221.728       -2251.259          45.000  
  19798837.743   106021895.621       -2317.125          49.000  
  19543482.904   104544503.743       -1634.132          51.000  
  22168507.602   116496418.839        -319.905          45.000  
  20528521.934   107878144.359         464.800          48.000  
  21365021.610   112273961.268        1745.586          47.000  
  25846973.122   135826736.504       -3757.879          32.000  
  24476545.679                       -2603.992          23.000  
 16  9 24 14  7 16.0000000  0 22R16G11R17G23G27R 1R 2G28G 8G17R22R24
                                G 1R 7G32R 8R23G14G22G 3G10R15
  24384716.536   130258751.195         296.221          35.000  
  20069683.257   105466958.443        -845.884          45.000  
  24269687.056   129872058.236        3679.299          33.000  
  25241855.516   132646880.791        3154.409          40.000  
  24966122.776   131197798.215       -4135.835          37.000  
  19790011.911   105789041.891        1679.384          52.000  
  23963995.406   127876350.607        3837.933          43.000  
  23380185.842   122863748.562        -909.110          41.000  
  21905534.286   115114355.108       -3260.174          46.000  
  24748376.760   130053615.130        3012.798          40.000  
  23461399.492   125238491.086       -4159.981          48.000  
  20054626.861   107241173.907        2013.541          46.000  
  20361953.638   107002807.161         121.583          47.000  
  23581602.587   126234190.224       -4496.962          43.000  
  23149298.032   121650473.567       -2252.093          45.000  
  19799270.194   106024213.331       -2318.083          49.000  
  19543788.003   104546138.440       -1634.967          51.000  
  22168568.224   116496739.317        -320.758          45.000  
  20528433.427   107877680.073         464.019          48.000  
  21364689.567   112272216.092        1744.950          47.000  
  25847687.917   135830494.260       -3757.454          32.000  
  24477030.620                       -2594.045          23.000  
 16  9 24 14  7 17.0000000  0 22R16G11R17G23G27R 1R 2G28G 8G17R22R24
                                G 1R 7G32R 8R23G14G22G 3G10R15
  24384661.463   130258455.406         295.470          35.000  
  20069844.741   105467804.555        -846.602          45.000  
  24269004.194   129868378.569        3679.524          35.000  
  25241255.019   132643726.231        3154.570          40.000  
  24966910.199   131201933.900       -4135.729          37.000  
  19789697.702   105787362.773        1678.643          52.000  
  23963275.793   127872512.599        3837.866          42.000  
  23380358.599   122864657.814        -909.635          41.000  
  21906154.677   115117615.431       -3260.759          46.000  
  24747803.346   130050602.302        3012.706          40.000  
  23462179.272   125242651.036       -4160.182          47.000  
  20054250.565   107239160.515        2013.163          46.000  
  20361930.569   107002685.759         121.065          47.000  
  23582442.536   126238687.171       -4497.164          43.000  
  23149726.470   121652725.898       -2252.759          45.000  
  19799702.994   106026531.640       -2318.751          49.000  
  19544093.382   104547773.766       -1635.724          51.000  
  22168629.544   116497060.388        -321.599          45.000  
  20528345.338   107877216.172         463.561          48.000  
  21364357.559   112270471.282        1744.755          47.000  
  25848404.144   135834251.953       -3757.707          32.000  
  24477518.249                       -2603.618          24.000  
 16  9 24 14  7 18.0000000  0 22R16G11R17G23G27R 1R 2G28G 8G17R22R24
                                G 1R 7G32R 8R23G14G22G 3G10R15
  24384606.495   130258160.521         294.165          35.000  
  20070006.086   105468651.278        -846.837          45.000  
  24268317.109   129864698.953        3679.273          35.000  
  25240654.766   132640571.736        3154.483          40.000  
  24967697.379   131206069.744       -4135.423          37.000  
  19789383.773   105785684.448        1678.120          52.000  
  23962555.972   127868674.828        3837.738          41.000  
  23380532.089   122865567.720        -910.107          41.000  
  21906775.171   115120876.220       -3260.909          46.000  
  24747229.827   130047589.708        3012.615          40.000  
  23462958.495   125246811.276       -4160.241          47.000  
  20053874.268   107237147.718        2012.665          46.000  
  20361907.395   107002564.783         120.959          47.000  
  23583282.310   126243184.250       -4496.953          42.000  
  23150155.257   121654978.880       -2253.046          45.000  
  19800135.969   106028850.676       -2319.245          49.000  
  19544398.691   104549409.867       -1636.370          51.000  
  22168690.794   116497382.168        -321.983          45.000  
  20528256.865   107876752.788         463.263          48.000  
  21364025.761   112268726.965        1744.204          47.000  
  25849117.788   135838009.636       -3757.543          31.000  
  24478004.447                       -2600.831          25.000  
 16  9 24 14  7 19.0000000  0 22R16G11R17G23G27R 1R 2G28G 8G17R22R24
                                G 1R 7G32R 8R23G14G22G 3G10R15
  24384551.527   130257866.274         293.722          34.000  
  20070167.186   105469498.447        -847.540          45.000  
  24267629.640   129861019.172        3680.017          36.000  
  25240054.130   132637417.058        3154.621          40.000  
  24968484.663   131210205.550       -4136.092          37.000  
  19789069.774   105784006.729        1677.196          52.000  
  23961836.011   127864837.080        3837.726          41.000  
  23380704.986   122866478.062        -910.877          40.000  
  21907395.876   115124137.320       -3261.433          46.000  
  24746656.657   130044577.137        3012.264          40.000  
  23463737.437   125250971.666       -4160.584          47.000  
  20053497.972   107235135.306        2012.011          46.000  
  20361884.500   107002444.091         120.276          47.000  
  23584122.084   126247681.334       -4497.305          42.000  
  23150583.520   121657232.333       -2253.949          44.000  
  19800569.188   106031170.275       -2320.140          49.000  
  19544704.524   104551046.541       -1637.122          51.000  
  22168751.975   116497704.478        -322.836          45.000  
  20528168.532   107876289.760         462.589          48.000  
  21363693.962   112266982.964        1743.561          47.000  
  25849835.097   135841767.253       -3758.577          31.000  
  24478494.240                       -2602.103          25.000  
 16  9 24 14  7 20.0000000  0 22R16G11R17G23G27R 1R 2G28G 8G17R22R24
                                G 1R 7G32R 8R23G14G22G 3G10R15
  24384496.629   130257572.758         293.793          34.000  
  20070328.426   105470346.184        -848.181          45.000  
  24266941.822   129857339.356        3679.467          36.000  
  25239453.424   132634262.354        3154.559          40.000  
  24969272.016   131214341.414       -4136.105          37.000  
  19788755.949   105782329.727        1676.659          52.000  
  23961116.853   127860999.548        3837.292          41.000  
  23380878.092   122867388.980        -911.570          40.000  
  21908016.231   115127398.830       -3261.722          46.000  
  24746083.068   130041564.713        3012.094          40.000  
  23464516.101   125255132.292       -4160.780          47.000  
  20053121.570   107233123.387        2011.484          46.000  
  20361861.815   107002323.740         119.953          47.000  
  23584961.859   126252178.493       -4497.130          42.000  
  23151012.062   121659486.336       -2254.486          44.000  
  19801002.372   106033490.526       -2320.596          49.000  
  19545010.356   104552683.900       -1637.788          51.000  
  22168813.539   116498027.429        -323.529          45.000  
  20528080.932   107875827.168         462.205          48.000  
  21363362.268   112265239.381        1743.145          47.000  
  25850546.682   135845524.785       -3757.731          30.000  
  24478982.392                       -2608.643          23.000  
 16  9 24 14  7 21.0000000  0 22R16G11R17G23G27R 1R 2G28G 8G17R22R24
                                G 1R 7G32R 8R23G14G22G 3G10R15
  24384441.905   130257280.203         292.241          34.000  
  20070489.980   105471194.553        -848.901          45.000  
  24266254.179   129853659.561        3679.695          35.000  
  25238852.962   132631107.671        3154.552          40.000  
  24970059.161   131218477.435       -4136.238          37.000  
  19788442.194   105780653.540        1675.573          52.000  
  23960397.659   127857162.263        3836.920          41.000  
  23381051.617   122868300.546        -912.159          40.000  
  21908637.249   115130660.862       -3262.588          46.000  
  24745509.899   130038552.520        3011.879          40.000  
  23465295.358   125259293.253       -4161.286          47.000  
  20052745.344   107231112.050        2010.750          45.000  
  20361839.199   107002203.868         119.254          47.000  
  23585801.668   126256675.828       -4497.758          43.000  
  23151441.059   121661741.004       -2255.347          44.000  
  19801435.487   106035811.533       -2321.751          49.000  
  19545316.363   104554322.044       -1638.731          51.000  
  22168874.859   116498351.099        -324.243          45.000  
  20527993.088   107875365.122         461.613          48.000  
  21363030.749   112263496.280        1742.968          47.000  
  25851261.966   135849282.352       -3757.860          29.000  
  24479468.660                       -2601.757          22.000  
 16  9 24 14  7 22.0000000  0 22R16G11R17G23G27R 1R 2G28G 8G17R22R24
                                G 1R 7G32R 8R23G14G22G 3G10R15
  24384387.006   130256988.531         290.931          35.000  
  20070651.709   105472043.573        -849.279          45.000  
  24265566.501   129849979.851        3679.744          36.000  
  25238252.604   132627953.076        3154.396          40.000  
  24970846.200   131222613.638       -4136.444          37.000  
  19788128.718   105778978.180        1674.766          52.000  
  23959678.606   127853325.251        3836.908          42.000  
  23381224.793   122869212.793        -912.773          40.000  
  21909257.953   115133923.384       -3262.814          46.000  
  24744936.798   130035540.583        3011.914          40.000  
  23466074.824   125263454.558       -4161.659          46.000  
  20052369.047   107229101.301        2010.515          45.000  
  20361816.340   107002084.456         118.978          47.000  
  23586641.128   126261173.335       -4497.668          43.000  
  23151870.404   121663996.330       -2255.646          44.000  
  19801869.159   106038133.296       -2322.226          49.000  
  19545622.929   104555960.995       -1639.428          51.000  
  22168936.528   116498675.527        -324.994          45.000  
  20527905.209   107874903.630         461.070          48.000  
  21362698.776   112261753.750        1742.039          47.000  
  25851978.158   135853040.060       -3758.122          29.000  
  24479956.882                       -2603.398          23.000  
 16  9 24 14  7 23.0000000  0 22R16G11R17G23G27R 1R 2G28G 8G17R22R24
                                G 1R 7G32R 8R23G14G22G 3G10R15
  24384332.282   130256697.602         290.863          34.000  
  20070813.123   105472893.142        -849.800          45.000  
  24264878.962   129846300.005        3680.159          35.000  
  25237652.387   132624798.391        3155.009          39.000  
  24971633.380   131226749.885       -4136.526          37.000  
  19787815.138   105777303.505        1674.344          52.000  
  23958959.517   127849488.364        3836.407          41.000  
  23381398.457   122870125.569        -913.071          40.000  
  21909878.658   115137186.296       -3262.938          46.000  
  24744363.664   130032528.743        3011.892          40.000  
  23466854.989   125267616.056       -4161.739          47.000  
  20051992.925   107227091.049        2009.994          45.000  
  20361793.550   107001965.375         118.808          47.000  
  23587481.042   126265670.909       -4497.738          43.000  
  23152299.749   121666252.190       -2255.970          44.000  
  19802302.728   106040455.683       -2322.765          49.000  
  19545929.599   104557600.603       -1640.023          51.000  
  22168998.232   116499000.542        -325.289          45.000  
  20527817.678   107874442.563         460.796          48.000  
  21362367.362   112260011.579        1741.902          47.000  
  25852693.966   135856797.657       -3757.625          29.000  
  24480445.314                       -2604.115          24.000  
 16  9 24 14  7 24.0000000  0 22R16G11R17G23G27R 1R 2G28G 8G17R22R24
                                G 1R 7G32R 8R23G14G22G 3G10R15
  24384277.663   130256407.551         288.997          33.000  
  20070975.061   105473743.253        -850.244          45.000  
  24264191.389   129842620.167        3679.600          34.000  
  25237052.134   132621643.704        3154.775          39.000  
  24972420.594   131230886.182       -4136.302          37.000  
  19787501.697   105775629.584        1673.730          52.000  
  23958240.324   127845651.638        3836.591          41.000  
  23381572.331   122871038.925        -913.356          40.000  
  21910499.955   115140449.640       -3263.448          46.000  
  24743790.354   130029517.077        3011.393          40.000  
  23467635.153   125271777.816       -4161.743          47.000  
  20051616.699   107225081.296        2009.618          45.000  
  20361771.493   107001846.663         118.597          47.000  
  23588321.235   126270168.630       -4497.563          43.000  
  23152728.815   121668508.645       -2256.523          44.000  
  19802736.470   106042778.742       -2323.337          49.000  
  19546235.920   104559240.889       -1640.446          51.000  
  22169060.215   116499326.223        -325.913          45.000  
  20527729.659   107873981.944         460.602          48.000  
  21362035.947   112258269.837        1741.836          47.000  
  25853410.472   135860555.223       -3756.908          30.000  
  24480934.060                       -2604.135          23.000  
 16  9 24 14  7 25.0000000  0 22R16G11R17G23G27R 1R 2G28G 8G17R22R24
                                G 1R 7G32R 8R23G14G22G 3G10R15
  24384223.393   130256118.143         288.846          33.000  
  20071136.650   105474593.800        -850.677          45.000  
  24263503.466   129838940.105        3679.965          33.000  
  25236451.288   132618488.856        3154.747          39.000  
  24973207.355   131235022.422       -4136.040          37.000  
  19787188.605   105773956.274        1672.989          52.000  
  23957521.549   127841814.965        3836.798          41.000  
  23381746.310   122871952.719        -914.016          41.000  
  21911120.485   115143713.247       -3263.484          46.000  
  24743217.708   130026505.396        3011.724          40.000  
  23468415.596   125275939.692       -4161.915          47.000  
  20051240.960   107223071.934        2009.216          45.000  
  20361749.086   107001728.193         118.295          47.000  
  23589161.463   126274666.358       -4497.750          43.000  
  23153157.846   121670765.543       -2257.131          44.000  
  19803169.864   106045102.345       -2323.899          49.000  
  19546542.311   104560881.757       -1641.100          51.000  
  22169122.129   116499652.414        -326.551          45.000  
  20527642.059   107873521.656         460.161          48.000  
  21361704.184   112256528.397        1741.418          47.000  
  25854124.919   135864312.625       -3757.177          31.000  
  24481422.247                       -2603.515          23.000  
 16  9 24 14  7 26.0000000  0 22R16G11R17G23G27R 1R 2G28G 8G17R22R24
                                G 1R 7G32R 8R23G14G22G 3G10R15
  24384169.193   130255829.726         287.715          33.000  
  20071298.833   105475445.108        -851.504          45.000  
  24262815.753   129835260.310        3680.052          33.000  
  25235850.791   132615334.152        3154.904          39.000  
  24973994.324   131239158.965       -4136.685          37.000  
  19786875.548   105772283.904        1672.004          52.000  
  23956802.705   127837978.703        3836.316          41.000  
  23381920.114   122872867.288        -914.791          41.000  
  21911741.678   115146977.527       -3264.576          46.000  
  24742644.782   130023494.086        3011.271          40.000  
  23469195.133   125280102.052       -4162.458          46.000  
  20050865.397   107221063.296        2008.312          45.000  
  20361726.715   107001610.297         117.828          47.000  
  23590001.830   126279164.407       -4498.104          43.000  
  23153587.575   121673023.206       -2257.882          44.000  
  19803603.921   106047426.825       -2324.890          49.000  
  19546849.190   104562523.514       -1642.097          51.000  
  22169184.217   116499979.436        -327.229          45.000  
  20527554.180   107873062.030         459.515          48.000  
  21361373.118   112254787.559        1740.916          47.000  
  25854838.877   135868070.203       -3757.875          32.000  
  24481909.946                       -2607.025          22.000  
 16  9 24 14  7 27.0000000  0 22R16G11R17G23G27R 1R 2G28G 8G17R22R24
                                G 1R 7G32R 8R23G14G22G 3G10R15
  24384115.272   130255542.045         287.772          33.000  
  20071460.875   105476296.948        -852.048          45.000  
  24262128.250   129831580.377        3680.506          32.000  
  25235250.364   132612179.407        3154.837          40.000  
  24974781.958   131243295.553       -4136.459          38.000  
  19786562.980   105770612.225        1671.502          52.000  
  23956083.547   127834142.574        3836.224          41.000  
  23382094.267   122873782.384        -915.297          41.000  
  21912362.557   115150242.171       -3264.843          46.000  
  24742071.961   130020482.884        3011.180          40.000  
  23469974.669   125284264.620       -4162.624          46.000  
  20050489.868   107219055.133        2008.144          45.000  
  20361704.135   107001492.735         117.442          47.000  
  23590842.373   126283662.456       -4497.777          43.000  
  23154017.618   121675281.414       -2258.544          44.000  
  19804037.733   106049751.934       -2325.180          49.000  
  19547156.489   104564165.939       -1642.573          51.000  
  22169246.619   116500307.091        -327.909          44.000  
  20527466.824   107872602.818         459.192          48.000  
  21361041.808   112253047.158        1740.293          47.000  
  25855550.637   135871827.697       -3756.877          33.000  
  24482397.470                       -2596.374          21.000  
 16  9 24 14  7 28.0000000  0 22R16G11R17G23G27R 1R 2G28G 8G17R22R24
                                G 1R 7G32R 8R23G14G22G 3G10R15
  24384061.281   130255255.208         286.172          32.000  
  20071623.232   105477149.326        -852.519          45.000  
  24261440.153   129827900.410        3680.322          32.000  
  25234649.658   132609024.590        3154.699          40.000  
  24975569.172   131247432.173       -4136.459          37.000  
  19786250.866   105768941.271        1670.684          52.000  
  23955364.737   127830306.552        3836.042          41.000  
  23382268.595   122874698.046        -916.069          41.000  
  21912983.645   115153507.214       -3265.265          46.000  
  24741499.140   130017471.818        3011.151          40.000  
  23470754.693   125288427.434       -4162.773          46.000  
  20050114.514   107217047.474        2007.394          45.000  
  20361681.833   107001375.536         117.071          47.000  
  23591682.915   126288160.566       -4497.956          43.000  
  23154448.115   121677540.182       -2259.041          44.000  
  19804471.964   106052077.719       -2325.889          49.000  
  19547463.054   104565809.055       -1643.457          51.000  
  22169308.986   116500635.378        -328.616          45.000  
  20527379.434   107872144.060         458.544          48.000  
  21360710.708   112251307.125        1739.907          47.000  
  25856265.781   135875585.174       -3757.597          33.000  
  24482884.436                       -2609.624          22.000  
 16  9 24 14  7 29.0000000  0 22R16G11R17G23G27R 1R 2G28G 8G17R22R24
                                G 1R 7G32R 8R23G14G22G 3G10R15
  24384007.778   130254969.038         285.801          33.000  
  20071785.414   105478002.241        -853.108          45.000  
  24260752.056   129824220.337        3679.735          32.000  
  25234049.021   132605869.729        3154.858          40.000  
  24976356.246   131251568.879       -4136.711          37.000  
  19785938.472   105767271.015        1669.893          52.000  
  23954645.544   127826470.679        3835.956          41.000  
  23382443.062   122875614.240        -916.363          41.000  
  21913604.942   115156772.647       -3265.694          46.000  
  24740926.634   130014460.896        3010.690          40.000  
  23471534.020   125292590.510       -4163.105          45.000  
  20049738.846   107215040.275        2006.902          45.000  
  20361659.323   107001258.685         116.696          47.000  
  23592522.898   126292658.708       -4497.906          43.000  
  23154878.019   121679799.491       -2259.393          44.000  
  19804906.370   106054404.138       -2326.654          49.000  
  19547770.178   104567452.837       -1644.113          51.000  
  22169371.423   116500964.279        -329.164          45.000  
  20527292.462   107871685.723         458.165          48.000  
  21360379.852   112249567.519        1739.640          47.000  
  25856981.275   135879342.595       -3757.677          34.000  
  24483373.007                       -2612.901          22.000  
 16  9 24 14  7 30.0000000  0 22R16G11R17G23G27R 1R 2G28G 8G17R22R24
                                G 1R 7G32R 8R23G14G22G 3G10R15
  24383954.101   130254683.701         284.758          33.000  
  20071948.085   105478855.695        -854.008          45.000  
  24260064.517   129820540.187        3679.807          32.000  
  25233448.594   132602714.786        3154.691          40.000  
  24977143.391   131255705.599       -4136.854          38.000  
  19785626.322   105765601.439        1668.912          52.000  
  23953926.386   127822634.944        3835.138          40.000  
  23382617.565   122876530.989        -917.282          41.000  
  21914226.624   115160038.472       -3266.593          46.000  
  24740353.464   130011450.080        3010.397          40.000  
  23472313.242   125296753.804       -4163.833          45.000  
  20049363.422   107213033.528        2006.244          45.000  
  20361637.056   107001142.171         115.972          47.000  
  23593362.742   126297156.926       -4498.531          43.000  
  23155308.515   121682059.336       -2260.312          45.000  
  19805340.915   106056731.162       -2327.576          49.000  
  19548077.546   104569097.288       -1645.051          51.000  
  22169434.139   116501293.807        -329.992          45.000  
  20527205.455   107871227.817         457.420          48.000  
  21360048.751   112247828.317        1738.793          47.000  
  25857696.455   135883099.937       -3757.301          34.000  
  24483860.287                       -2609.547          22.000  
 16  9 24 14  7 31.0000000  0 22R16G11R17G23G27R 1R 2G28G 8G17R22R24
                                G 1R 7G32R 8R23G14G22G 3G10R15
  24383900.564   130254399.152         284.204          33.000  
  20072110.338   105479709.710        -854.368          45.000  
  24259376.909   129816860.144        3678.850          32.000  
  25232848.272   132599559.854        3154.513          40.000  
  24977930.605   131259842.410       -4136.745          38.000  
  19785314.557   105763932.603        1668.422          52.000  
  23953207.157   127818799.445        3835.394          39.000  
  23382791.718   122877448.320        -917.462          41.000  
  21914848.061   115163304.686       -3266.296          46.000  
  24739780.608   130008439.427        3010.598          40.000  
  23473092.848   125300917.357       -4163.796          46.000  
  20048988.486   107211027.323        2005.935          45.000  
  20361614.790   107001026.061         115.852          47.000  
  23594202.726   126301655.279       -4498.612          42.000  
  23155738.873   121684319.791       -2260.845          45.000  
  19805775.565   106059058.871       -2327.994          49.000  
  19548385.507   104570742.449       -1645.593          51.000  
  22169497.413   116501623.995        -330.510          45.000  
  20527118.658   107870770.392         457.083          48.000  
  21359718.104   112246089.549        1738.163          47.000  
  25858411.286   135886857.297       -3757.604          35.000  
  24484348.439                       -2609.002          21.000  
 16  9 24 14  7 32.0000000  0 22R16G11R17G23G27R 1R 2G28G 8G17R22R24
                                G 1R 7G32R 8R23G14G22G 3G10R15
  24383847.201   130254115.480         283.943          33.000  
  20072272.869   105480564.317        -854.758          45.000  
  24258689.265   129813179.932        3679.522          31.000  
  25232247.984   132596404.889        3154.924          40.000  
  24978717.854   131263979.333       -4136.742          38.000  
  19785002.477   105762264.509        1667.815          52.000  
  23952488.418   127814964.161        3834.991          39.000  
  23382966.429   122878366.253        -918.514          41.000  
  21915469.603   115166571.367       -3266.806          46.000  
  24739207.752   130005428.949        3010.611          40.000  
  23473873.012   125305081.157       -4164.022          47.000  
  20048613.342   107209021.651        2005.405          45.000  
  20361592.698   107000910.338         115.482          47.000  
  23595042.954   126306153.771       -4498.482          42.000  
  23156169.614   121686580.816       -2261.330          45.000  
  19806210.180   106061387.289       -2328.774          49.000  
  19548693.434   104572388.334       -1646.232          51.000  
  22169560.513   116501954.844        -331.080          45.000  
  20527031.511   107870313.427         456.879          48.000  
  21359386.969   112244351.218        1738.186          47.000  
  25859126.291   135890614.621       -3757.463          35.000  
  24484833.660                       -2608.826          21.000  
 16  9 24 14  7 33.0000000  0 22R16G11R17G23G27R 1R 2G28G 8G17R22R24
                                G 1R 7G32R 8R23G14G22G 3G10R15
  24383794.013   130253832.585         283.206          33.000  
  20072435.784   105481419.496        -855.395          45.000  
  24257999.109   129809499.729        3679.687          31.000  
  25231647.592   132593249.882        3155.307          40.000  
  24979505.313   131268116.324       -4136.957          38.000  
  19784690.956   105760597.148        1667.009          52.000  
  23951769.085   127811128.996        3835.303          40.000  
  23383141.280   122879284.731        -918.695          41.000  
  21916091.668   115169838.467       -3267.131          46.000  
  24738635.211   130002418.633        3010.207          40.000  
  23474653.351   125309245.197       -4164.104          47.000  
  20048238.476   107207016.505        2004.844          45.000  
  20361570.675   107000794.981         115.155          47.000  
  23595882.973   126310652.403       -4498.540          42.000  
  23156600.390   121688842.430       -2261.976          45.000  
  19806645.493   106063716.378       -2329.375          49.000  
  19549001.884   104574034.952       -1647.069          51.000  
  22169624.067   116502286.353        -331.845          45.000  
  20526944.818   107869856.943         456.244          48.000  
  21359056.008   112242613.325        1737.588          47.000  
  25859841.087   135894371.937       -3757.414          34.000  
  24485320.346                       -2611.159          21.000  
 16  9 24 14  7 34.0000000  0 22R16G11R17G23G27R 1R 2G28G 8G17R22R24
                                G 1R 7G32R 8R23G14G22G 3G10R15
  24383740.685   130253550.411         281.754          33.000  
  20072598.281   105482275.088        -855.677          45.000  
  24257306.371   129805819.311        3681.013          31.000  
  25231047.479   132590094.735        3155.177          40.000  
  24980292.701   131272253.284       -4137.124          39.000  
  19784379.888   105758930.375        1666.448          52.000  
  23951050.380   127807293.896        3834.870          40.000  
  23383316.271   122880203.664        -919.228          41.000  
  21916713.175   115173105.828       -3267.434          46.000  
  24738061.901   129999408.327        3010.209          40.000  
  23475434.074   125313409.343       -4164.275          47.000  
  20047863.192   107205011.722        2004.483          45.000  
  20361549.177   107000679.864         114.874          47.000  
  23596723.236   126315150.954       -4498.614          41.000  
  23157030.887   121691104.459       -2262.089          45.000  
  19807080.632   106066046.001       -2329.857          49.000  
  19549309.880   104575682.134       -1647.621          51.000  
  22169687.446   116502618.353        -332.158          45.000  
  20526858.161   107869400.767         455.957          48.000  
  21358725.048   112240875.707        1737.654          47.000  
  25860555.987   135898129.039       -3756.420          33.000  
  24485810.349                       -2623.580          21.000  
 16  9 24 14  7 35.0000000  0 22R16G11R17G23G27R 1R 2G28G 8G17R22R24
                                G 1R 7G32R 8R23G14G22G 3G10R15
  24383687.602   130253268.923         281.208          33.000  
  20072761.021   105483131.179        -856.229          45.000  
  24256612.585   129802138.866        3680.087          31.000  
  25230446.878   132586939.485        3155.395          40.000  
  24981079.671   131276390.220       -4136.902          39.000  
  19784068.786   105757264.280        1665.785          52.000  
  23950331.780   127803458.844        3835.284          40.000  
  23383491.227   122881123.100        -919.545          41.000  
  21917334.857   115176373.553       -3268.113          46.000  
  24737489.255   129996398.107        3010.155          40.000  
  23476214.273   125317573.674       -4164.262          46.000  
  20047488.047   107203007.377        2004.241          45.000  
  20361527.190   107000565.051         114.675          47.000  
  23597563.149   126319649.522       -4498.664          41.000  
  23157461.663   121693367.015       -2262.680          45.000  
  19807515.526   106068376.259       -2330.566          49.000  
  19549618.261   104577329.956       -1648.143          51.000  
  22169750.790   116502950.952        -332.745          45.000  
  20526771.049   107868944.990         455.592          48.000  
  21358394.820   112239138.474        1737.268          47.000  
  25861270.678   135901886.145       -3757.234          32.000  
  24486298.710                       -2606.896          21.000  
 16  9 24 14  7 36.0000000  0 22R16G11R17G23G27R 1R 2G28G 8G17R22R24
                                G 1R 7G32R 8R23G14G22G 3G10R15
  24383635.007   130252988.301         279.788          33.000  
  20072923.971   105483987.916        -856.997          45.000  
  24255929.828   129798458.358        3681.343          32.000  
  25229846.555   132583784.275        3155.034          40.000  
  24981867.130   131280527.302       -4137.026          39.000  
  19783757.264   105755598.989        1664.856          52.000  
  23949613.006   127799624.055        3834.448          40.000  
  23383666.043   122882043.203        -920.460          41.000  
  21917956.608   115179641.755       -3268.728          46.000  
  24736916.399   129993388.086        3009.840          39.000  
  23476994.333   125321738.353       -4164.848          46.000  
  20047112.867   107201003.616        2003.513          44.000  
  20361505.342   107000450.677         114.124          47.000  
  23598402.993   126324148.260       -4498.828          41.000  
  23157892.544   121695630.231       -2263.473          45.000  
  19807950.525   106070707.248       -2331.333          48.000  
  19549926.641   104578978.541       -1649.000          51.000  
  22169814.274   116503284.276        -333.884          45.000  
  20526684.217   107868489.743         454.950          48.000  
  21358064.138   112237401.738        1736.406          47.000  
  25861985.684   135905643.320       -3758.186          31.000  
  24486788.433                       -2609.437          21.000  
 16  9 24 14  7 37.0000000  0 22R16G11R17G23G27R 1R 2G28G 8G17R22R24
                                G 1R 7G32R 8R23G14G22G 3G10R15
  24383582.621   130252708.552         279.174          33.000  
  20073086.991   105484845.288        -857.771          45.000  
  24255240.893   129794777.974        3679.922          31.000  
  25229246.372   132580629.112        3155.056          40.000  
  24982654.658   131284664.565       -4137.277          39.000  
  19783445.848   105753934.520        1664.082          52.000  
  23948893.987   127795789.489        3834.637          39.000  
  23383841.244   122882963.952        -921.406          41.000  
  21918578.708   115182910.463       -3269.061          46.000  
  24736343.474   129990378.336        3009.835          39.000  
  23477774.846   125325903.385       -4165.222          46.000  
  20046738.002   107199000.443        2002.814          44.000  
  20361483.564   107000336.765         113.676          47.000  
  23599242.942   126328647.182       -4499.111          41.000  
  23158323.424   121697894.084       -2264.463          45.000  
  19808386.188   106073038.962       -2332.134          49.000  
  19550234.672   104580627.901       -1649.832          51.000  
  22169877.967   116503618.313        -334.430          45.000  
  20526597.734   107868035.039         454.381          48.000  
  21357733.980   112235665.504        1735.872          47.000  
  25862700.724   135909400.485       -3757.338          30.000  
  24487276.586                       -2616.138          21.000  
 16  9 24 14  7 38.0000000  0 22R16G11R17G23G27R 1R 2G28G 8G17R22R24
                                G 1R 7G32R 8R23G14G22G 3G10R15
  24383530.550   130252429.499         278.472          34.000  
  20073250.116   105485703.076        -858.017          45.000  
  24254548.294   129791097.382        3680.340          30.000  
  25228646.294   132577473.767        3155.353          40.000  
  24983441.803   131288801.749       -4137.442          38.000  
  19783134.780   105752270.631        1663.460          52.000  
  23948175.387   127791955.011        3834.552          39.000  
  23384016.618   122883885.108        -921.393          41.000  
  21919200.878   115186179.451       -3269.069          46.000  
  24735770.897   129987368.600        3009.445          39.000  
  23478554.976   125330068.501       -4165.284          46.000  
  20046363.380   107196997.610        2002.766          44.000  
  20361461.926   107000223.089         113.458          47.000  
  23600082.786   126333146.047       -4498.976          41.000  
  23158754.584   121700158.387       -2264.785          45.000  
  19808821.675   106075371.166       -2332.464          49.000  
  19550543.017   104582277.801       -1650.316          51.000  
  22169941.731   116503952.852        -334.823          45.000  
  20526511.530   107867580.644         454.119          48.000  
  21357403.508   112233929.548        1735.906          47.000  
  25863415.310   135913157.428       -3755.914          30.000  
  24487763.900                       -2613.965          20.000  
 16  9 24 14  7 39.0000000  0 22R16G11R17G23G27R 1R 2G28G 8G17R22R24
                                G 1R 7G32R 8R23G14G22G 3G10R15
  24383478.443   130252151.145         277.824          35.000  
  20073413.799   105486561.349        -858.511          45.000  
  24253858.068   129787416.642        3681.023          29.000  
  25228045.867   132574318.325        3155.467          40.000  
  24984228.912   131292938.943       -4137.369          39.000  
  19782823.608   105750607.376        1662.958          52.000  
  23947456.752   127788120.623        3834.430          39.000  
  23384192.237   122884806.782        -921.986          42.000  
  21919822.629   115189448.793       -3269.552          46.000  
  24735198.041   129984358.911        3009.712          39.000  
  23479335.175   125334233.787       -4165.306          46.000  
  20045988.654   107194995.220        2002.077          44.000  
  20361440.497   107000109.705         113.232          47.000  
  23600922.735   126337644.943       -4499.099          41.000  
  23159185.884   121702423.160       -2265.115          45.000  
  19809257.861   106077703.959       -2333.228          49.000  
  19550851.328   104583928.273       -1650.702          51.000  
  22170005.459   116504287.973        -335.401          46.000  
  20526424.802   107867126.627         453.777          48.000  
  21357073.245   112232193.952        1735.363          47.000  
  25864128.117   135916914.357       -3757.283          30.000  
  24488249.854                       -2604.771          17.000  
 16  9 24 14  7 40.0000000  0 22R16G11R17G23G27R 1R 2G28G 8G17R22R24
                                G 1R 7G32R 8R23G14G22G 3G10R15
  24383426.546   130251873.631         277.323          35.000  
  20073576.924   105487420.228        -858.938          45.000  
  24253172.344   129783736.003        3680.889          31.000  
  25227445.719   132571162.888        3155.858          40.000  
  24985016.266   131297076.241       -4137.190          38.000  
  19782512.820   105748944.900        1662.376          52.000  
  23946737.838   127784286.508        3834.473          39.000  
  23384367.821   122885729.059        -922.141          42.000  
  21920444.730   115192718.567       -3269.628          46.000  
  24734625.535   129981349.416        3009.901          40.000  
  23480115.549   125338399.359       -4165.404          47.000  
  20045614.068   107192993.374        2001.875          44.000  
  20361419.242   106999996.728         113.005          47.000  
  23601762.963   126342143.975       -4498.686          41.000  
  23159617.253   121704688.553       -2265.167          45.000  
  19809693.488   106080037.459       -2333.563          49.000  
  19551160.301   104585579.492       -1651.265          51.000  
  22170069.676   116504623.771        -335.738          46.000  
  20526338.458   107866673.099         453.613          48.000  
  21356743.191   112230458.817        1735.176          47.000  
  25864843.715   135920671.225       -3757.099          30.000  
  24488739.228                       -2617.768          19.000  
 16  9 24 14  7 41.0000000  0 22R16G11R17G23G27R 1R 2G28G 8G17R22R24
                                G 1R 7G32R 8R23G14G22G 3G10R15
  24383374.824   130251596.967         276.366          35.000  
  20073740.362   105488279.727        -859.739          45.000  
  24252493.705   129780055.340        3681.256          31.000  
  25226845.222   132568007.487        3155.426          40.000  
  24985803.690   131301213.661       -4137.344          39.000  
  19782201.961   105747283.223        1661.365          52.000  
  23946019.308   127780452.578        3833.789          39.000  
  23384543.754   122886651.985        -923.374          42.000  
  21921066.725   115195988.827       -3270.513          46.000  
  24734052.993   129978340.148        3009.196          40.000  
  23480896.202   125342565.247       -4165.924          47.000  
  20045239.482   107190992.118        2001.004          44.000  
  20361397.988   106999884.192         112.305          47.000  
  23602603.435   126346643.156       -4498.998          42.000  
  23160048.344   121706954.592       -2266.536          45.000  
  19810129.464   106082371.701       -2334.753          49.000  
  19551468.926   104587231.479       -1652.282          51.000  
  22170133.683   116504960.290        -336.946          46.000  
  20526252.045   107866220.108         452.708          48.000  
  21356413.312   112228724.169        1734.410          47.000  
  25865561.792   135924428.085       -3756.532          31.000  
  24489225.670                       -2607.148          17.000  
 16  9 24 14  7 42.0000000  0 22R16G11R17G23G27R 1R 2G28G 8G17R22R24
                                G 1R 7G32R 8R23G14G22G 3G10R15
  24383322.787   130251321.134         274.971          35.000  
  20073903.906   105489139.798        -860.447          45.000  
  24251806.376   129776374.592        3680.018          31.000  
  25226244.795   132564852.049        3155.369          40.000  
  24986591.357   131305351.169       -4137.324          39.000  
  19781891.278   105745622.283        1660.451          52.000  
  23945300.359   127776618.788        3833.844          39.000  
  23384719.653   122887575.465        -923.967          42.000  
  21921689.209   115199259.491       -3271.247          46.000  
  24733480.277   129975331.034        3008.740          40.000  
  23481676.156   125346731.382       -4166.392          46.000  
  20044865.140   107188991.383        2000.278          44.000  
  20361376.978   106999772.034         111.883          47.000  
  23603443.838   126351142.425       -4499.498          42.000  
  23160479.608   121709221.183       -2266.800          45.000  
  19810565.475   106084706.612       -2335.351          49.000  
  19551777.830   104588884.179       -1653.228          51.000  
  22170197.865   116505297.449        -337.735          46.000  
  20526165.980   107865767.567         452.157          48.000  
  21356083.434   112226989.962        1733.774          47.000  
  25866274.982   135928184.911       -3756.656          31.000  
  24489712.252                       -2607.148          15.000  
 16  9 24 14  7 43.0000000  0 22R16G11R17G23G27R 1R 2G28G 8G17R22R24
                                G 1R 7G32R 8R23G14G22G 3G10R15
  24383271.554   130251046.021         274.745          35.000  
  20074067.694   105490000.350        -860.734          45.000  
  24251110.426   129772693.755        3680.685          30.000  
  25225644.264   132561696.540        3155.543          40.000  
  24987379.235   131309488.700       -4137.381          39.000  
  19781580.664   105743962.000        1659.986          52.000  
  23944581.620   127772785.119        3833.661          39.000  
  23384895.202   122888499.457        -924.466          42.000  
  21922312.077   115202530.517       -3271.444          46.000  
  24732907.386   129972322.004        3009.128          39.000  
  23482456.530   125350897.714       -4166.516          47.000  
  20044491.112   107186991.106        2000.105          44.000  
  20361355.898   106999660.198         111.758          47.000  
  23604284.240   126355641.695       -4499.009          42.000  
  23160911.013   121711488.304       -2267.270          45.000  
  19811001.871   106087042.145       -2335.833          49.000  
  19552086.978   104590537.506       -1653.579          51.000  
  22170262.151   116505635.198        -338.130          46.000  
  20526079.951   107865315.417         451.966          48.000  
  21355753.485   112225256.117        1733.657          47.000  
  25866988.452   135931941.657       -3756.686          32.000  
  24490202.184                       -2615.698          15.000  
 16  9 24 14  7 44.0000000  0 22R16G11R17G23G27R 1R 2G28G 8G17R22R24
                                G 1R 7G32R 8R23G14G22G 3G10R15
  24383220.180   130250771.708         274.098          36.000  
  20074231.900   105490861.457        -861.330          45.000  
  24250431.404   129769012.895        3681.067          30.000  
  25225043.453   132558540.931        3155.918          40.000  
  24988166.589   131313626.281       -4137.554          39.000  
  19781269.841   105742302.410        1659.306          52.000  
  23943862.880   127768951.572        3833.643          39.000  
  23385071.170   122889423.998        -924.756          42.000  
  21922934.631   115205801.946       -3271.735          46.000  
  24732334.496   129969313.102        3008.661          39.000  
  23483236.939   125355064.247       -4166.608          47.000  
  20044117.084   107184991.305        1999.689          44.000  
  20361334.923   106999548.698         111.425          47.000  
  23605124.468   126360141.084       -4499.564          42.000  
  23161342.626   121713755.959       -2267.800          45.000  
  19811438.161   106089378.306       -2336.377          49.000  
  19552396.545   104592191.527       -1654.388          51.000  
  22170326.613   116505973.566        -338.615          46.000  
  20525994.061   107864863.703         451.562          48.000  
  21355423.571   112223522.659        1733.470          47.000  
  25867703.910   135935698.341       -3756.070          32.000  
  24490693.513                       -2615.698          13.000  
 16  9 24 14  7 45.0000000  0 22R16G11R17G23G27R 1R 2G28G 8G17R22R24
                                G 1R 7G32R 8R23G14G22G 3G10R15
  24383169.051   130250498.187         272.567          36.000  
  20074395.967   105491723.070        -862.291          45.000  
  24249742.923   129765331.901        3680.384          31.000  
  25224442.991   132555385.284        3155.024          40.000  
  24988954.117   131317763.889       -4138.035          39.000  
  19780959.366   105740643.511        1658.180          52.000  
  23943144.001   127765118.182        3832.825          39.000  
  23385247.103   122890349.052        -925.538          42.000  
  21923557.220   115209073.743       -3272.555          46.000  
  24731762.163   129966304.308        3008.426          39.000  
  23484017.592   125359230.999       -4167.189          47.000  
  20043743.230   107182991.948        1998.784          44.000  
  20361313.948   106999437.528         110.645          47.000  
  23605964.836   126364640.497       -4499.684          42.000  
  23161774.624   121716024.155       -2268.587          45.000  
  19811874.975   106091715.098       -2337.477          49.000  
  19552705.797   104593846.219       -1655.414          51.000  
  22170391.667   116506312.542        -339.731          46.000  
  20525908.031   107864412.403         450.736          48.000  
  21355093.867   112221789.600        1732.576          47.000  
  25868418.322   135939454.995       -3756.646          33.000  
  24491182.049                       -2615.698          12.000  
 16  9 24 14  7 46.0000000  0 22R16G11R17G23G27R 1R 2G28G 8G17R22R24
                                G 1R 7G32R 8R23G14G22G 3G10R15
  24383118.131   130250225.503         272.837          36.000  
  20074560.209   105492585.303        -862.190          45.000  
  24249056.675   129761650.948        3681.529          31.000  
  25223842.459   132552229.643        3155.807          40.000  
  24989741.610   131321901.625       -4137.433          39.000  
  19780649.032   105738985.406        1658.033          52.000  
  23942425.366   127761285.010        3833.398          38.000  
  23385423.350   122891274.756        -925.750          42.000  
  21924179.670   115212346.018       -3272.478          46.000  
  24731189.482   129963295.729        3008.773          39.000  
  23484798.105   125363398.061       -4167.041          47.000  
  20043369.481   107180993.166        1998.797          44.000  
  20361292.903   106999326.785         110.744          48.000  
  23606805.064   126369140.090       -4499.593          42.000  
  23162206.412   121718292.986       -2268.862          45.000  
  19812311.789   106094052.615       -2337.594          49.000  
  19553014.911   104595501.672       -1655.576          51.000  
  22170456.407   116506652.219        -339.813          46.000  
  20525822.106   107863961.614         450.875          47.000  
  21354764.616   112220057.001        1732.955          47.000  
  25869135.561   135943211.709       -3756.744          33.000  
  24491669.573                       -2622.867          16.000  
 16  9 24 14  7 47.0000000  0 22R16G11R17G23G27R 1R 2G28G 8G17R22R24
                                G 1R 7G32R 8R23G14G22G 3G10R15
  24383067.456   130249953.612         271.322          36.000  
  20074724.345   105493448.101        -863.170          45.000  
  24248367.217   129757969.970        3681.117          30.000  
  25223241.752   132549073.952        3155.905          40.000  
  24990529.418   131326039.425       -4137.622          39.000  
  19780338.871   105737328.018        1657.001          52.000  
  23941706.417   127757452.047        3833.008          38.000  
  23385599.737   122892201.020        -926.681          42.000  
  21924802.293   115215618.681       -3272.642          46.000  
  24730616.522   129960287.290        3008.143          39.000  
  23485578.618   125367565.356       -4167.463          47.000  
  20042995.837   107178994.868        1998.194          44.000  
  20361271.858   106999216.406         110.141          47.000  
  23607645.536   126373639.776       -4499.825          42.000  
  23162638.096   121720562.360       -2269.844          45.000  
  19812748.637   106096390.764       -2338.513          49.000  
  19553324.477   104597157.801       -1656.519          51.000  
  22170520.764   116506992.533        -340.749          46.000  
  20525736.286   107863511.277         450.040          47.000  
  21354435.575   112218324.848        1731.782          48.000  
  25869848.507   135946968.360       -3756.606          33.000  
  24492158.459                       -2615.925          17.000  
 16  9 24 14  7 48.0000000  0 22R16G11R17G23G27R 1R 2G28G 8G17R22R24
                                G 1R 7G32R 8R23G14G22G 3G10R15
  24383016.745   130249682.317         271.038          37.000  
  20074888.971   105494311.286        -863.431          45.000  
  24247674.479   129754288.758        3681.014          29.000  
  25222641.639   132545918.082        3155.643          40.000  
  24991316.283   131330177.151       -4137.664          38.000  
  19780028.851   105735671.197        1656.393          52.000  
  23940987.817   127753619.121        3832.556          38.000  
  23385776.054   122893127.688        -927.250          42.000  
  21925425.266   115218891.633       -3273.094          46.000  
  24730044.154   129957278.837        3008.654          39.000  
  23486359.062   125371732.729       -4167.530          47.000  
  20042622.333   107176996.957        1997.761          44.000  
  20361250.987   106999106.237         110.052          47.000  
  23608485.939   126378139.412       -4499.626          42.000  
  23163069.988   121722832.169       -2270.132          45.000  
  19813184.963   106098729.404       -2338.917          49.000  
  19553634.324   104598814.467       -1657.081          51.000  
  22170585.609   116507333.337        -341.269          46.000  
  20525650.780   107863061.246         449.767          47.000  
  21354106.219   112216592.963        1731.583          48.000  
  25870562.989   135950724.796       -3756.264          33.000  
  24492645.459                       -2602.470          18.000  
 16  9 24 14  7 49.0000000  0 22R16G11R17G23G27R 1R 2G28G 8G17R22R24
                                G 1R 7G32R 8R23G14G22G 3G10R15
  24382966.070   130249411.699         270.393          36.000  
  20075053.561   105495174.928        -863.987          45.000  
  24246987.254   129750607.359        3682.134          30.000  
  25222041.247   132542762.065        3156.195          40.000  
  24992103.462   131334314.841       -4137.794          38.000  
  19779718.481   105734014.967        1655.851          52.000  
  23940269.461   127749786.212        3832.550          39.000  
  23385952.545   122894054.785        -927.569          42.000  
  21926048.239   115222164.864       -3273.346          46.000  
  24729472.101   129954270.439        3008.272          39.000  
  23487139.820   125375900.220       -4167.622          47.000  
  20042248.933   107174999.448        1997.154          44.000  
  20361230.222   106998996.331         109.727          48.000  
  23609326.446   126382639.053       -4499.800          42.000  
  23163501.846   121725102.410       -2270.568          45.000  
  19813621.742   106101068.582       -2339.487          49.000  
  19553944.519   104600471.683       -1657.606          51.000  
  22170650.803   116507674.665        -341.805          46.000  
  20525565.100   107862611.547         449.450          47.000  
  21353776.759   112214861.376        1731.299          47.000  
  25871278.029   135954481.092       -3755.447          32.000  
  24493133.856                       -2622.702          19.000  
 16  9 24 14  7 50.0000000  0 22R16G11R17G23G27R 1R 2G28G 8G17R22R24
                                G 1R 7G32R 8R23G14G22G 3G10R15
  24382915.360   130249141.953         268.638          37.000  
  20075218.012   105496039.123        -864.634          45.000  
  24246306.067   129746925.986        3680.823          32.000  
  25221440.715   132539606.044        3155.741          40.000  
  24992890.712   131338452.601       -4138.121          38.000  
  19779408.600   105732359.468        1654.933          52.000  
  23939551.036   127745953.468        3832.446          39.000  
  23386128.723   122894982.478        -928.163          42.000  
  21926671.421   115225438.528       -3274.260          46.000  
  24728899.176   129951262.185        3007.715          39.000  
  23487920.542   125380067.990       -4168.099          47.000  
  20041875.359   107173002.447        1996.456          44.000  
  20361209.561   106998886.798         109.058          47.000  
  23610167.302   126387138.759       -4499.781          42.000  
  23163934.123   121727373.232       -2271.379          45.000  
  19814058.835   106103408.439       -2340.483          49.000  
  19554254.679   104602129.620       -1658.501          51.000  
  22170716.171   116508016.646        -342.574          46.000  
  20525479.559   107862162.309         448.751          47.000  
  21353447.578   112213130.230        1730.548          48.000  
  25871992.720   135958237.385       -3756.219          31.000  
  24493624.765                       -2624.142          20.000  
 16  9 24 14  7 51.0000000  0 22R16G11R17G23G27R 1R 2G28G 8G17R22R24
                                G 1R 7G32R 8R23G14G22G 3G10R15
  24382865.068   130248873.064         268.224          37.000  
  20075382.533   105496903.957        -865.020          45.000  
  24245620.937   129743244.642        3681.223          33.000  
  25220840.184   132536450.072        3155.534          40.000  
  24993677.786   131342590.497       -4137.972          38.000  
  19779098.684   105730704.776        1654.350          52.000  
  23938832.680   127742120.927        3832.428          39.000  
  23386305.145   122895910.806        -928.682          42.000  
  21927294.638   115228712.645       -3274.473          46.000  
  24728326.704   129948254.161        3007.598          39.000  
  23488701.370   125384236.081       -4168.281          47.000  
  20041501.889   107171006.007        1996.291          44.000  
  20361189.074   106998777.719         108.792          47.000  
  23611007.635   126391638.617       -4499.780          41.000  
  23164366.260   121729644.723       -2271.584          44.000  
  19814495.928   106105749.058       -2340.965          49.000  
  19554564.979   104603788.338       -1659.055          51.000  
  22170781.156   116508359.337        -343.059          46.000  
  20525394.297   107861713.597         448.517          47.000  
  21353118.013   112211399.556        1730.417          48.000  
  25872707.551   135961993.757       -3756.791          30.000  
  24494117.804                       -2610.389          22.000  
 16  9 24 14  7 52.0000000  0 22R16G11R17G23G27R 1R 2G28G 8G17R22R24
                                G 1R 7G32R 8R23G14G22G 3G10R15
  24382815.195   130248605.012         267.859          38.000  
  20075547.228   105497769.433        -865.708          45.000  
  24244933.119   129739563.371        3680.772          32.000  
  25220239.966   132533294.110        3155.821          40.000  
  24994465.070   131346728.552       -4138.046          37.000  
  19778788.978   105729050.894        1653.372          52.000  
  23938114.359   127738288.665        3831.903          39.000  
  23386482.090   122896839.788        -929.521          42.000  
  21927917.995   115231987.285       -3274.995          46.000  
  24727754.232   129945246.359        3007.487          39.000  
  23489482.058   125388404.506       -4168.673          47.000  
  20041128.734   107169010.166        1995.430          44.000  
  20361168.134   106998669.078         108.369          47.000  
  23611848.875   126396138.630       -4500.148          43.000  
  23164798.258   121731916.839       -2272.685          44.000  
  19814933.335   106108090.435       -2341.788          49.000  
  19554875.697   104605447.835       -1660.006          51.000  
  22170846.245   116508702.759        -343.925          46.000  
  20525308.930   107861265.425         447.849          47.000  
  21352788.937   112209669.411        1729.946          48.000  
  25873422.661   135965750.138       -3756.730          31.000  
  24494609.446                       -2620.165          22.000  
 16  9 24 14  7 53.0000000  0 22R16G11R17G23G27R 1R 2G28G 8G17R22R24
                                G 1R 7G32R 8R23G14G22G 3G10R15
  24382764.799   130248337.656         267.297          37.000  
  20075712.132   105498635.339        -866.149          45.000  
  24244241.951   129735881.841        3680.835          31.000  
  25219639.399   132530137.992        3156.038          40.000  
  24995252.599   131350866.545       -4138.322          38.000  
  19778479.306   105727397.611        1652.865          52.000  
  23937396.039   127734456.444        3831.934          39.000  
  23386658.860   122897769.189        -929.773          42.000  
  21928541.142   115235262.182       -3275.237          46.000  
  24727181.656   129942238.571        3007.538          39.000  
  23490263.409   125392573.049       -4168.583          47.000  
  20040755.613   107167014.704        1994.988          45.000  
  20361147.612   106998560.680         108.121          48.000  
  23612689.312   126400638.547       -4500.000          42.000  
  23165230.779   121734189.406       -2273.119          44.000  
  19815370.742   106110432.339       -2342.256          49.000  
  19555186.067   104607107.888       -1660.458          51.000  
  22170911.823   116509046.689        -344.334          46.000  
  20525223.634   107860817.572         447.527          47.000  
  21352459.721   112207939.550        1729.646          48.000  
  25874137.841   135969506.341       -3756.390          32.000  
  24495099.065                       -2620.489          24.000  
