     2.10           OBSERVATION DATA    M (MIXED)           RINEX VERSION / TYPE
RTKCONV-QT 2.4.3 b18                    20160924 145159 UTC PGM / RUN BY / DATE 
log: /home/hylkema/Programs/lawnmower/Test/GPS/test2/PC/Ro  COMMENT             
format: u-blox                                              COMMENT             
                                                            MARKER NAME         
                                                            MARKER NUMBER       
                                                            OBSERVER / AGENCY   
                                                            REC # / TYPE / VERS 
                                                            ANT # / TYPE        
  4658485.8329    96926.4039  4341507.7867                  APPROX POSITION XYZ 
        0.0000        0.0000        0.0000                  ANTENNA: DELTA H/E/N
     1     1                                                WAVELENGTH FACT L1/2
     4    C1    L1    D1    S1                              # / TYPES OF OBSERV 
  2016     9    24    14     4   27.0010000     GPS         TIME OF FIRST OBS   
  2016     9    24    14    44   24.0010000     GPS         TIME OF LAST OBS    
                                                            END OF HEADER       
 16  9 24 14  4 27.0010000  0 18G17G27G 1G 8R15G11G14G 3G32G22R17R22
                                R 1R24R23R 7R 8R 2
  25107284.672   131939660.432        3054.302          28.000  
  25094984.292   131875189.174       -4103.819          41.000  
  20628518.104   108403595.068         202.057          48.000  
  22063478.999   115944362.842       -3170.643          40.000  
  24658096.593                       -2482.685          23.000  
  20305650.720   106706914.306        -733.298          45.000  
  22421652.187   117826579.208        -193.824          47.000  
  21683614.842   113948169.389        1834.385          41.000  
  23340079.902   122652967.541       -2136.252          42.000  
  20806248.083   109337574.056         559.294          50.000  
  24647438.341                        3693.973          23.000  
  23592029.903   125935899.268       -4098.134          47.000  
  20106691.168   107481819.277        1820.017          39.000  
  20381244.681   108987707.940        2115.790          43.000  
  19755640.941   105679403.573       -1498.983          50.000  
  23701552.731   126876209.627       -4460.171          36.000  
  19989562.480   107043230.344       -2184.979          49.000  
  24347667.794   129923847.6612       3883.896          27.000  
 16  9 24 14  4 28.0010000  0 18G17G27G 1G 8R15G11G14G 3G32G22R17R22
                                R 1R24R23R 7R 8R 2
  25106694.017   131936605.721        3054.208          26.000  
  25095765.050   131879293.033       -4103.940          41.000  
  20628479.434   108403393.282         201.678          48.000  
  22064082.637   115947533.701       -3171.100          40.000  
  24658561.222                       -2470.808          23.000  
  20305790.042   106707647.900        -733.781          45.000  
  22421689.286   117826773.383        -194.390          47.000  
  21683265.453   113946335.083        1834.023          41.000  
  23340486.596   122655104.039       -2136.794          42.000  
  20806141.636   109337014.981         558.910          50.000  
  24646749.720                        3689.272          24.000  
  23592797.468   125939997.537       -4098.290          47.000  
  20106350.435   107479999.754        1819.269          40.000  
  20380849.573   108985592.434        2115.346          43.000  
  19755921.052   105680902.875       -1499.535          50.000  
  23702385.700   126880670.175       -4460.524          37.000  
  19989970.675   107045415.781       -2185.684          49.000  
  24346939.212                        3883.583          26.000  
 16  9 24 14  4 29.0010000  0 18G17G27G 1G 8R15G11G14G 3G32G22R17R22
                                R 1R24R23R 7R 8R 2
  25106120.114   131933551.069        3054.213          27.000  
  25096546.331   131883396.941       -4104.225          41.000  
  20628440.939   108403191.800         201.157          48.000  
  22064686.310   115950704.934       -3171.832          40.000  
  24659026.445                       -2481.186          23.000  
  20305929.958   106708382.001        -734.531          45.000  
  22421726.071   117826968.140        -195.239          47.000  
  21682916.205   113944501.148        1833.459          41.000  
  23340893.117   122657241.095       -2137.734          42.000  
  20806035.679   109336456.300         558.318          50.000  
  24646058.622                        3690.804          23.000  
  23593565.975   125944095.988       -4098.768          48.000  
  20106010.121   107478180.853        1818.375          40.000  
  20380454.151   108983477.346        2114.599          43.000  
  19756201.477   105682402.810       -1500.448          50.000  
  23703219.018   126885130.799       -4461.040          37.000  
  19990378.731   107047601.859       -2186.597          49.000  
  24346212.411   129916080.0441       3882.550          26.000  
 16  9 24 14  4 30.0010000  0 18G17G27G 1G 8R15G11G14G 3G32G22R17R22
                                R 1R24R23R 7R 8R 2
  25105543.873   131930496.588        3054.068          28.000  
  25097326.949   131887500.925       -4104.445          40.000  
  20628402.583   108402990.690         200.825          48.000  
  22065290.018   115953876.590       -3172.263          40.000  
  24659490.725                       -2479.792          23.000  
  20306069.630   106709116.657        -735.062          46.000  
  22421763.135   117827163.526        -195.876          47.000  
  21682567.131   113942667.621        1833.435          41.000  
  23341300.265   122659378.740       -2138.358          42.000  
  20805929.232   109335898.092         557.791          50.000  
  24645370.630                        3691.425          23.000  
  23594333.750   125948194.722       -4099.061          47.000  
  20105670.051   107476362.713        1817.595          40.000  
  20380058.834   108981362.751        2114.181          44.000  
  19756482.251   105683903.447       -1501.151          50.000  
  23704052.440   126889591.558       -4460.945          37.000  
  19990787.276   107049788.635       -2187.213          49.000  
  24345483.864                        3890.270          25.000  
 16  9 24 14  4 31.0010000  0 18G17G27G 1G 8R15G11G14G 3G32G22R17R22
                                R 1R24R23R 7R 8R 2
  25104959.186   131927442.181        3054.294          27.000  
  25098107.428   131891605.005       -4104.046          40.000  
  20628364.332   108402789.988         200.387          48.000  
  22065893.586   115957048.702       -3172.476          40.000  
  24659955.878                       -2483.420          23.000  
  20306209.476   106709851.908        -735.539          45.000  
  22421799.921   117827359.595        -196.403          47.000  
  21682218.091   113940834.556        1833.037          41.000  
  23341707.204   122661516.970       -2138.704          43.000  
  20805823.100   109335340.358         557.433          50.000  
  24644681.695                        3691.049          25.000  
  23595101.839   125952293.757       -4099.259          47.000  
  20105329.737   107474545.284        1816.833          40.000  
  20379663.551   108979248.719        2113.445          44.000  
  19756762.815   105685404.793       -1501.753          50.000  
  23704885.583   126894052.453       -4461.239          37.000  
  19991195.646   107051976.124       -2187.833          49.000  
  24344754.689                        3893.151          25.000  
 16  9 24 14  4 32.0010000  0 18G17G27G 1G 8R15G11G14G 3G32G22R17R22
                                R 1R24R23R 7R 8R 2
  25104381.723   131924387.846        3054.315          28.000  
  25098888.150   131895709.108       -4103.921          40.000  
  20628326.081   108402589.549         200.334          48.000  
  22066497.224   115960221.146       -3172.581          40.000  
  24660421.974                       -2482.426          25.000  
  20306349.322   106710587.612        -735.935          46.000  
  22421837.159   117827556.196        -196.831          46.000  
  21681869.262   113939001.840        1832.587          41.000  
  23342114.039   122663655.723       -2138.910          42.000  
  20805717.177   109334782.980         557.207          50.000  
  24643992.027                        3689.513          26.000  
  23595869.718   125956392.944       -4099.188          47.000  
  20104989.633   107472728.466        1816.629          40.000  
  20379268.339   108977135.052        2113.466          44.000  
  19757043.310   105686906.744       -1502.220          50.000  
  23705718.726   126898513.370       -4460.521          36.000  
  19991604.435   107054164.181       -2188.267          49.000  
  24344026.282                        3885.096          24.000  
 16  9 24 14  4 33.0010000  0 18G17G27G 1G 8R15G11G14G 3G32G22R17R22
                                R 1R24R23R 7R 8R 2
  25103803.144   131921333.585        3054.259          28.000  
  25099669.083   131899813.172       -4104.294          40.000  
  20628288.145   108402389.359         199.925          48.000  
  22067100.687   115963393.863       -3172.847          40.000  
  24660887.406                       -2481.963          26.000  
  20306489.412   106711323.754        -736.504          45.000  
  22421874.503   117827753.329        -197.541          46.000  
  21681520.781   113937169.404        1832.188          41.000  
  23342521.431   122665794.914       -2139.663          43.000  
  20805611.150   109334225.938         556.780          50.000  
  24643304.210                        3687.376          24.000  
  23596637.528   125960492.262       -4099.601          46.000  
  20104650.016   107470912.249        1815.660          40.000  
  20378873.091   108975021.748        2112.967          44.000  
  19757324.119   105688409.275       -1503.006          50.000  
  23706551.625   126902974.342       -4461.111          36.000  
  19992013.363   107056352.777       -2188.881          49.000  
  24343298.643                        3882.823          24.000  
 16  9 24 14  4 34.0010000  0 18G17G27G 1G 8R15G11G14G 3G32G22R17R22
                                R 1R24R23R 7R 8R 2
  25103225.227   131918279.431        3053.763          30.000  
  25100449.666   131903917.311       -4104.646          40.000  
  20628250.208   108402189.547         199.417          48.000  
  22067704.046   115966567.061       -3173.889          40.000  
  24661352.664                       -2482.326          25.000  
  20306629.852   106712060.478        -737.137          46.000  
  22421912.160   117827951.138        -198.453          47.000  
  21681172.544   113935337.408        1831.443          41.000  
  23342928.999   122667934.698       -2140.239          43.000  
  20805505.157   109333669.374         556.057          50.000  
  24642614.019                        3690.214          25.000  
  23597405.861   125964591.848       -4100.003          47.000  
  20104310.645   107469096.748        1814.813          40.000  
  20378478.193   108972908.922        2112.358          44.000  
  19757604.998   105689912.526       -1503.733          50.000  
  23707384.734   126907435.410       -4461.128          35.000  
  19992422.431   107058542.069       -2189.814          49.000  
  24342571.667                        3872.579          23.000  
 16  9 24 14  4 35.0010000  0 18G17G27G 1G 8R15G11G14G 3G32G22R17R22
                                R 1R24R23R 7R 8R 2
  25102655.268   131915225.470        3053.599          32.000  
  25101230.074   131908021.624       -4104.828          39.000  
  20628212.480   108401990.164         198.810          48.000  
  22068308.207   115969740.737       -3174.074          40.000  
  24661816.770                       -2483.968          26.000  
  20306770.151   106712797.808        -737.720          46.000  
  22421949.992   117828149.630        -199.161          46.000  
  21680824.308   113933505.881        1831.047          42.000  
  23343336.531   122670075.126       -2140.614          43.000  
  20805399.513   109333113.320         555.558          50.000  
  24641923.234                        3689.768          25.000  
  23598174.124   125968691.763       -4100.358          47.000  
  20103970.540   107467282.064        1813.975          39.000  
  20378083.155   108970796.635        2111.790          44.000  
  19757886.156   105691416.541       -1504.567          50.000  
  23708217.702   126911896.579       -4461.101          34.000  
  19992831.429   107060732.142       -2190.663          49.000  
  24341842.457                        3879.925          22.000  
 16  9 24 14  4 36.0010000  0 18G17G27G 1G 8R15G11G14G 3G32G22R17R22
                                R 1R24R23R 7R 8R 2
  25102072.117   131912171.501        3053.560          32.000  
  25102011.146   131912125.886       -4104.752          40.000  
  20628174.474   108401791.002         198.942          48.000  
  22068911.915   115972914.720       -3174.224          40.000  
  24662281.574                       -2482.997          25.000  
  20306910.521   106713535.564        -737.992          46.000  
  22421987.615   117828348.623        -199.259          46.000  
  21680475.792   113931674.631        1830.878          41.000  
  23343743.819   122672216.021       -2141.158          44.000  
  20805293.765   109332557.575         555.486          50.000  
  24641230.775   131860246.0982       3690.329          26.000  
  23598942.736   125972791.766       -4100.203          48.000  
  20103630.679   107465467.938        1813.772          39.000  
  20377688.221   108968684.682        2111.808          43.000  
  19758167.697   105692921.098       -1504.847          50.000  
  23709050.915   126916357.761       -4461.532          34.000  
  19993240.707   107062922.752       -2190.983          49.000  
  24341110.491                        3883.097          25.000  
 16  9 24 14  4 37.0010000  0 18G17G27G 1G 8R15G11G14G 3G32G22R17R22
                                R 1R24R23R 7R 8R 2
  25101488.931   131909117.694        3054.278          32.000  
  25102792.113   131916230.197       -4104.394          40.000  
  20628136.746   108401592.210         198.668          48.000  
  22069515.867   115976089.103       -3174.749          40.000  
  24662746.308                       -2483.556          24.000  
  20307051.519   106714273.860        -738.441          46.000  
  22422025.412   117828548.257        -199.929          46.000  
  21680127.032   113929843.817        1830.798          41.000  
  23344151.666   122674357.485       -2141.829          44.000  
  20805187.807   109332002.285         555.182          50.000  
  24640540.165   131856555.5722       3690.211          26.000  
  23599711.419   125976892.036       -4100.372          47.000  
  20103291.203   107463654.525        1813.269          40.000  
  20377293.114   108966573.225        2111.252          43.000  
  19758449.030   105694426.367       -1505.571          50.000  
  23709884.058   126920819.120       -4461.476          37.000  
  19993650.159   107065114.041       -2191.478          49.000  
  24340383.619                        3880.639          23.000  
 16  9 24 14  4 38.0010000  0 18G17G27G 1G 8R15G11G14G 3G32G22R17R22
                                R 1R24R23R 7R 8R 2
  25100911.922   131906064.056        3053.190          31.000  
  25103573.359   131920334.634       -4104.287          40.000  
  20628099.089   108401393.787         198.492          48.000  
  22070119.749   115979263.951       -3175.040          40.000  
  24663212.717                       -2489.260          22.000  
  20307191.958   106715012.747        -738.914          46.000  
  22422063.349   117828748.550        -200.432          46.000  
  21679778.307   113928013.427        1830.542          41.000  
  23344559.756   122676499.514       -2142.173          44.000  
  20805082.234   109331447.462         554.824          50.000  
  24639848.648   131852864.9922       3689.959          25.000  
  23600479.856   125980992.579       -4100.565          47.000  
  20102951.587   107461841.858        1812.437          40.000  
  20376898.285   108964462.278        2110.824          43.000  
  19758730.397   105695932.328       -1506.146          50.000  
  23710717.586   126925280.524       -4461.141          37.000  
  19994059.157   107067305.998       -2192.121          49.000  
  24339656.120                        3883.166          25.000  
 16  9 24 14  4 39.0010000  0 18G17G27G 1G 8R15G11G14G 3G32G22R17R22
                                R 1R24R23R 7R 8R 2
  25100327.409   131903010.443        3054.277          30.000  
  25104354.675   131924439.148       -4104.256          40.000  
  20628061.187   108401195.718         198.113          48.000  
  22070724.539   115982439.207       -3175.162          40.000  
  24663676.963                       -2483.130          20.000  
  20307332.607   106715752.169        -739.524          46.000  
  22422101.390   117828949.487        -201.093          45.000  
  21679429.791   113926183.436        1829.796          41.000  
  23344967.254   122678642.151       -2142.310          43.000  
  20804977.113   109330893.080         554.412          50.000  
  24639157.200                        3690.808          24.000  
  23601248.085   125985093.353       -4100.590          47.000  
  20102612.110   107460029.905        1812.013          39.000  
  20376503.701   108962351.825        2110.263          43.000  
  19759012.044   105697438.970       -1506.727          50.000  
  23711550.729   126929741.998       -4461.479          36.000  
  19994468.644   107069498.615       -2192.797          49.000  
  24338929.004   129877186.0893       3881.592          26.000  
 16  9 24 14  4 40.0010000  0 18G17G27G 1G 8R15G11G14G 3G32G22R17R22
                                R 1R24R23R 7R 8R 2
  25099739.896   131899956.815        3053.647          28.000  
  25105136.236   131928543.545       -4104.514          40.000  
  20628023.460   108400997.817         197.875          48.000  
  22071328.561   115985614.681       -3175.596          40.000  
  24664141.941                       -2482.326          20.000  
  20307473.430   106716491.951        -740.026          46.000  
  22422139.781   117829150.855        -201.666          46.000  
  21679081.589   113924353.670        1829.724          40.000  
  23345374.577   122680785.154       -2142.936          43.000  
  20804871.679   109330338.953         553.985          50.000  
  24638466.835                        3705.531          22.000  
  23602016.278   125989194.204       -4100.941          48.000  
  20102272.913   107458218.443        1811.347          39.000  
  20376109.012   108960241.655        2110.052          43.000  
  19759293.655   105698946.076       -1507.284          50.000  
  23712384.151   126934203.407       -4461.599          35.000  
  19994878.445   107071691.732       -2193.486          49.000  
  24338201.470                        3883.105          25.000  
 16  9 24 14  4 41.0010000  0 19R16G17G27G 1G 8R15G11G14G 3G32G22R17
                                R22R 1R24R23R 7R 8R 2
  24656689.313                         438.243          24.000  
  25099165.434   131896903.191        3053.497          29.000  
  25105917.517   131932647.929       -4104.491          40.000  
  20627985.942   108400800.198         197.183          48.000  
  22071932.722   115988790.531       -3176.598          40.000  
  24664605.908                       -2478.903          19.000  
  20307614.358   106717232.197        -740.720          46.000  
  22422177.892   117829352.775        -202.461          46.000  
  21678733.004   113922524.243        1829.083          40.000  
  23345782.319   122682928.654       -2143.870          43.000  
  20804766.315   109329785.197         553.236          50.000  
  24637775.702                        3684.435          23.000  
  23602784.751   125993295.245       -4101.355          48.000  
  20101933.785   107456407.617        1809.986          39.000  
  20375714.497   108958131.909        2109.333          43.000  
  19759575.825   105700453.797       -1508.247          50.000  
  23713217.643   126938664.810       -4461.618          34.000  
  19995287.896   107073885.462       -2194.336          49.000  
  24337476.448                        3882.545          25.000  
 16  9 24 14  4 42.0010000  0 19R16G17G27G 1G 8R15G11G14G 3G32G22R17
                                R22R 1R24R23R 7R 8R 2
  24656610.159                         438.290          25.000  
  25098581.550   131893849.621        3053.630          29.000  
  25106698.938   131936752.300       -4104.256          41.000  
  20627948.145   108400602.845         197.536          48.000  
  22072537.023   115991966.676       -3176.203          40.000  
  24665071.654                       -2487.635          20.000  
  20307755.495   106717972.901        -740.633          46.000  
  22422216.318   117829555.247        -202.468          46.000  
  21678384.942   113920695.138        1828.901          40.000  
  23346189.851   122685072.672       -2144.300          42.000  
  20804660.811   109329231.799         553.346          50.000  
  24637086.139                        3687.291          23.000  
  23603553.154   125997396.441       -4101.144          48.000  
  20101594.937   107454597.367        1810.200          39.000  
  20375320.157   108956022.537        2109.225          43.000  
  19759858.065   105701962.127       -1508.463          50.000  
  23714050.752   126943126.244       -4461.648          34.000  
  19995697.348   107076079.776       -2194.438          49.000  
  24336751.007   129865566.1193       3881.879          25.000  
 16  9 24 14  4 43.0010000  0 19G17G27G 1G 8R15G11G14G 3G32G22R17R22
                                R 1R24R23R 7R 8R 2R16
  25097998.887   131890796.113        3053.709          28.000  
  25107480.323   131940856.676       -4104.215          41.000  
  20627910.731   108400405.793         196.890          48.000  
  22073141.185   115995143.150       -3176.476          40.000  
  24665538.761                       -2484.308          20.000  
  20307896.633   106718714.087        -741.437          46.000  
  22422254.987   117829758.291        -203.359          46.000  
  21678036.147   113918866.360        1828.344          40.000  
  23346597.767   122687217.150       -2144.682          42.000  
  20804555.516   109328678.770         552.805          50.000  
  24636396.541                        3692.633          22.000  
  23604321.417   126001497.813       -4101.486          48.000  
  20101256.333   107452787.795        1809.099          40.000  
  20374925.887   108953913.556        2108.829          43.000  
  19760140.130   105703471.071       -1509.271          50.000  
  23714884.349   126947587.750       -4461.271          34.000  
  19996106.940   107078274.709       -2195.164          49.000  
  24336024.939                        3875.921          25.000  
  24656529.295                         437.344          25.000  
 16  9 24 14  4 44.0010000  0 19G17G27G 1G 8R15G11G14G 3G32G22R17R22
                                R 1R24R23R 7R 8R 2R16
  25097418.668   131887742.865        3053.626          28.000  
  25108261.849   131944961.215       -4104.241          41.000  
  20627873.527   108400209.149         196.785          48.000  
  22073745.695   115998320.145       -3176.997          40.000  
  24666004.927                       -2490.733          21.000  
  20308038.049   106719455.882        -741.889          46.000  
  22422293.657   117829962.024        -203.874          46.000  
  21677688.015   113917038.079        1828.059          40.000  
  23347005.788   122689362.290       -2145.366          43.000  
  20804450.536   109328126.253         552.527          50.000  
  24635708.200                        3690.459          21.000  
  23605089.820   126005599.503       -4101.486          48.000  
  20100917.834   107450978.975        1808.610          40.000  
  20374531.372   108951805.121        2108.297          43.000  
  19760422.440   105704980.759       -1509.827          50.000  
  23715717.876   126952049.428       -4461.121          34.000  
  19996516.671   107080470.374       -2195.823          49.000  
  24335298.137                        3882.442          26.000  
  24656446.895                         436.949          26.000  
 16  9 24 14  4 45.0010000  0 19G17G27G 1G 8R15G11G14G 3G32G22R17R22
                                R 1R24R23R 7R 8R 2R16
  25096843.997   131884689.641        3052.969          29.000  
  25109043.270   131949065.698       -4104.515          41.000  
  20627836.079   108400012.780         196.061          48.000  
  22074350.450   116001497.452       -3177.754          40.000  
  24666473.988                       -2497.402          21.000  
  20308179.570   106720198.123        -742.587          46.000  
  22422332.466   117830166.296        -204.673          46.000  
  21677339.604   113915210.079        1827.706          40.000  
  23347414.577   122691507.887       -2146.084          43.000  
  20804345.416   109327574.094         551.830          50.000  
  24635017.485                        3692.989          20.000  
  23605858.328   126009701.328       -4101.964          47.000  
  20100579.404   107449170.756        1807.828          40.000  
  20374137.067   108949697.055        2107.598          43.000  
  19760704.924   105706491.041       -1510.814          50.000  
  23716551.228   126956511.082       -4462.325          34.000  
  19996926.437   107082666.606       -2196.550          49.000  
  24334572.732                        3881.747          26.000  
  24656365.716                         436.320          25.000  
 16  9 24 14  4 46.0010000  0 20G17G10G27G 1G 8R15G11G14G 3G32G22R17
                                R22R 1R24R23R 7R 8R 2R16
  25096262.277   131881636.496        3052.913          30.000  
  26001934.545                       -3736.377          28.000  
  25109824.725   131953170.363       -4104.558          41.000  
  20627798.596   108399816.814         195.898          48.000  
  22074955.484   116004675.234       -3178.263          40.000  
  24666940.188                       -2495.659          20.000  
  20308320.603   106720940.983        -743.118          46.000  
  22422371.345   117830371.263        -205.139          46.000  
  21676991.263   113913382.575        1827.504          39.000  
  23347823.192   122693654.133       -2146.446          43.000  
  20804240.749   109327022.446         551.470          50.000  
  24634326.840                        3688.516          18.000  
  23606626.870   126013803.476       -4102.178          48.000  
  20100241.568   107447363.340        1807.318          41.000  
  20373742.762   108947589.530        2107.331          43.000  
  19760987.583   105708002.087       -1511.386          50.000  
  23717384.406   126960972.833       -4461.750          35.000  
  19997336.273   107084863.585       -2197.134          49.000  
  24333847.466                        3881.190          26.000  
  24656282.758                         433.708          25.000  
 16  9 24 14  4 47.0010000  0 19G17G27G 1G 8R15G11G14G 3G32G22R17R22
                                R 1R24R23R 7R 8R 2R16
  25095682.476   131878583.692        3052.296          30.000  
  25110606.076   131957275.198       -4104.552          41.000  
  20627761.218   108399621.333         195.318          48.000  
  22075560.204   116007853.568       -3178.679          40.000  
  24667405.027                       -2494.591          21.000  
  20308462.089   106721684.506        -743.845          46.000  
  22422410.608   117830576.976        -205.883          46.000  
  21676642.886   113911555.602        1827.242          39.000  
  23348231.771   122695801.046       -2147.126          43.000  
  20804135.664   109326471.358         550.952          50.000  
  24633636.998                        3701.540          18.000  
  23607395.238   126017906.002       -4102.494          48.000  
  20099904.290   107445556.787        1806.163          41.000  
  20373348.597   108945482.607        2106.761          43.000  
  19761270.381   105709513.926       -1512.047          50.000  
  23718218.073   126965434.832       -4461.903          35.000  
  19997747.086   107087061.350       -2198.009          49.000  
  24333119.757   129846191.0212       3881.888          27.000  
  24656203.464                         431.774          25.000  
 16  9 24 14  4 48.0010000  0 20G10G17G27G 1G 8R15G11G14G 3G32G22R17
                                R22R 1R24R23R 7R 8R 2R16
  26003361.031   136648556.7322      -3742.978          28.000  
  25095098.801   131875530.691        3053.410          29.000  
  25111387.113   131961379.876       -4104.788          41.000  
  20627723.909   108399425.963         195.023          48.000  
  22076164.993   116011032.060       -3178.794          40.000  
  24667869.866                       -2488.825          21.000  
  20308603.715   106722428.342        -744.305          46.000  
  22422449.732   117830783.101        -206.689          46.000  
  21676294.789   113909728.809        1826.443          39.000  
  23348640.734   122697948.333       -2147.778          43.000  
  20804030.649   109325920.489         550.413          50.000  
  24632948.692                        3691.525          23.000  
  23608163.711   126022008.540       -4103.003          48.000  
  20099566.838   107443750.660        1805.733          41.000  
  20372954.536   108943375.922        2106.263          43.000  
  19761553.144   105711026.225       -1512.813          50.000  
  23719051.530   126969896.754       -4461.979          34.000  
  19998157.445   107089259.549       -2198.654          49.000  
  24332396.061   129842309.5512       3881.605          28.000  
  24656120.645                         434.384          25.000  
 16  9 24 14  4 49.0010000  0 21G10G17G28G27G 1G 8R15G11G14G 3G32G22
                                R17R22R 1R24R23R 7R 8R 2R16
  26004076.385   136652299.5612      -3742.530          28.000  
  25094516.103   131872477.768        3052.939          29.000  
  23617513.829                        -807.959          30.000  
  25112168.010   131965484.613       -4104.379          41.000  
  20627687.019   108399230.925         195.188          48.000  
  22076770.481   116014210.941       -3178.811          40.000  
  24668335.229                       -2482.265          20.000  
  20308745.760   106723172.684        -744.397          46.000  
  22422488.855   117830989.809        -206.750          46.000  
  21675946.553   113907902.409        1826.190          39.000  
  23349049.453   122700096.147       -2147.652          43.000  
  20803925.982   109325370.021         550.508          50.000  
  24632258.641                        3693.450          20.000  
  23608932.044   126026111.307       -4102.604          48.000  
  20099229.420   107441945.244        1805.234          40.000  
  20372560.719   108941269.665        2106.322          43.000  
  19761836.047   105712539.158       -1512.953          50.000  
  23719884.883   126974358.706       -4461.548          35.000  
  19998567.839   107091458.397       -2198.872          49.000  
  24331673.727                        3881.622          27.000  
  24656042.748                         432.804          26.000  
 16  9 24 14  4 50.0010000  0 21G10G17G28G27G 1G 8R15G11G14G 3G32G22
                                R17R22R 1R24R23R 7R 8R 2R16
  26004787.586   136656042.1282      -3742.282          28.000  
  25093934.034   131869424.922        3052.923          29.000  
  23617676.639   124111728.4222       -805.628          30.000  
  25112949.117   131969589.293       -4105.296          41.000  
  20627649.990   108399036.101         194.340          48.000  
  22077375.550   116017390.097       -3179.658          40.000  
  24668800.242                       -2489.406          18.000  
  20308887.630   106723917.441        -745.367          46.000  
  22422528.572   117831197.027        -208.004          46.000  
  21675598.875   113906076.236        1825.856          39.000  
  23349458.417   122702244.384       -2148.727          43.000  
  20803821.700   109324819.859         549.706          50.000  
  24631568.450                        3694.765          23.000  
  23609700.691   126030214.181       -4103.404          48.000  
  20098891.863   107440140.413        1804.204          41.000  
  20372166.798   108939163.733        2105.410          43.000  
  19762119.195   105714052.637       -1514.223          50.000  
  23720718.410   126978820.737       -4462.886          35.000  
  19998978.617   107093657.768       -2200.101          49.000  
  24330950.520                        3881.699          27.000  
  24655963.803                         432.097          26.000  
 16  9 24 14  4 51.0010000  0 21G10G17G28G27G 1G 8R15G11G14G 3G32G22
                                R17R22R 1R24R23R 7R 8R 2R16
  26005500.218   136659784.8732      -3742.358          28.000  
  25093353.430   131866372.182        3052.781          31.000  
  23617833.552   124112534.8452       -807.332          31.000  
  25113730.468   131973694.024       -4104.515          41.000  
  20627612.961   108398841.651         194.631          48.000  
  22077980.444   116020569.708       -3179.587          40.000  
  24669266.617                       -2487.775          19.000  
  20309029.536   106724662.765        -745.293          46.000  
  22422568.149   117831404.880        -207.842          46.000  
  21675251.197   113904250.523        1825.836          39.000  
  23349867.380   122704393.222       -2148.850          43.000  
  20803717.173   109324270.168         549.848          50.000  
  24630878.503                        3693.896          21.000  
  23610469.757   126034317.312       -4102.935          48.000  
  20098554.795   107438336.275        1804.322          40.000  
  20371773.121   108937058.304        2105.391          43.000  
  19762402.307   105715566.822       -1514.144          50.000  
  23721551.623   126983282.804       -4461.854          34.000  
  19999389.570   107095857.820       -2200.156          49.000  
  24330223.370                        3881.095          25.000  
  24655884.090   131707295.9142        432.364          27.000  
 16  9 24 14  4 52.0010000  0 21G10G17G28G27G 1G 8R15G11G14G 3G32G22
                                R17R22R 1R24R23R 7R 8R 2R16
  26006213.722   136663527.3332      -3743.106          28.000  
  25092779.946   131863319.397        3052.119          32.000  
  23617979.959   124113341.5822       -806.844          32.000  
  25114511.854   131977798.730       -4104.714          42.000  
  20627576.246   108398647.434         193.722          48.000  
  22078585.548   116023749.581       -3180.349          40.000  
  24669730.897                       -2490.236          20.000  
  20309171.301   106725408.508        -746.235          46.000  
  22422608.110   117831613.249        -209.033          46.000  
  21674903.484   113902425.088        1825.129          39.000  
  23350276.343   122706542.504       -2149.777          43.000  
  20803612.751   109323720.793         548.913          50.000  
  24630187.335                        3692.859          20.000  
  23611237.951   126038420.532       -4103.627          47.000  
  20098217.657   107436532.716        1803.008          41.000  
  20371379.200   108934953.226        2104.707          43.000  
  19762685.489   105717081.558       -1515.376          50.000  
  23722385.290   126987744.826       -4462.360          36.000  
  19999800.418   107098058.403       -2201.088          49.000  
  24329496.393                        3880.665          26.000  
  24655803.610   131706865.0462        430.117          26.000  
 16  9 24 14  4 53.0010000  0 21G10G17G28G27G 1G 8R15G11G14G 3G32G22
                                R17R22R 1R24R23R 7R 8R 2R16
  26006930.647   136667269.8582      -3742.369          28.000  
  25092196.341   131860266.923        3051.854          31.000  
  23618136.487   124114149.1282       -807.872          31.000  
  25115293.170   131981903.630       -4105.228          42.000  
  20627539.356   108398453.704         193.327          48.000  
  22079190.861   116026930.023       -3181.136          40.000  
  24670195.143                       -2485.255          19.000  
  20309313.520   106726154.928        -746.981          46.000  
  22422647.827   117831822.375        -209.788          46.000  
  21674556.085   113900600.204        1824.155          39.000  
  23350684.992   122708692.483       -2150.736          43.000  
  20803508.364   109323171.997         548.268          50.000  
  24629498.016                        3686.543          20.000  
  23612006.214   126042524.177       -4104.048          47.000  
  20097880.833   107434730.013        1802.210          41.000  
  20370985.698   108932848.768        2104.074          43.000  
  19762969.090   105718597.097       -1516.064          50.000  
  23723218.433   126992207.104       -4462.366          34.000  
  20000211.720   107100259.817       -2201.905          49.000  
  24328772.244                        3880.079          25.000  
  24655723.304   131706435.0332        430.176          26.000  
 16  9 24 14  4 54.0010000  0 20G17G28G27G 1G 8R15G11G14G 3G32G22R17
                                R22R 1R24R23R 7R 8R 2R16
  25091615.458   131857214.489        3052.418          31.000  
  23618292.213   124114957.1022       -807.883          32.000  
  25116074.695   131986008.544       -4104.979          42.000  
  20627502.571   108398260.252         193.130          48.000  
  22079795.930   116030110.794       -3181.323          40.000  
  24670660.889                       -2490.143          19.000  
  20309455.426   106726901.821        -747.259          46.000  
  22422687.508   117832032.058        -210.156          45.000  
  21674208.581   113898775.586        1824.730          39.000  
  23351094.025   122710842.936       -2151.007          43.000  
  20803403.837   109322623.568         548.125          50.000  
  24628806.778                        3691.444          22.000  
  23612775.035   126046627.969       -4103.944          47.000  
  20097543.939   107432927.918        1801.580          41.000  
  20370592.021   108930744.707        2103.786          43.000  
  19763252.796   105720113.256       -1516.606          50.000  
  23724052.135   126996669.359       -4462.646          33.000  
  20000622.986   107102461.822       -2202.482          49.000  
  24328043.977   129819092.5472       3881.480          25.000  
  24655644.359   131706005.7152        429.966          27.000  
 16  9 24 14  4 55.0010000  0 20G17G28G27G 1G 8R15G11G14G 3G32G22R17
                                R22R 1R24R23R 7R 8R 2R16
  25091033.807   131854161.947        3052.329          31.000  
  23618439.528   124115765.4232       -808.716          31.000  
  25116855.593   131990113.288       -4104.783          41.000  
  20627465.472   108398066.930         193.007          48.000  
  22080400.894   116033291.747       -3181.212          40.000  
  24671129.846                       -2501.232          18.000  
  20309597.610   106727649.018        -747.614          46.000  
  22422727.609   117832242.145        -210.520          46.000  
  21673861.008   113896951.239        1823.756          39.000  
  23351503.477   122712993.771       -2151.537          43.000  
  20803299.729   109322075.361         547.731          50.000  
  24628117.041                        3685.998          20.000  
  23613544.032   126050731.811       -4104.337          48.000  
  20097207.184   107431126.300        1801.206          41.000  
  20370198.797   108928640.888        2103.364          43.000  
  19763536.641   105721629.853       -1517.111          50.000  
  23724885.348   127001131.539       -4462.579          33.000  
  20001034.358   107104664.257       -2202.908          49.000  
  24327317.350                        3879.032          22.000  
  24655565.205   131705577.0252        429.013          27.000  
 16  9 24 14  4 56.0010000  0 20G17G28G27G 1G 8R15G11G14G 3G32G22R17
                                R22R 1R24R23R 7R 8R 2R16
  25090454.600   131851109.564        3052.881          32.000  
  23618592.880   124116574.3082       -809.078          31.000  
  25117636.769   131994218.151       -4104.758          41.000  
  20627428.966   108397873.989         192.919          48.000  
  22081006.207   116036473.128       -3181.404          39.000  
  24671595.383                       -2497.313          18.000  
  20309740.074   106728396.813        -747.919          46.000  
  22422767.500   117832452.908        -211.032          45.000  
  21673513.713   113895127.302        1823.630          39.000  
  23351912.825   122715145.181       -2151.557          43.000  
  20803195.167   109321527.630         547.575          50.000  
  24627427.338                        3693.902          21.000  
  23614312.958   126054835.915       -4104.102          48.000  
  20096870.395   107429325.417        1800.437          41.000  
  20369805.295   108926537.576        2103.201          43.000  
  19763820.416   105723147.169       -1517.580          50.000  
  23725718.665   127005593.796       -4461.368          32.000  
  20001445.834   107106867.410       -2203.405          49.000  
  24326591.107                        3879.032          19.000  
  24655484.131   131705149.0442        428.088          27.000  
 16  9 24 14  4 57.0010000  0 20G17G28G27G 1G 8R15G11G14G 3G32G22R17
                                R22R 1R24R23R 7R 8R 2R16
  25089872.286   131848057.050        3051.891          32.000  
  23618743.127   124117383.4782       -809.700          30.000  
  25118417.596   131998322.785       -4104.527          41.000  
  20627392.320   108397681.113         192.670          48.000  
  22081611.695   116039654.654       -3181.611          40.000  
  24672062.700                       -2497.313          16.000  
  20309882.188   106729144.849        -748.313          46.000  
  22422807.356   117832663.991        -211.230          45.000  
  21673166.559   113893303.453        1823.749          39.000  
  23352322.451   122717296.877       -2152.043          43.000  
  20803090.745   109320980.049         547.262          50.000  
  24626740.847                        3692.276          25.000  
  23615081.326   126058939.980       -4104.292          47.000  
  20096533.850   107427524.917        1800.158          41.000  
  20369412.072   108924434.437        2102.816          43.000  
  19764104.052   105724664.863       -1518.045          50.000  
  23726551.913   127010055.913       -4461.520          32.000  
  20001857.659   107109070.943       -2203.857          49.000  
  24325863.851                        3880.685          17.000  
  24655405.745   131704721.6052        427.291          27.000  
 16  9 24 14  4 58.0010000  0 19G17G27G 1G 8R15G11G14G 3G32G22R17R22
                                R 1R24R23R 7R 8R 2R16
  25089290.740   131845004.382        3052.268          32.000  
  25119198.424   132002427.309       -4104.636          41.000  
  20627355.919   108397488.387         192.460          48.000  
  22082217.148   116042836.355       -3181.767          40.000  
  24672529.319                       -2497.313          14.000  
  20310024.756   106729893.225        -748.569          46.000  
  22422847.597   117832875.512        -211.816          45.000  
  21672819.544   113891479.837        1823.235          39.000  
  23352732.287   122719448.931       -2152.087          43.000  
  20802986.742   109320432.704         547.236          50.000  
  24626051.110                        3694.029          25.000  
  23615849.624   126063044.078       -4104.160          47.000  
  20096197.271   107425724.922        1799.722          42.000  
  20369018.814   108922331.551        2102.628          43.000  
  19764387.828   105726183.039       -1518.383          50.000  
  23727384.917   127014517.886       -4461.800          32.000  
  20002269.100   107111274.966       -2204.257          49.000  
  24325137.050                        3880.685          15.000  
  24655326.905   131704294.1861        426.493          28.000  
 16  9 24 14  4 59.0010000  0 19G17R16G27G 1G 8R15G11G14G 3G32G22R17
                                R22R 1R24R23R 7R 8R 2
  25088709.892   131841951.767        3053.135          32.000  
  24655249.565   131703867.888         426.110          28.000  
  25119979.216   132006531.759       -4104.367          41.000  
  20627319.378   108397295.901         192.515          48.000  
  22082823.089   116046018.390       -3182.061          40.000  
  24672997.334                       -2497.313          11.000  
  20310167.220   106730642.042        -748.939          46.000  
  22422887.732   117833087.545        -212.214          45.000  
  21672472.424   113889656.490        1823.650          39.000  
  23353142.367   122721601.451       -2152.665          43.000  
  20802882.634   109319885.699         546.950          50.000  
  24625359.034                        3693.789          26.000  
  23616618.027   126067148.318       -4104.146          47.000  
  20095860.795   107423925.530        1799.311          42.000  
  20368625.416   108920229.022        2102.438          43.000  
  19764671.428   105727701.778       -1518.810          50.000  
  23728218.025   127018979.802       -4462.385          33.000  
  20002680.681   107113479.531       -2204.644          48.000  
  24324413.529                        3875.223          16.000  
 16  9 24 14  5  0.0010000  0 19G17R16G27G 1G 8R15G11G14G 3G32G22R17
                                R22R 1R24R23R 7R 8R 2
  25088129.149   131838899.051        3052.506          32.000  
  24655167.829   131703442.282         425.732          27.000  
  25120760.567   132010636.068       -4104.197          41.000  
  20627283.012   108397103.552         192.179          48.000  
  22083428.716   116049200.590       -3182.127          40.000  
  24673463.464                       -2497.313          11.000  
  20310309.474   106731391.171        -749.155          46.000  
  22422928.321   117833299.980        -212.540          45.000  
  21672125.304   113887833.352        1822.964          39.000  
  23353552.482   122723754.312       -2152.814          44.000  
  20802778.561   109319338.910         546.728          50.000  
  24624668.005                        3693.240          26.000  
  23617386.360   126071252.570       -4104.143          46.000  
  20095524.530   107422126.633        1798.820          42.000  
  20368232.088   108918126.738        2102.305          43.000  
  19764955.309   105729220.987       -1519.369          50.000  
  23729051.447   127023441.672       -4462.086          33.000  
  20003092.402   107115684.539       -2205.272          48.000  
  24323688.612                        3875.223          15.000  
 16  9 24 14  5  1.0010000  0 19G17R16G27G 1G 8R15G11G14G 3G32G22R17
                                R22R 1R24R23R 7R 8R 2
  25087548.371   131835846.298        3052.833          32.000  
  24655087.872   131703017.305         424.386          28.000  
  25121541.814   132014740.296       -4104.263          41.000  
  20627246.750   108396911.398         192.071          48.000  
  22084034.553   116052383.079       -3182.665          40.000  
  24673932.595                       -2487.874          13.000  
  20310451.938   106732140.690        -749.515          46.000  
  22422969.260   117833512.897        -213.089          45.000  
  21671778.813   113886010.453        1822.906          39.000  
  23353962.527   122725907.599       -2153.494          44.000  
  20802674.802   109318792.411         546.393          50.000  
  24623976.663                        3694.136          26.000  
  23618154.903   126075356.887       -4104.242          46.000  
  20095188.648   107420328.278        1798.182          42.000  
  20367838.830   108916024.796        2101.981          43.000  
  19765239.398   105730740.715       -1520.067          50.000  
  23729884.556   127027903.476       -4461.077          33.000  
  20003503.913   107117890.019       -2205.617          48.000  
  24322962.474                        3875.223          15.000  
 16  9 24 14  5  2.0010000  0 19G17G27G 1G 8R15G11G14G 3G32G22R17R22
                                R 1R24R23R 7R 8R 2R16
  25086967.767   131832793.613        3052.535          32.000  
  25122322.641   132018844.533       -4104.103          41.000  
  20627210.280   108396719.533         192.025          48.000  
  22084640.529   116055565.904       -3182.861          41.000  
  24674398.307                       -2494.498          15.000  
  20310594.681   106732890.693        -749.879          46.000  
  22423009.849   117833726.386        -213.548          45.000  
  21671432.077   113884187.928        1822.544          39.000  
  23354372.677   122728061.376       -2153.783          43.000  
  20802570.938   109318246.289         546.266          50.000  
  24623285.948                        3694.917          27.000  
  23618923.515   126079461.391       -4104.293          46.000  
  20094852.766   107418530.567        1797.506          43.000  
  20367445.956   108913923.270        2101.748          43.000  
  19765522.999   105732261.051       -1520.338          49.000  
  23730718.013   127032365.255       -4461.048          35.000  
  20003915.633   107120096.105       -2206.105          48.000  
  24322235.672                        3880.112          16.000  
  24655008.508   131702592.898         424.105          27.000  
 16  9 24 14  5  3.0010000  0 20G28G17G27G 1G 8R15G11G14G 3G32G22R17
                                R22R 1R24R23R 7R 8R 2R16
  23619679.087                        -810.836          31.000  
  25086386.989   131829740.681        3053.057          32.000  
  25123103.364   132022948.500       -4103.936          41.000  
  20627173.669   108396527.682         191.876          48.000  
  22085246.401   116058748.760       -3182.631          41.000  
  24674864.577                       -2494.498          15.000  
  20310737.493   106733640.896        -750.282          46.000  
  22423050.438   117833940.150        -213.850          45.000  
  21671085.411   113882365.446        1822.368          40.000  
  23354782.443   122730215.370       -2154.175          44.000  
  20802466.725   109317700.262         546.039          50.000  
  24622596.665                        3695.927          26.000  
  23619692.372   126083565.780       -4104.240          46.000  
  20094516.605   107416733.162        1797.340          43.000  
  20367053.291   108911821.861        2101.413          43.000  
  19765806.949   105733781.729       -1520.859          49.000  
  23731551.331   127036826.827       -4460.924          35.000  
  20004327.354   107122302.501       -2206.534          48.000  
  24321508.521                        3885.838          15.000  
  24654927.190                         424.876          26.000  
 16  9 24 14  5  4.0010000  0 20G28G17R16G27G 1G 8R15G11G14G 3G32G22
                                R17R22R 1R24R23R 7R 8R 2
  23619824.831                        -811.499          31.000  
  25085806.106   131826687.702        3052.173          32.000  
  24654846.989                         422.375          26.000  
  25123884.470   132027052.306       -4103.935          41.000  
  20627137.233   108396335.963         191.768          48.000  
  22085852.482   116061931.840       -3182.892          41.000  
  24675330.497                       -2494.498          14.000  
  20310880.410   106734391.431        -750.653          46.000  
  22423091.481   117834154.332        -214.306          45.000  
  21670738.466   113880543.157        1822.095          40.000  
  23355192.907   122732369.723       -2154.574          44.000  
  20802362.792   109317154.468         545.740          50.000  
  24621910.068                        3694.522          27.000  
  23620461.403   126087670.210       -4104.455          46.000  
  20094180.933   107414936.291        1796.478          43.000  
  20366660.731   108909720.736        2101.031          43.000  
  19766091.108   105735302.866       -1521.333          49.000  
  23732385.137   127041288.291       -4461.834          35.000  
  20004739.318   107124509.376       -2207.158          48.000  
  24320781.266                        3875.500          16.000  
 16  9 24 14  5  5.0010000  0 19G17R16G27G 1G 8R15G11G14G 3G32G22R17
                                R22R 1R24R23R 7R 8R 2
  25085225.258   131823634.556        3052.609          32.000  
  24654769.091                         423.551          25.000  
  25124665.158   132031155.963       -4103.687          41.000  
  20627100.762   108396144.382         191.525          48.000  
  22086458.528   116065115.124       -3183.486          41.000  
  24675798.966                       -2494.498          12.000  
  20311023.328   106735142.294        -751.126          46.000  
  22423132.140   117834368.928        -214.882          45.000  
  21670391.765   113878721.020        1822.469          40.000  
  23355602.848   122734524.406       -2154.885          43.000  
  20802258.893   109316608.880         545.467          50.000  
  24621220.191                        3693.885          25.000  
  23621230.189   126091774.626       -4104.383          46.000  
  20093844.946   107413139.863        1796.184          43.000  
  20366267.682   108907619.843        2100.700          43.000  
  19766375.338   105736824.448       -1521.834          49.000  
  23733218.490   127045749.588       -4461.612          35.000  
  20005151.597   107126716.685       -2207.449          48.000  
  24320053.906                        3882.926          17.000  
 16  9 24 14  5  6.0010000  0 19G17R16G27G 1G 8R15G11G14G 3G32G22R17
                                R22R 1R24R23R 7R 8R 2
  25084644.201   131820581.352        3052.257          32.000  
  24654690.321                         422.024          24.000  
  25125446.056   132035259.462       -4103.439          41.000  
  20627064.221   108395952.893         191.593          48.000  
  22087064.155   116068298.561       -3183.674          41.000  
  24676265.550                       -2494.498          12.000  
  20311166.071   106735893.426        -751.313          46.000  
  22423172.799   117834583.893        -215.123          45.000  
  21670045.343   113876899.067        1821.881          40.000  
  23356012.788   122736679.407       -2155.161          44.000  
  20802154.820   109316063.486         545.344          50.000  
  24620530.908                        3694.007          25.000  
  23621999.325   126095879.065       -4104.479          47.000  
  20093508.541   107411343.896        1795.675          42.000  
  20365874.668   108905519.147        2100.668          43.000  
  19766659.602   105738346.449       -1522.229          49.000  
  23734051.947   127050210.761       -4461.268          36.000  
  20005563.806   107128924.414       -2207.980          48.000  
  24319324.592                        3886.726          20.000  
 16  9 24 14  5  7.0010000  0 19G17R16G27G 1G 8R15G11G14G 3G32G22R17
                                R22R 1R24R23R 7R 8R 2
  25084063.632   131817528.245        3053.135          31.000  
  24654614.866                         420.319          25.000  
  25126227.337   132039363.065       -4103.542          41.000  
  20627027.750   108395761.811         191.083          48.000  
  22087669.992   116071482.443       -3183.813          41.000  
  24676734.682                       -2497.853          12.000  
  20311309.127   106736645.159        -751.840          46.000  
  22423213.528   117834799.534        -215.761          45.000  
  21669698.328   113875077.585        1821.385          39.000  
  23356423.392   122738835.037       -2155.726          44.000  
  20802051.096   109315518.589         544.848          50.000  
  24619841.973                        3695.979          25.000  
  23622768.252   126099983.789       -4104.750          46.000  
  20093172.450   107409548.710        1794.943          42.000  
  20365482.213   108903418.995        2100.098          43.000  
  19766944.354   105739869.188       -1522.921          49.000  
  23734885.614   127054672.038       -4460.668          36.000  
  20005976.259   107131132.850       -2208.640          48.000  
  24318598.418                        3884.605          22.000  
 16  9 24 14  5  8.0010000  0 20G23G17R16G27G 1G 8R15G11G14G 3G32G22
                                R17R22R 1R24R23R 7R 8R 2
  25580134.408                        3176.709          30.000  
  25083482.784   131814475.111        3052.725          31.000  
  24654536.445                         420.969          25.000  
  25127008.234   132043466.543       -4103.475          41.000  
  20626991.314   108395570.878         191.062          48.000  
  22088276.457   116074666.545       -3184.077          41.000  
  24677201.440                       -2497.853          12.000  
  20311452.010   106737397.249        -752.296          46.000  
  22423254.745   117835015.618        -216.167          45.000  
  21669351.557   113873256.306        1820.901          39.000  
  23356833.577   122740991.041       -2156.228          43.000  
  20801947.337   109314973.931         544.593          50.000  
  24619150.700   131742084.7042       3696.604          25.000  
  23623536.864   126104088.567       -4104.647          46.000  
  20092836.708   107407754.011        1794.461          42.000  
  20365089.234   108901319.098        2099.860          43.000  
  19767228.967   105741392.409       -1523.370          49.000  
  23735719.036   127059133.226       -4461.322          36.000  
  20006388.643   107133341.731       -2209.092          48.000  
  24317870.116                        3879.178          23.000  
 16  9 24 14  5  9.0010000  0 20G23G17R16G27G 1G 8R15G11G14G 3G32G22
                                R17R22R 1R24R23R 7R 8R 2
  25579534.958   134421363.1812       3172.181          31.000  
  25082901.727   131811421.980        3052.957          31.000  
  24654457.325                         421.076          25.000  
  25127789.026   132047569.968       -4103.305          41.000  
  20626955.262   108395380.206         190.524          48.000  
  22088882.677   116077850.937       -3184.424          41.000  
  24677669.106                       -2497.853          12.000  
  20311595.346   106738149.766        -752.790          46.000  
  22423295.858   117835232.221        -216.863          45.000  
  21669004.647   113871435.309        1820.422          39.000  
  23357243.971   122743147.492       -2156.587          44.000  
  20801843.857   109314429.623         544.102          50.000  
  24618460.719                        3696.642          24.000  
  23624305.337   126108193.512       -4105.052          46.000  
  20092501.070   107405959.914        1793.804          43.000  
  20364696.883   108899219.579        2099.334          43.000  
  19767513.929   105742916.211       -1524.086          49.000  
  23736552.354   127063594.393       -4461.165          36.000  
  20006801.236   107135551.199       -2209.768          48.000  
  24317147.398                        3879.216          25.000  
 16  9 24 14  5 10.0010000  0 20G23G17R16G27G 1G 8R15G11G14G 3G32G22
                                R17R22R 1R24R23R 7R 8R 2
  25578929.610   134418191.7222       3171.109          30.000  
  25082320.914   131808368.882        3052.690          31.000  
  24654377.997                         418.710          24.000  
  25128569.679   132051673.397       -4103.656          41.000  
  20626918.721   108395189.769         190.076          48.000  
  22089488.619   116081035.665       -3185.103          41.000  
  24678135.655                       -2497.853          13.000  
  20311738.507   106738902.734        -753.453          46.000  
  22423337.215   117835449.348        -217.546          45.000  
  21668657.911   113869614.595        1820.469          39.000  
  23357654.330   122745304.432       -2157.362          44.000  
  20801740.377   109313885.639         543.650          50.000  
  24617772.168                        3692.452          22.000  
  23625074.368   126112298.555       -4105.264          46.000  
  20092165.502   107404166.411        1793.213          43.000  
  20364304.393   108897120.432        2098.834          43.000  
  19767799.240   105744440.592       -1524.880          49.000  
  23737385.881   127068055.544       -4461.024          36.000  
  20007214.178   107137761.231       -2210.440          48.000  
  24316420.596                        3883.276          23.000  
 16  9 24 14  5 11.0010000  0 20G23G17R16G27G 1G 8R15G11G14G 3G32G22
                                R17R22R 1R24R23R 7R 8R 2
  25578323.425   134415020.0532       3170.828          30.000  
  25081739.787   131805315.788        3053.211          30.000  
  24654300.657                         418.373          24.000  
  25129350.158   132055776.766       -4103.416          40.000  
  20626882.599   108394999.594         189.946          48.000  
  22090095.153   116084220.681       -3185.014          41.000  
  24678602.064                       -2497.853          11.000  
  20311881.564   106739656.131        -753.562          46.000  
  22423378.886   117835666.997        -217.784          45.000  
  21668310.861   113867794.231        1820.068          39.000  
  23358064.969   122747461.819       -2157.490          44.000  
  20801636.828   109313342.005         543.406          50.000  
  24617080.616                        3697.097          21.000  
  23625842.980   126116403.759       -4105.345          46.000  
  20091830.144   107402373.530        1792.651          43.000  
  20363912.008   108895021.652        2098.546          43.000  
  19768084.412   105745965.560       -1525.255          49.000  
  23738219.652   127072516.764       -4461.158          36.000  
  20007626.736   107139971.821       -2210.875          48.000  
  24315691.003                        3876.948          22.000  
 16  9 24 14  5 12.0010000  0 18G17G27G 1G 8R15G11G14G 3G32G22R17R22
                                R 1R24R23R 7R 8R 2
  25081158.694   131802262.677        3052.688          30.000  
  25130130.183   132059880.040       -4102.974          40.000  
  20626846.722   108394809.613         189.865          48.000  
  22090701.374   116087405.956       -3185.445          41.000  
  24679067.950                       -2497.853          11.000  
  20312024.691   106740409.930        -753.996          46.000  
  22423420.452   117835885.123        -218.269          45.000  
  21667964.754   113865974.078        1820.107          39.000  
  23358475.712   122749619.630       -2158.159          44.000  
  20801533.278   109312798.658         543.193          50.000  
  24616388.296                        3700.099          21.000  
  23626611.872   126120509.027       -4105.362          46.000  
  20091494.891   107400581.193        1792.089          43.000  
  20363519.203   108892923.189        2098.218          43.000  
  19768369.583   105747491.052       -1525.714          49.000  
  23739053.144   127076977.892       -4460.908          36.000  
  20008039.678   107142182.900       -2211.165          48.000  
  24314965.109                        3876.124          19.000  
 16  9 24 14  5 13.0010000  0 17G17G27G 1G 8G11G14G 3G32G22R17R22R 1
                                R24R23R 7R 8R 2
  25080577.218   131799209.715        3053.317          29.000  
  25130910.905   132063983.423       -4103.046          40.000  
  20626810.635   108394620.032         189.633          48.000  
  22091307.350   116090591.684       -3185.590          41.000  
  20312168.027   106741164.312        -754.637          45.000  
  22423462.124   117836103.930        -218.923          45.000  
  21667618.332   113864154.402        1819.370          39.000  
  23358886.176   122751778.022       -2158.465          43.000  
  20801430.008   109312255.794         542.699          50.000  
  24615696.290                        3697.167          21.000  
  23627380.938   126124614.593       -4105.616          46.000  
  20091159.462   107398789.591        1791.560          43.000  
  20363126.818   108890825.226        2098.107          43.000  
  19768654.510   105749017.262       -1526.339          49.000  
  23739886.602   127081439.203       -4461.549          36.000  
  20008452.655   107144394.688       -2211.899          48.000  
  24314239.180                        3877.016          17.000  
 16  9 24 14  5 14.0010000  0 19G23G17G27G 1G 8G11G14G 3G32G22R17R22
                                R 1R24R23R 7R 8R 2G10
  25576519.735   134405517.9003       3173.089          30.000  
  25079995.498   131796156.741        3053.008          29.000  
  25131691.488   132068086.743       -4103.371          40.000  
  20626774.443   108394430.635         189.385          48.000  
  22091913.710   116093777.674       -3186.198          41.000  
  20312311.747   106741919.080        -755.091          45.000  
  22423503.690   117836323.198        -219.515          45.000  
  21667272.050   113862334.973        1819.186          39.000  
  23359296.954   122753936.841       -2158.995          43.000  
  20801327.086   109311713.219         542.313          50.000  
  24615005.541                        3697.374          21.000  
  23628149.655   126128720.239       -4105.671          45.000  
  20090824.279   107396998.527        1790.697          42.000  
  20362734.676   108888727.602        2097.335          43.000  
  19768939.996   105750543.993       -1527.051          49.000  
  23740719.954   127085900.384       -4460.916          36.000  
  20008865.771   107146606.975       -2212.634          48.000  
  24313512.099                        3877.016          14.000  
  26021878.434                       -3739.528          27.000  
 16  9 24 14  5 15.0010000  0 19G23G17G27G 1G 8G11G14G 3G32G22R17R22
                                R 1R24R23R 7R 8R 2G10
  25575918.226                        3172.906          30.000  
  25079421.211   131793103.662        3053.485          29.000  
  25132471.723   132072189.895       -4102.971          40.000  
  20626738.181   108394241.390         189.238          48.000  
  22092520.384   116096963.832       -3186.061          42.000  
  20312455.013   106742674.164        -755.252          45.000  
  22423545.815   117836542.880        -219.624          45.000  
  21666925.802   113860515.737        1819.229          38.000  
  23359707.662   122756096.001       -2159.237          43.000  
  20801224.130   109311170.864         542.272          50.000  
  24614313.954                        3697.591          22.000  
  23628918.441   126132825.890       -4105.491          45.000  
  20090489.130   107395207.939        1790.335          43.000  
  20362342.465   108886630.215        2097.182          43.000  
  19769225.237   105752071.179       -1527.450          49.000  
  23741553.342   127090361.435       -4461.239          36.000  
  20009279.132   107148819.719       -2212.910          48.000  
  24312784.599                        3877.016          14.000  
  26022583.632                       -3737.506          26.000  
 16  9 24 14  5 16.0010000  0 19G23G17G27G 1G 8G11G14G 3G32G22R17R22
                                R 1R24R23R 7R 8R 2G10
  25575326.524   134399183.7832       3172.097          30.000  
  25078830.696   131790050.462        3052.413          29.000  
  25133252.236   132076292.935       -4103.753          40.000  
  20626702.234   108394052.285         188.500          48.000  
  22093126.535   116100150.248       -3187.143          41.000  
  20312598.698   106743429.587        -755.979          45.000  
  22423587.556   117836762.995        -220.964          45.000  
  21666579.520   113858696.691        1818.457          38.000  
  23360118.964   122758255.521       -2160.149          43.000  
  20801121.034   109310628.746         541.544          50.000  
  24613623.658                        3693.688          21.000  
  23629686.949   126136931.588       -4106.198          45.000  
  20090154.574   107393417.824        1789.221          43.000  
  20361950.498   108884533.070        2096.623          43.000  
  19769510.932   105753598.842       -1528.459          49.000  
  23742386.694   127094822.347       -4461.057          36.000  
  20009692.353   107151032.953       -2214.066          48.000  
  24312056.122                        3883.546          15.000  
  26023289.424                       -3738.539          26.000  
 16  9 24 14  5 17.0010000  0 19G23G17G27G 1G 8G11G14G 3G32G22R17R22
                                R 1R24R23R 7R 8R 2G10
  25574713.777   134396011.0592       3172.549          30.000  
  25078251.279   131786997.445        3053.251          30.000  
  25134033.098   132080396.031       -4103.105          40.000  
  20626666.531   108393863.541         188.543          48.000  
  22093732.616   116103337.032       -3186.893          41.000  
  20312742.349   106744185.561        -756.151          45.000  
  22423629.785   117836983.738        -221.171          46.000  
  21666233.273   113856878.069        1818.419          38.000  
  23360529.951   122760415.632       -2160.396          44.000  
  20801017.589   109310087.090         541.375          50.000  
  24612933.886                        3697.452          22.000  
  23630455.806   126141037.527       -4105.993          45.000  
  20089819.984   107391628.418        1789.078          43.000  
  20361558.392   108882436.459        2096.316          43.000  
  19769796.697   105755127.200       -1528.658          49.000  
  23743220.047   127099283.419       -4461.172          36.000  
  20010105.784   107153246.873       -2214.406          48.000  
  24311324.888                        3883.397          17.000  
  26024012.805                       -3738.244          26.000  
 16  9 24 14  5 18.0010000  0 18G17G27G 1G 8G11G14G 3G32G22R17R22R 1
                                R24R23R 7R 8R 2G10
  25077668.581   131783944.519        3053.158          29.000  
  25134813.437   132084499.209       -4103.400          40.000  
  20626630.548   108393675.148         188.404          48.000  
  22094338.976   116106524.266       -3187.524          41.000  
  20312886.208   106744942.084        -756.699          45.000  
  22423672.154   117837205.104        -221.462          46.000  
  21665886.956   113855059.863        1817.908          38.000  
  23360941.113   122762576.287       -2160.616          44.000  
  20800914.947   109309545.854         541.211          50.000  
  24612242.752                        3691.576          23.000  
  23631225.221   126145143.728       -4106.052          45.000  
  20089485.323   107389839.750        1788.346          43.000  
  20361166.530   108880340.313        2095.954          43.000  
  19770082.287   105756656.233       -1529.116          49.000  
  23744053.679   127103744.542       -4460.724          36.000  
  20010519.075   107155461.404       -2214.726          48.000  
  24310597.005                        3887.300          19.000  
  26024725.193                       -3738.741          26.000  
 16  9 24 14  5 19.0010000  0 18G17G27G 1G 8G11G14G 3G32G22R17R22R 1
                                R24R23R 7R 8R 2G10
  25077087.733   131780891.750        3052.203          29.000  
  25135594.230   132088602.375       -4103.122          40.000  
  20626594.706   108393487.063         187.811          48.000  
  22094945.127   116109711.850       -3188.136          41.000  
  20313030.068   106745699.092        -757.587          45.000  
  22423714.558   117837427.048        -222.408          46.000  
  21665541.023   113853241.967        1817.847          38.000  
  23361352.206   122764737.479       -2161.662          43.000  
  20800811.851   109309005.022         540.471          50.000  
  24611552.875                        3700.790          23.000  
  23631994.670   126149250.118       -4106.648          45.000  
  20089151.117   107388051.739        1787.576          43.000  
  20360774.668   108878244.608        2095.272          43.000  
  19770368.052   105758185.908       -1530.235          49.000  
  23744886.892   127108205.766       -4461.729          35.000  
  20010932.645   107157676.542       -2215.625          48.000  
  24309868.493                        3883.476          19.000  
  26025435.207                       -3737.331          26.000  
 16  9 24 14  5 20.0010000  0 18G17G27G 1G 8G11G14G 3G32G22R17R22R 1
                                R24R23R 7R 8R 2G10
  25076518.123   131777839.054        3053.100          30.000  
  25136374.987   132092705.701       -4103.129          40.000  
  20626558.793   108393299.371         187.720          48.000  
  22095551.732   116112899.877       -3188.116          41.000  
  20313174.137   106746456.691        -757.647          45.000  
  22423757.032   117837649.680        -222.852          46.000  
  21665195.264   113851424.542        1818.241          39.000  
  23361763.856   122766899.266       -2161.851          44.000  
  20800709.104   109308464.674         540.393          50.000  
  24610861.323                        3706.126          24.000  
  23632763.981   126153356.799       -4106.456          45.000  
  20088817.050   107386264.482        1787.265          43.000  
  20360383.050   108876149.429        2095.153          43.000  
  19770654.026   105759716.288       -1530.397          49.000  
  23745720.140   127112667.089       -4461.068          34.000  
  20011346.320   107159892.397       -2215.865          48.000  
  24309142.006                        3876.484          18.000  
  26026145.501                       -3738.314          27.000  
 16  9 24 14  5 21.0010000  0 18G17G27G 1G 8G11G14G 3G32G22R17R22R 1
                                R24R23R 7R 8R 2G10
  25075928.306   131774786.432        3052.625          29.000  
  25137156.024   132096808.970       -4102.899          40.000  
  20626523.264   108393111.938         187.414          48.000  
  22096158.162   116116088.227       -3188.314          41.000  
  20313318.904   106747214.738        -758.074          45.000  
  22423799.541   117837872.817        -223.147          45.000  
  21664849.610   113849607.485        1816.980          39.000  
  23362175.367   122769061.523       -2162.315          43.000  
  20800606.288   109307924.682         539.881          50.000  
  24610171.307                        3698.361          22.000  
  23633533.500   126157463.650       -4106.796          45.000  
  20088483.088   107384477.841        1786.768          43.000  
  20359991.118   108874054.614        2094.700          43.000  
  19770940.384   105761247.247       -1531.057          49.000  
  23746553.562   127117128.400       -4461.433          35.000  
  20011760.099   107162108.866       -2216.644          48.000  
  24308416.321                        3876.484          16.000  
  26026854.747                       -3737.759          26.000  
 16  9 24 14  5 22.0010000  0 18G17G27G 1G 8G11G14G 3G32G22R17R22R 1
                                R24R23R 7R 8R 2G10
  25075345.887   131771733.812        3052.617          29.000  
  25137937.096   132100912.260       -4103.669          40.000  
  20626487.526   108392924.781         186.812          48.000  
  22096765.115   116119276.914       -3189.229          41.000  
  20313463.427   106747973.268        -759.061          45.000  
  22423841.945   117838096.538        -224.193          46.000  
  21664503.887   113847790.726        1816.244          39.000  
  23362586.844   122771224.275       -2163.235          43.000  
  20800503.541   109307385.045         539.256          50.000  
  24609479.057                        3703.094          21.000  
  23634302.846   126161570.659       -4107.272          45.000  
  20088148.881   107382691.865        1785.405          43.000  
  20359599.116   108871960.172        2093.929          43.000  
  19771226.603   105762778.798       -1532.059          49.000  
  23747387.089   127121589.749       -4461.703          35.000  
  20012174.158   107164325.951       -2217.598          48.000  
  24307689.659                        3881.797          16.000  
  26027566.716                       -3738.346          26.000  
 16  9 24 14  5 23.0010000  0 18G10G17G27G 1G 8G11G14G 3G32G22R17R22
                                R 1R24R23R 7R 8R 2
  26028277.533                       -3737.665          27.000  
  25074770.553   131768681.409        3052.410          29.000  
  25138718.203   132105015.677       -4103.425          40.000  
  20626451.998   108392738.050         186.613          48.000  
  22097371.719   116122466.067       -3189.221          41.000  
  20313607.705   106748732.400        -759.201          45.000  
  22423884.593   117838320.955        -224.797          46.000  
  21664158.687   113845974.431        1816.636          39.000  
  23362998.564   122773387.670       -2163.593          43.000  
  20800401.073   109306845.922         539.057          50.000  
  24608788.307                        3697.250          19.000  
  23635072.470   126165677.981       -4107.311          46.000  
  20087814.744   107380906.639        1785.193          43.000  
  20359207.150   108869866.269        2093.722          43.000  
  19771513.449   105764311.111       -1532.589          49.000  
  23748220.128   127126051.255       -4461.353          34.000  
  20012588.391   107166543.756       -2217.877          48.000  
  24306961.985                        3879.247          15.000  
 16  9 24 14  5 24.0010000  0 18G10G17G27G 1G 8G11G14G 3G32G22R17R22
                                R 1R24R23R 7R 8R 2
  26028990.654                       -3737.262          25.000  
  25074185.587   131765629.101        3051.969          29.000  
  25139498.925   132109119.140       -4103.553          40.000  
  20626416.609   108392551.666         186.169          48.000  
  22097978.359   116125655.634       -3189.841          41.000  
  20313752.472   106749492.076        -760.136          45.000  
  22423927.311   117838545.986        -225.514          45.000  
  21663813.766   113844158.543        1815.896          39.000  
  23363410.145   122775551.603       -2164.032          43.000  
  20800298.815   109306307.234         538.372          50.000  
  24608097.279                        3702.877          18.000  
  23635842.234   126169785.539       -4107.995          46.000  
  20087480.887   107379122.117        1783.863          43.000  
  20358815.392   108867772.835        2093.073          43.000  
  19771800.052   105765844.099       -1533.386          49.000  
  23749053.585   127130512.886       -4462.469          35.000  
  20013003.008   107168762.204       -2218.826          48.000  
  24306231.100                        3882.046          16.000  
 16  9 24 14  5 25.0010000  0 18G10G17G27G 1G 8G11G14G 3G32G22R17R22
                                R 1R24R23R 7R 8R 2
  26029699.726                       -3738.778          24.000  
  25073596.991   131762577.031        3052.416          29.000  
  25140279.648   132113222.724       -4103.025          40.000  
  20626381.429   108392365.668         186.376          48.000  
  22098585.208   116128845.644       -3189.459          41.000  
  20313897.169   106750252.322        -759.927          46.000  
  22423970.099   117838771.681        -225.414          46.000  
  21663468.775   113842343.106        1815.848          40.000  
  23363821.795   122777716.172       -2164.349          43.000  
  20800196.347   109305769.029         538.522          50.000  
  24607407.716                        3692.513          18.000  
  23636611.893   126173893.364       -4107.429          46.000  
  20087147.378   107377338.335        1784.069          43.000  
  20358423.635   108865679.944        2093.134          43.000  
  19772086.550   105767377.820       -1533.586          49.000  
  23749887.077   127134974.646       -4461.265          35.000  
  20013417.661   107170981.351       -2218.840          48.000  
  24305504.752                        3885.185          18.000  
 16  9 24 14  5 26.0010000  0 18G17G27G 1G 8G11G14G 3G32G22R17R22R 1
                                R24R23R 7R 8R 2G10
  25073020.785   131759524.841        3052.250          29.000  
  25141060.755   132117326.210       -4103.643          40.000  
  20626346.145   108392179.850         185.620          48.000  
  22099192.091   116132035.888       -3190.794          41.000  
  20314042.181   106751012.933        -760.925          46.000  
  22424013.201   117838997.840        -226.551          46.000  
  21663123.819   113840527.873        1815.099          39.000  
  23364233.516   122779881.093       -2165.187          43.000  
  20800094.089   109305231.071         537.772          50.000  
  24606719.270                        3697.441          19.000  
  23637381.657   126178001.255       -4107.972          46.000  
  20086813.974   107375555.068        1782.899          43.000  
  20358032.157   108863587.334        2092.463          43.000  
  19772373.710   105768912.010       -1534.567          49.000  
  23750720.709   127139436.341       -4461.794          34.000  
  20013832.208   107173200.975       -2219.885          48.000  
  24304779.067                        3892.870          19.000  
  26030408.729                       -3737.816          25.000  
 16  9 24 14  5 27.0010000  0 18G17G27G 1G 8G11G14G 3G32G22R17R22R 1
                                R24R23R 7R 8R 2G10
  25072439.274   131756472.743        3052.068          28.000  
  25141841.617   132121429.672       -4103.438          40.000  
  20626310.651   108391994.328         185.278          48.000  
  22099799.115   116135226.452       -3190.887          41.000  
  20314187.157   106751774.038        -761.423          46.000  
  22424056.618   117839224.571        -227.244          46.000  
  21662778.409   113838713.017        1814.656          39.000  
  23364645.550   122782046.548       -2165.989          43.000  
  20799991.831   109304693.509         537.277          50.000  
  24606027.718                        3709.101          18.000  
  23638151.386   126182109.340       -4108.313          46.000  
  20086480.291   107373772.449        1782.319          43.000  
  20357640.504   108861495.189        2091.773          43.000  
  19772660.836   105770446.838       -1535.313          49.000  
  23751554.131   127143898.023       -4461.944          34.000  
  20014247.034   107175421.221       -2220.630          48.000  
  24304049.544                        3892.870          17.000  
  26031118.254                       -3737.562          24.000  
 16  9 24 14  5 28.0010000  0 18G10G17G27G 1G 8G11G14G 3G32G22R17R22
                                R 1R24R23R 7R 8R 2
  26031828.967                       -3736.196          24.000  
  25071859.578   131753420.897        3051.585          28.000  
  25142622.200   132125533.381       -4103.646          40.000  
  20626275.053   108391809.310         184.777          48.000  
  22100406.173   116138417.594       -3191.304          41.000  
  20314332.447   106752535.830        -761.806          46.000  
  22424099.720   117839452.060        -227.643          46.000  
  21662432.930   113836898.702        1814.144          39.000  
  23365057.899   122784212.699       -2166.358          43.000  
  20799889.886   109304156.526         536.867          50.000  
  24605334.490                        3709.101          15.000  
  23638921.744   126186217.805       -4108.522          46.000  
  20086146.608   107371990.678        1781.599          43.000  
  20357249.305   108859403.651        2091.410          43.000  
  19772947.822   105771982.503       -1535.880          49.000  
  23752387.554   127148359.940       -4462.173          34.000  
  20014661.896   107177642.282       -2221.342          48.000  
  24303319.252                        3876.718          14.000  
 16  9 24 14  5 29.0010000  0 18G17G27G 1G 8G11G14G 3G32G22R17R22R 1
                                R24R23R 7R 8R 2G10
  25071281.278   131750369.216        3051.579          29.000  
  25143403.132   132129637.140       -4103.750          40.000  
  20626239.629   108391624.619         184.536          48.000  
  22101013.405   116141609.129       -3191.489          41.000  
  20314477.703   106753298.163        -762.625          46.000  
  22424143.240   117839680.195        -228.455          46.000  
  21662087.869   113835084.779        1813.766          39.000  
  23365469.934   122786379.415       -2167.086          43.000  
  20799787.768   109303619.985         536.313          50.000  
  24604640.460                        3709.101          11.000  
  23639692.276   126190326.518       -4108.829          46.000  
  20085813.204   107370209.595        1780.729          43.000  
  20356858.350   108857312.603        2090.964          43.000  
  19773235.262   105773518.846       -1536.675          49.000  
  23753220.906   127152821.896       -4461.490          34.000  
  20015077.072   107179864.006       -2221.995          48.000  
  24302592.311                        3876.718          13.000  
  26032539.644                       -3736.678          24.000  
 16  9 24 14  5 30.0010000  0 19G10G17G27G 1G 8R15G11G14G 3G32G22R17
                                R22R 1R24R23R 7R 8R 2
  26033252.137                       -3738.335          24.000  
  25070700.360   131747317.526        3051.360          28.000  
  25144184.204   132133740.953       -4104.633          40.000  
  20626204.763   108391440.272         183.672          48.000  
  22101620.778   116144801.060       -3192.676          41.000  
  24687447.998                       -2505.542          10.000  
  20314622.749   106754061.017        -763.671          46.000  
  22424186.761   117839908.938        -229.651          46.000  
  21661742.809   113833271.270        1812.617          40.000  
  23365882.317   122788546.679       -2168.241          43.000  
  20799685.719   109303083.876         535.292          50.000  
  24603950.548                        3709.101          13.000  
  23640462.598   126194435.465       -4109.562          47.000  
  20085479.905   107368429.209        1779.760          43.000  
  20356467.256   108855222.005        2089.757          42.000  
  19773522.388   105775055.843       -1537.965          49.000  
  23754054.538   127157283.961       -4462.844          34.000  
  20015492.387   107182086.370       -2223.203          48.000  
  24301864.846                        3876.718          13.000  
 16  9 24 14  5 31.0010000  0 19G17G27G 1G 8R15G11G14G 3G32G22R17R22
                                R 1R24R23R 7R 8R 2G10
  25070123.177   131744266.160        3050.737          29.000  
  25144965.136   132137844.849       -4103.830          40.000  
  20626169.514   108391256.319         183.791          48.000  
  22102228.290   116147993.422       -3192.490          41.000  
  24687921.877                       -2524.762          16.000  
  20314768.075   106754824.442        -763.670          46.000  
  22424230.143   117840138.335        -229.685          46.000  
  21661397.713   113831458.178        1812.698          40.000  
  23366294.491   122790714.531       -2168.109          43.000  
  20799583.775   109302548.231         535.395          50.000  
  24603260.881                        3709.101          14.000  
  23641233.130   126198544.676       -4109.293          47.000  
  20085146.711   107366649.575        1779.261          43.000  
  20356076.546   108853131.908        2089.897          43.000  
  19773809.619   105776593.545       -1538.073          49.000  
  23754888.170   127161746.220       -4462.317          34.000  
  20015907.458   107184309.415       -2223.433          48.000  
  24301138.080                        3876.145          15.000  
  26033964.943                       -3736.005          23.000  
 16  9 24 14  5 32.0010000  0 19G10G17G27G 1G 8R15G11G14G 3G32G22R17
                                R22R 1R24R23R 7R 8R 2
  26034673.701                       -3738.312          22.000  
  25069539.990   131741214.657        3051.454          30.000  
  25145746.313   132141948.688       -4103.814          40.000  
  20626134.474   108391072.573         183.612          48.000  
  22102836.081   116151186.066       -3192.668          41.000  
  24688393.032                       -2508.668          18.000  
  20314913.609   106755588.284        -764.119          46.000  
  22424273.908   117840368.222        -230.074          46.000  
  21661052.757   113829645.370        1812.570          40.000  
  23366706.700   122792882.837       -2168.611          42.000  
  20799482.110   109302012.898         535.185          50.000  
  24602572.121                        3697.574          16.000  
  23642003.487   126202654.013       -4109.440          47.000  
  20084813.621   107364870.517        1778.714          43.000  
  20355685.521   108851042.153        2089.422          43.000  
  19774096.989   105778131.792       -1538.635          49.000  
  23755721.802   127166208.461       -4462.498          34.000  
  20016322.563   107186532.985       -2223.887          48.000  
  24300413.826                        3876.145          14.000  
 16  9 24 14  5 33.0010000  0 18G17G27G 1G 8R15G11G14G 3G32G22R17R22
                                R 1R24R23R 7R 8R 2
  25068959.875   131738163.320        3051.772          29.000  
  25146527.384   132146052.611       -4103.851          40.000  
  20626099.573   108390889.201         183.557          48.000  
  22103443.837   116154379.131       -3193.041          40.000  
  24688863.595                       -2508.668          18.000  
  20315059.179   106756352.662        -764.363          46.000  
  22424317.917   117840598.749        -230.545          46.000  
  21660708.011   113827832.968        1812.317          40.000  
  23367119.119   122795051.693       -2168.998          42.000  
  20799379.991   109301478.012         534.907          50.000  
  24601881.755                        3702.270          17.000  
  23642773.775   126206763.579       -4109.475          47.000  
  20084480.810   107363092.149        1778.359          43.000  
  20355294.741   108848952.852        2089.400          43.000  
  19774384.534   105779670.716       -1538.992          49.000  
  23756555.189   127170670.793       -4462.651          34.000  
  20016737.948   107188757.212       -2224.333          48.000  
  24299686.850                        3876.145          12.000  
 16  9 24 14  5 34.0010000  0 18G17G27G 1G 8R15G11G14G 3G32G22R17R22
                                R 1R24R23R 7R 8R 2
  25068386.112   131735112.153        3050.930          30.000  
  25147308.247   132150156.620       -4104.157          40.000  
  20626064.533   108390706.188         182.701          48.000  
  22104051.593   116157572.632       -3193.940          41.000  
  24689335.274                       -2513.627          20.000  
  20315204.923   106757117.621        -765.427          46.000  
  22424361.996   117840829.938        -231.803          46.000  
  21660363.369   113826021.005        1811.652          40.000  
  23367531.642   122797221.141       -2169.819          42.000  
  20799278.221   109300943.591         534.064          50.000  
  24601190.273                        3705.978          19.000  
  23643543.818   126210873.389       -4110.145          47.000  
  20084148.349   107361314.521        1777.150          43.000  
  20354903.926   108846864.041        2088.558          43.000  
  19774672.393   105781210.375       -1540.250          49.000  
  23757388.716   127175133.152       -4462.185          35.000  
  20017153.682   107190982.154       -2225.443          48.000  
  24298959.245                        3882.913          16.000  
 16  9 24 14  5 35.0010000  0 18G17G27G 1G 8R15G11G14G 3G32G22R17R22
                                R 1R24R23R 7R 8R 2
  25067799.366   131732061.277        3050.227          29.000  
  25148089.388   132154260.822       -4103.888          40.000  
  20626029.842   108390523.689         182.458          48.000  
  22104659.419   116160766.675       -3194.066          41.000  
  24689810.199                       -2514.050          23.000  
  20315350.354   106757883.273        -765.867          46.000  
  22424405.971   117841061.897        -232.252          46.000  
  21660018.727   113824209.571        1811.705          40.000  
  23367944.654   122799391.302       -2170.339          42.000  
  20799176.556   109300409.760         533.752          50.000  
  24600500.675                        3700.472          20.000  
  23644314.175   126214983.602       -4109.931          47.000  
  20083816.167   107359537.733        1776.890          43.000  
  20354513.390   108844775.870        2088.173          43.000  
  19774960.321   105782750.832       -1540.652          49.000  
  23758222.523   127179595.769       -4463.112          35.000  
  20017569.381   107193207.914       -2225.841          48.000  
  24298231.850                        3892.267          17.000  
 16  9 24 14  5 36.0010000  0 18G17G27G 1G 8R15G11G14G 3G32G22R17R22
                                R 1R24R23R 7R 8R 2
  25067219.356   131729010.410        3050.568          29.000  
  25148870.390   132158365.104       -4104.521          40.000  
  20625994.872   108390341.530         181.651          48.000  
  22105267.105   116163961.126       -3194.813          41.000  
  24690284.811                       -2516.417          23.000  
  20315496.272   106758649.438        -766.602          46.000  
  22424450.469   117841294.452        -233.048          46.000  
  21659673.806   113822398.548        1810.659          40.000  
  23368357.037   122801562.019       -2171.453          42.000  
  20799074.926   109299876.349         532.820          50.000  
  24599808.984                        3703.446          22.000  
  23645084.149   126219094.069       -4110.766          46.000  
  20083483.845   107357761.656        1775.419          44.000  
  20354122.924   108842688.172        2087.323          43.000  
  19775248.389   105784291.944       -1541.695          49.000  
  23759056.538   127184058.455       -4463.269          35.000  
  20017985.430   107195434.309       -2226.986          48.000  
  24297502.222                        3877.733          18.000  
 16  9 24 14  5 37.0010000  0 18G17G27G 1G 8R15G11G14G 3G32G22R17R22
                                R 1R24R23R 7R 8R 2
  25066636.100   131725959.751        3050.627          29.000  
  25149651.392   132162469.480       -4104.362          40.000  
  20625960.425   108390159.756         181.534          48.000  
  22105875.036   116167156.006       -3195.088          41.000  
  24690759.561                       -2508.915          23.000  
  20315642.365   106759416.190        -766.984          46.000  
  22424494.862   117841527.688        -233.548          46.000  
  21659329.618   113820587.971        1810.302          40.000  
  23368769.665   122803733.324       -2171.775          42.000  
  20798973.471   109299343.417         532.657          50.000  
  24599120.154                        3703.025          23.000  
  23645854.855   126223204.825       -4110.954          47.000  
  20083152.151   107355986.334        1774.700          44.000  
  20353732.563   108840601.013        2086.808          43.000  
  19775536.632   105785833.781       -1542.391          49.000  
  23759890.659   127188521.306       -4463.014          36.000  
  20018401.094   107197661.403       -2227.482          48.000  
  24296770.081                        3878.512          21.000  
 16  9 24 14  5 38.0010000  0 18G17G27G 1G 8R15G11G14G 3G32G22R17R22
                                R 1R24R23R 7R 8R 2
  25066053.123   131722909.013        3050.801          29.000  
  25150432.324   132166573.747       -4104.302          40.000  
  20625925.804   108389978.131         181.453          48.000  
  22106483.420   116170351.131       -3195.547          41.000  
  24691232.986                       -2521.230          23.000  
  20315788.145   106760183.292        -767.187          46.000  
  22424539.151   117841761.359        -233.859          46.000  
  21658985.395   113818777.594        1810.212          40.000  
  23369182.886   122805905.012       -2172.168          42.000  
  20798872.120   109298810.737         532.475          50.000  
  24598430.521                        3699.817          25.000  
  23646625.038   126227315.593       -4110.898          47.000  
  20082820.457   107354211.508        1774.432          44.000  
  20353342.236   108838514.136        2086.392          43.000  
  19775825.014   105787376.102       -1542.596          49.000  
  23760724.465   127192984.072       -4463.003          35.000  
  20018816.758   107199888.986       -2227.862          48.000  
  24296038.847                        3883.422          22.000  
 16  9 24 14  5 39.0010000  0 18G17G27G 1G 8R15G11G14G 3G32G22R17R22
                                R 1R24R23R 7R 8R 2
  25065480.302   131719858.675        3050.003          29.000  
  25151213.675   132170678.256       -4104.354          40.000  
  20625891.322   108389797.052         181.107          48.000  
  22107092.084   116173546.818       -3195.945          41.000  
  24691704.351                       -2517.142          21.000  
  20315934.098   106760951.124        -767.923          46.000  
  22424583.719   117841995.835        -234.662          46.000  
  21658641.277   113816967.825        1809.711          40.000  
  23369596.212   122808077.432       -2172.610          42.000  
  20798771.013   109298278.668         532.008          50.000  
  24597739.876                        3699.230          25.000  
  23647395.395   126231426.807       -4111.235          46.000  
  20082489.322   107352437.575        1773.797          44.000  
  20352952.119   108836427.911        2086.162          43.000  
  19776113.327   105788919.332       -1543.432          49.000  
  23761558.167   127197447.106       -4462.990          36.000  
  20019232.911   107202117.430       -2228.663          48.000  
  24295305.309                        3878.496          24.000  
 16  9 24 14  5 40.0010000  0 18G17G27G 1G 8R15G11G14G 3G32G22R17R22
                                R 1R24R23R 7R 8R 2
  25064897.918   131716808.379        3050.507          29.000  
  25151995.026   132174782.854       -4104.791          40.000  
  20625857.015   108389616.349         180.647          48.000  
  22107700.259   116176742.970       -3196.118          41.000  
  24692175.821                       -2519.216          21.000  
  20316080.296   106761719.531        -768.655          46.000  
  22424628.705   117842230.963        -235.386          46.000  
  21658297.228   113815158.488        1809.299          40.000  
  23370009.782   122810250.451       -2173.451          42.000  
  20798669.907   109297747.077         531.396          50.000  
  24597049.790                        3699.677          24.000  
  23648165.333   126235538.294       -4111.573          46.000  
  20082157.907   107350664.392        1772.921          44.000  
  20352561.967   108834342.193        2085.340          43.000  
  19776401.500   105790463.282       -1544.261          49.000  
  23762391.799   127201910.257       -4463.333          36.000  
  20019649.133   107204346.551       -2229.365          48.000  
  24294574.739   129640505.9473       3878.238          26.000  
 16  9 24 14  5 41.0010000  0 19G17G28G27G 1G 8R15G11G14G 3G32G22R17
                                R22R 1R24R23R 7R 8R 2
  25064318.187   131713758.442        3049.921          28.000  
  23625596.874                        -831.685          30.000  
  25152776.587   132178887.747       -4105.405          40.000  
  20625822.883   108389436.234         179.602          48.000  
  22108308.713   116179939.757       -3197.515          41.000  
  24692646.139                       -2515.876          19.000  
  20316226.669   106762488.712        -769.689          46.000  
  22424673.518   117842466.960        -236.628          46.000  
  21657953.040   113813349.788        1808.203          41.000  
  23370423.492   122812424.255       -2174.254          42.000  
  20798569.010   109297216.158         530.399          50.000  
  24596357.435                        3697.999          23.000  
  23648935.377   126239650.276       -4112.539          46.000  
  20081826.353   107348892.147        1771.609          44.000  
  20352171.885   108832257.176        2084.502          43.000  
  19776689.987   105792008.157       -1545.538          49.000  
  23763225.779   127206373.686       -4463.378          36.000  
  20020065.705   107206576.557       -2230.622          48.000  
  24293844.063   129636628.4292       3877.483          28.000  
 16  9 24 14  5 42.0010000  0 19G17G28G27G 1G 8R15G11G14G 3G32G22R17
                                R22R 1R24R23R 7R 8R 2
  25063737.828   131710708.736        3049.448          28.000  
  23625759.336                        -833.369          30.000  
  25153557.484   132182992.697       -4104.655          40.000  
  20625788.750   108389256.480         179.751          48.000  
  22108917.342   116183136.961       -3197.365          41.000  
  24693119.319                       -2517.257          20.000  
  20316373.146   106763258.445        -769.787          46.000  
  22424718.574   117842703.589        -236.768          46.000  
  21657609.201   113811541.505        1808.134          41.000  
  23370836.748   122814598.662       -2174.425          41.000  
  20798467.903   109296685.686         530.427          50.000  
  24595666.092                        3705.055          24.000  
  23649705.560   126243762.491       -4112.067          46.000  
  20081494.764   107347120.622        1771.223          44.000  
  20351781.873   108830172.641        2084.763          43.000  
  19776978.683   105793553.695       -1545.678          49.000  
  23764059.586   127210837.257       -4463.390          36.000  
  20020482.067   107208807.204       -2230.782          48.000  
  24293115.167   129632751.1662       3877.179          28.000  
 16  9 24 14  5 43.0010000  0 19G17G28G27G 1G 8R15G11G14G 3G32G22R17
                                R22R 1R24R23R 7R 8R 2
  25063160.191   131707658.957        3050.558          30.000  
  23625921.239   124155054.0653       -832.710          30.000  
  25154338.590   132187097.690       -4104.988          40.000  
  20625754.931   108389077.018         179.220          48.000  
  22109525.971   116186334.507       -3197.653          41.000  
  24693594.175                       -2516.274          20.000  
  20316519.588   106764028.650        -770.488          46.000  
  22424763.875   117842940.792        -237.634          46.000  
  21657265.362   113809733.570        1807.673          41.000  
  23371250.214   122816773.548       -2175.034          41.000  
  20798366.587   109296155.597         529.796          50.000  
  24594974.959                        3698.938          25.000  
  23650475.673   126247874.900       -4112.657          46.000  
  20081163.489   107345349.709        1770.518          44.000  
  20351392.488   108828088.543        2083.961          43.000  
  19777268.078   105795099.849       -1546.433          49.000  
  23764893.357   127215300.845       -4463.981          36.000  
  20020898.953   107211038.455       -2231.532          48.000  
  24292386.900   129628873.8092       3878.043          28.000  
 16  9 24 14  5 44.0010000  0 19G17G28G27G 1G 8R15G11G14G 3G32G22R17
                                R22R 1R24R23R 7R 8R 2
  25062571.804   131704609.515        3048.867          29.000  
  23626077.837   124155886.8872       -834.632          30.000  
  25155119.523   132191202.858       -4105.681          40.000  
  20625720.729   108388898.027         178.313          48.000  
  22110134.913   116189532.584       -3198.956          42.000  
  24694067.250                       -2521.417          21.000  
  20316666.379   106764799.528        -771.654          46.000  
  22424808.896   117843178.733        -238.740          46.000  
  21656921.942   113807926.143        1806.860          41.000  
  23371664.063   122818949.104       -2176.182          41.000  
  20798265.690   109295626.055         528.873          50.000  
  24594283.023                        3698.505          25.000  
  23651246.135   126251987.633       -4113.337          46.000  
  20080832.563   107343579.651        1769.129          44.000  
  20351002.965   108826005.037        2082.765          43.000  
  19777557.472   105796646.799       -1547.823          49.000  
  23765727.094   127219764.637       -4464.218          37.000  
  20021315.769   107213270.515       -2232.940          48.000  
  24291663.868   129624996.9412       3875.680          29.000  
 16  9 24 14  5 45.0010000  0 18G17G27G 1G 8R15G11G14G 3G32G22R17R22
                                R 1R24R23R 7R 8R 2
  25061991.270   131701560.325        3049.523          28.000  
  25155900.629   132195308.230       -4105.010          40.000  
  20625686.910   108388719.531         178.535          48.000  
  22110744.031   116192731.185       -3198.800          42.000  
  24694540.814                       -2513.794          22.000  
  20316813.101   106765571.076        -771.429          46.000  
  22424854.337   117843417.434        -238.824          46.000  
  21656578.207   113806119.285        1806.877          41.000  
  23372078.296   122821125.377       -2176.187          41.000  
  20798165.316   109295097.103         528.789          50.000  
  24593590.982                        3700.205          25.000  
  23652016.631   126256100.742       -4112.973          46.000  
  20080501.707   107341810.432        1769.104          44.000  
  20350613.790   108823922.146        2082.776          43.000  
  19777847.320   105798194.555       -1547.901          49.000  
  23766560.970   127224228.673       -4463.992          37.000  
  20021732.864   107215503.379       -2232.971          48.000  
  24290931.098   129621120.1322       3876.852          28.000  
 16  9 24 14  5 46.0010000  0 18G17G27G 1G 8R15G11G14G 3G32G22R17R22
                                R 1R24R23R 7R 8R 2
  25061417.507   131698511.305        3049.002          29.000  
  25156681.422   132199413.719       -4105.804          39.000  
  20625652.883   108388541.412         178.152          48.000  
  22111353.078   116195930.230       -3199.301          42.000  
  24695012.214                       -2525.109          22.000  
  20316960.136   106766343.202        -772.233          46.000  
  22424900.231   117843656.793        -239.611          46.000  
  21656234.752   113804312.836        1806.544          41.000  
  23372492.180   122823302.248       -2177.195          41.000  
  20798064.873   109294568.612         528.431          50.000  
  24592900.547                        3700.875          22.000  
  23652787.547   126260214.137       -4113.570          46.000  
  20080170.502   107340041.954        1768.291          43.000  
  20350224.545   108821839.761        2082.267          43.000  
  19778136.819   105799743.025       -1548.728          49.000  
  23767395.230   127228692.807       -4464.134          35.000  
  20022149.994   107217736.928       -2233.930          48.000  
  24290195.257   129617243.7752       3876.304          26.000  
 16  9 24 14  5 47.0010000  0 18G17G27G 1G 8R15G11G14G 3G32G22R17R22
                                R 1R24R23R 7R 8R 2
  25060832.960   131695462.460        3049.988          30.000  
  25157462.075   132203519.312       -4105.408          39.000  
  20625619.727   108388363.738         177.654          48.000  
  22111962.161   116199129.771       -3199.919          42.000  
  24695483.405                       -2518.344          21.000  
  20317107.067   106767115.963        -772.910          46.000  
  22424945.881   117843896.872        -240.285          46.000  
  21655890.878   113802506.910        1805.605          41.000  
  23372906.798   122825479.765       -2177.682          42.000  
  20797964.220   109294040.657         527.862          50.000  
  24592210.740                        3696.901          24.000  
  23653558.253   126264327.837       -4113.623          45.000  
  20079840.134   107338274.273        1767.472          44.000  
  20349835.196   108819757.938        2081.845          43.000  
  19778426.737   105801292.249       -1549.327          49.000  
  23768229.071   127233157.144       -4464.063          34.000  
  20022567.403   107219971.209       -2234.449          48.000  
  24289475.820                        3877.231          25.000  
 16  9 24 14  5 48.0010000  0 18G17G27G 1G 8R15G11G14G 3G32G22R17R22
                                R 1R24R23R 7R 8R 2
  25060254.729   131692413.674        3049.525          31.000  
  25158243.146   132207624.965       -4105.726          39.000  
  20625585.874   108388186.375         177.144          48.000  
  22112570.615   116202329.630       -3200.016          42.000  
  24695956.376                       -2511.680          21.000  
  20317253.963   106767889.211        -773.646          46.000  
  22424991.635   117844137.527        -241.200          46.000  
  21655547.353   113800701.320        1805.321          41.000  
  23373321.764   122827657.761       -2178.259          41.000  
  20797863.777   109293513.091         527.201          50.000  
  24591517.059                        3698.545          25.000  
  23654328.297   126268441.753       -4113.866          45.000  
  20079509.627   107336507.239        1766.568          44.000  
  20349446.161   108817676.572        2081.210          43.000  
  19778716.760   105802842.112       -1550.274          49.000  
  23769063.052   127237621.557       -4463.947          35.000  
  20022984.673   107222206.100       -2235.236          48.000  
  24288750.414                        3875.845          25.000  
 16  9 24 14  5 49.0010000  0 18G17G27G 1G 8R15G11G14G 3G32G22R17R22
                                R 1R24R23R 7R 8R 2
  25059680.303   131689365.183        3048.303          33.000  
  25159024.672   132211730.776       -4106.077          40.000  
  20625552.299   108388009.482         176.481          48.000  
  22113179.139   116205530.068       -3201.099          41.000  
  24696428.160                       -2526.873          20.000  
  20317401.592   106768663.127        -774.526          46.000  
  22425037.599   117844378.928        -242.105          46.000  
  21655203.863   113798896.271        1804.551          41.000  
  23373736.416   122829836.501       -2179.499          41.000  
  20797763.752   109292986.080         526.499          50.000  
  24590825.262                        3698.084          25.000  
  23655099.282   126272556.030       -4114.676          46.000  
  20079178.946   107334741.052        1765.648          43.000  
  20349057.230   108815595.806        2080.160          43.000  
  19779007.131   105804392.789       -1551.296          49.000  
  23769897.067   127242086.125       -4464.690          35.000  
  20023402.326   107224441.802       -2236.217          48.000  
  24288026.405   129605549.5593       3875.414          27.000  
 16  9 24 14  5 50.0010000  0 18G17G27G 1G 8R15G11G14G 3G32G22R17R22
                                R 1R24R23R 7R 8R 2
  25059094.290   131686316.887        3048.342          33.000  
  25159806.023   132215836.808       -4106.514          40.000  
  20625518.621   108387833.047         176.043          48.000  
  22113788.047   116208731.001       -3201.439          41.000  
  24696897.954                       -2503.745          18.000  
  20317548.941   106769437.695        -774.973          46.000  
  22425083.668   117844621.065        -242.785          46.000  
  21654860.582   113797091.744        1803.850          41.000  
  23374150.963   122832015.856       -2179.677          41.000  
  20797663.448   109292459.632         526.025          50.000  
  24590132.628                        3698.834          24.000  
  23655870.652   126276670.681       -4115.003          46.000  
  20078848.055   107332975.688        1764.654          43.000  
  20348668.370   108813515.626        2079.716          43.000  
  19779296.979   105805944.276       -1552.080          49.000  
  23770731.293   127246550.909       -4464.920          36.000  
  20023820.154   107226678.283       -2237.042          48.000  
  24287303.372                        3876.008          25.000  
 16  9 24 14  5 51.0010000  0 18G17G27G 1G 8R15G11G14G 3G32G22R17R22
                                R 1R24R23R 7R 8R 2
  25058516.129   131683268.908        3047.349          33.000  
  25160587.025   132219943.004       -4106.502          39.000  
  20625485.256   108387657.128         175.559          48.000  
  22114397.408   116211932.505       -3201.788          41.000  
  24697371.484                       -2534.996          16.000  
  20317696.500   106770212.970        -775.622          46.000  
  22425129.771   117844864.002        -243.426          46.000  
  21654517.616   113795287.761        1803.354          41.000  
  23374565.685   122834195.979       -2180.539          41.000  
  20797563.633   109291933.783         525.500          50.000  
  24589440.762                        3699.414          26.000  
  23656641.916   126280785.699       -4115.247          46.000  
  20078518.001   107331211.165        1763.983          43.000  
  20348279.823   108811436.071        2079.305          43.000  
  19779587.212   105807496.586       -1552.775          49.000  
  23771565.308   127251015.920       -4465.200          35.000  
  20024238.017   107228915.550       -2237.729          48.000  
  24286579.468                        3866.844          22.000  
 16  9 24 14  5 52.0010000  0 18G17G27G 1G 8R15G11G14G 3G32G22R17R22
                                R 1R24R23R 7R 8R 2
  25057936.608   131680220.955        3048.129          32.000  
  25161368.341   132224049.196       -4105.864          39.000  
  20625451.821   108387481.502         175.458          48.000  
  22115006.735   116215134.338       -3201.789          42.000  
  24697844.001                       -2527.203          16.000  
  20317843.990   106770988.719        -775.873          46.000  
  22425176.189   117845107.484        -243.566          46.000  
  21654175.417   113793484.135        1803.373          42.000  
  23374980.756   122836376.613       -2180.569          41.000  
  20797463.852   109291408.309         525.451          50.000  
  24588743.242   131579374.5613       3699.323          30.000  
  23657413.251   126284900.917       -4115.045          46.000  
  20078187.948   107329447.284        1763.741          44.000  
  20347891.591   108809356.932        2079.142          43.000  
  19779877.827   105809049.497       -1553.096          50.000  
  23772399.568   127255480.967       -4465.392          35.000  
  20024656.020   107231153.410       -2238.037          48.000  
  24285856.261                        3870.435          22.000  
 16  9 24 14  5 53.0010000  0 18G17G27G 1G 8R15G11G14G 3G32G22R17R22
                                R 1R24R23R 7R 8R 2
  25057359.145   131677173.125        3047.823          33.000  
  25162149.727   132228155.404       -4106.177          39.000  
  20625418.421   108387306.130         175.254          48.000  
  22115616.027   116218336.492       -3202.160          42.000  
  24698317.181                       -2524.039          17.000  
  20317991.304   106771764.935        -776.490          46.000  
  22425222.641   117845351.510        -244.198          46.000  
  21653832.730   113791680.827        1802.990          42.000  
  23375395.827   122838557.677       -2181.365          41.000  
  20797363.863   109290883.184         524.882          50.000  
  24588053.365   131575675.6912       3699.305          28.000  
  23658184.585   126289016.249       -4115.383          46.000  
  20077857.894   107327684.029        1762.982          43.000  
  20347503.079   108807278.157        2078.672          43.000  
  19780168.374   105810602.987       -1553.822          50.000  
  23773233.619   127259945.993       -4465.269          33.000  
  20025074.092   107233391.867       -2238.835          48.000  
  24285130.157                        3871.044          20.000  
 16  9 24 14  5 54.0010000  0 18G17G27G 1G 8R15G11G14G 3G32G22R17R22
                                R 1R24R23R 7R 8R 2
  25056776.063   131674125.572        3047.366          33.000  
  25162931.322   132232261.878       -4106.292          39.000  
  20625385.406   108387131.317         174.828          48.000  
  22116225.633   116221539.262       -3202.822          42.000  
  24698792.734                       -2544.038          18.000  
  20318138.759   106772541.891        -777.228          46.000  
  22425269.547   117845596.380        -244.973          46.000  
  21653489.623   113789878.120        1802.427          42.000  
  23375811.037   122840739.506       -2182.129          40.000  
  20797264.222   109290358.700         524.478          50.000  
  24587365.024                        3670.800          17.000  
  23658955.711   126293132.047       -4115.829          46.000  
  20077528.015   107325921.656        1762.091          43.000  
  20347114.323   108805200.082        2077.972          43.000  
  19780458.885   105812157.378       -1554.629          50.000  
  23774067.320   127264411.340       -4465.696          31.000  
  20025492.408   107235631.220       -2239.575          48.000  
  24284405.938                        3874.131          21.000  
 16  9 24 14  5 55.0010000  0 18G17G27G 1G 8R15G11G14G 3G32G22R17R22
                                R 1R24R23R 7R 8R 2
  25056194.692   131671078.041        3047.576          33.000  
  25163712.847   132236368.330       -4106.692          39.000  
  20625352.006   108386956.782         174.292          48.000  
  22116835.134   116224742.387       -3203.536          41.000  
  24699269.299                       -2525.134          21.000  
  20318286.876   106773319.311        -777.952          46.000  
  22425316.279   117845841.786        -245.752          46.000  
  21653147.215   113788075.753        1802.173          42.000  
  23376226.771   122842921.847       -2182.624          41.000  
  20797164.372   109289834.589         523.732          50.000  
  24586668.411                        3699.362          23.000  
  23659726.591   126297248.007       -4116.061          46.000  
  20077198.311   107324159.963        1761.118          43.000  
  20346725.532   108803122.408        2077.260          43.000  
  19780749.710   105813712.368       -1555.474          50.000  
  23774900.952   127268876.720       -4465.375          32.000  
  20025910.900   107237871.162       -2240.259          48.000  
  24283681.091                        3875.351          23.000  
 16  9 24 14  5 56.0010000  0 18G17G27G 1G 8R15G11G14G 3G32G22R17R22
                                R 1R24R23R 7R 8R 2
  25055611.541   131668030.837        3046.432          32.000  
  25164493.954   132240475.043       -4107.162          39.000  
  20625318.850   108386782.763         173.753          48.000  
  22117444.810   116227946.060       -3203.866          41.000  
  24699742.026                       -2524.278          21.000  
  20318434.784   106774097.437        -778.701          46.000  
  22425363.011   117846088.005        -246.628          46.000  
  21652804.214   113786273.967        1801.405          42.000  
  23376642.156   122845104.929       -2183.474          41.000  
  20797064.940   109289311.075         523.149          50.000  
  24585980.733                        3699.006          25.000  
  23660497.333   126301364.340       -4116.411          45.000  
  20076868.921   107322399.115        1760.179          43.000  
  20346337.160   108801045.375        2076.748          43.000  
  19781040.815   105815268.205       -1556.262          50.000  
  23775734.898   127273342.344       -4466.036          36.000  
  20026329.251   107240111.901       -2241.187          48.000  
  24282954.673                        3871.606          22.000  
 16  9 24 14  5 57.0010000  0 18G17G27G 1G 8R15G11G14G 3G32G22R17R22
                                R 1R24R23R 7R 8R 2
  25055038.057   131664983.817        3046.688          32.000  
  25165275.794   132244581.917       -4106.980          40.000  
  20625285.730   108386609.198         173.206          48.000  
  22118054.241   116231150.274       -3204.546          42.000  
  24700215.904                       -2528.846          23.000  
  20318583.146   106774876.208        -779.219          46.000  
  22425409.463   117846334.948        -247.438          45.000  
  21652461.282   113784472.668        1801.023          42.000  
  23377057.890   122847288.648       -2183.832          41.000  
  20796965.160   109288788.106         522.661          50.000  
  24585293.509   131560892.4593       3700.169          25.000  
  23661268.144   126305481.051       -4116.886          45.000  
  20076539.670   107320639.069        1759.244          43.000  
  20345948.718   108798968.936        2075.904          43.000  
  19781331.884   105816824.855       -1557.064          50.000  
  23776569.158   127277808.228       -4466.848          33.000  
  20026747.777   107242353.393       -2241.852          48.000  
  24282229.861                        3875.018          22.000  
 16  9 24 14  5 58.0010000  0 18G17G27G 1G 8R15G11G14G 3G32G22R17R22
                                R 1R24R23R 7R 8R 2
  25054455.882   131661936.954        3047.154          31.000  
  25166057.703   132248688.801       -4106.723          40.000  
  20625252.714   108386435.987         173.142          48.000  
  22118664.126   116234354.857       -3204.460          42.000  
  24700689.887                       -2529.861          23.000  
  20318731.403   106775655.520        -779.520          46.000  
  22425456.614   117846582.507        -247.572          45.000  
  21652118.560   113782671.788        1800.868          42.000  
  23377473.729   122849472.932       -2184.549          42.000  
  20796865.345   109288265.572         522.497          50.000  
  24584601.189                        3700.247          25.000  
  23662039.548   126309597.983       -4116.898          46.000  
  20076210.838   107318879.734        1759.083          44.000  
  20345560.242   108796892.971        2075.767          43.000  
  19781623.024   105818382.198       -1557.465          50.000  
  23777403.104   127282274.062       -4466.200          34.000  
  20027166.547   107244595.541       -2242.358          48.000  
  24281503.827                        3877.337          21.000  
 16  9 24 14  5 59.0010000  0 18G17G27G 1G 8R15G11G14G 3G32G22R17R22
                                R 1R24R23R 7R 8R 2
  25053875.767   131658890.136        3047.273          31.000  
  25166839.787   132252795.770       -4107.233          40.000  
  20625219.733   108386263.077         172.586          48.000  
  22119274.011   116237559.802       -3205.137          42.000  
  24701163.904                       -2529.536          22.000  
  20318880.149   106776435.322        -780.225          46.000  
  22425504.008   117846830.655        -248.556          46.000  
  21651776.082   113780871.254        1800.184          42.000  
  23377889.777   122851657.759       -2185.178          42.000  
  20796766.228   109287743.433         521.769          50.000  
  24583905.902                        3699.494          26.000  
  23662810.673   126313715.145       -4117.442          46.000  
  20075882.530   107317121.076        1758.063          44.000  
  20345172.184   108794817.446        2075.171          43.000  
  19781914.791   105819940.164       -1558.325          50.000  
  23778237.015   127286739.947       -4465.468          35.000  
  20027585.108   107246838.326       -2243.227          48.000  
  24280777.514                        3880.715          21.000  
 16  9 24 14  6  0.0010000  0 18G17G27G 1G 8R15G11G14G 3G32G22R17R22
                                R 1R24R23R 7R 8R 2
  25053298.340   131655843.335        3046.951          31.000  
  25167621.592   132256902.565       -4106.383          40.000  
  20625186.962   108386090.372         172.664          48.000  
  22119884.141   116240765.005       -3205.227          41.000  
  24701634.502                       -2523.054          21.000  
  20319028.790   106777215.512        -780.125          46.000  
  22425551.089   117847079.275        -248.734          46.000  
  21651433.394   113779070.975        1800.404          42.000  
  23378305.720   122853842.965       -2185.276          42.000  
  20796666.901   109287221.587         521.877          50.000  
  24583213.233   131549782.0633       3699.810          26.000  
  23663581.938   126317832.388       -4116.886          45.000  
  20075554.012   107315362.924        1758.057          43.000  
  20344784.161   108792742.249        2075.360          43.000  
  19782206.175   105821498.627       -1558.426          50.000  
  23779071.310   127291205.833       -4465.918          36.000  
  20028004.018   107249081.641       -2243.426          48.000  
  24280053.610                        3869.447          23.000  
 16  9 24 14  6  1.0010000  0 18G17G27G 1G 8R15G11G14G 3G32G22R17R22
                                R 1R24R23R 7R 8R 2
  25052716.096   131652796.674        3046.617          30.000  
  25168403.710   132261009.508       -4106.847          41.000  
  20625154.051   108385918.036         172.172          48.000  
  22120493.712   116243970.624       -3205.841          41.000  
  24702107.263                       -2527.555          20.000  
  20319177.396   106777996.276        -781.127          46.000  
  22425598.728   117847328.541        -249.536          46.000  
  21651090.847   113777271.130        1799.498          43.000  
  23378721.699   122856028.739       -2185.870          41.000  
  20796567.854   109286700.196         521.141          50.000  
  24582519.622   131546082.7102       3699.573          26.000  
  23664353.482   126321949.884       -4117.615          46.000  
  20075224.831   107313605.538        1756.939          43.000  
  20344396.277   108790667.572        2074.453          43.000  
  19782497.664   105823057.805       -1559.397          50.000  
  23779905.291   127295671.832       -4466.189          36.000  
  20028423.033   107251325.627       -2244.348          47.000  
  24279328.937                        3872.759          23.000  
 16  9 24 14  6  2.0010000  0 18G17G27G 1G 8R15G11G14G 3G32G22R17R22
                                R 1R24R23R 7R 8R 2
  25052131.618   131649750.092        3045.853          28.000  
  25169185.410   132265116.404       -4106.987          40.000  
  20625121.488   108385745.940         171.749          48.000  
  22121104.016   116247176.569       -3206.157          41.000  
  24702581.386                       -2531.793          22.000  
  20319326.211   106778777.459        -781.642          46.000  
  22425646.123   117847578.316        -250.322          46.000  
  21650748.473   113775471.571        1799.426          42.000  
  23379137.782   122858214.990       -2186.609          41.000  
  20796468.736   109286179.141         520.633          50.000  
  24581826.464                        3699.548          25.000  
  23665124.921   126326067.509       -4117.808          44.000  
  20074895.860   107311848.702        1756.180          43.000  
  20344008.673   108788593.253        2073.936          43.000  
  19782789.257   105824617.543       -1560.278          50.000  
  23780739.411   127300137.821       -4466.467          35.000  
  20028841.768   107253570.122       -2244.945          47.000  
  24278603.357                        3884.000          25.000  
 16  9 24 14  6  3.0010000  0 18G17G27G 1G 8R15G11G14G 3G32G22R17R22
                                R 1R24R23R 7R 8R 2
  25051555.168   131646703.383        3046.965          31.000  
  25169967.354   132269223.208       -4107.171          41.000  
  20625088.857   108385574.061         171.698          48.000  
  22121713.482   116250382.745       -3206.399          41.000  
  24703055.648                       -2528.558          21.000  
  20319474.992   106779559.050        -781.922          46.000  
  22425693.832   117847828.567        -250.623          46.000  
  21650406.240   113773672.295        1798.851          42.000  
  23379554.179   122860401.644       -2186.812          42.000  
  20796369.514   109285658.390         520.496          50.000  
  24581136.099                        3700.868          21.000  
  23665895.767   126330185.217       -4117.871          44.000  
  20074567.307   107310092.453        1755.737          43.000  
  20343621.104   108786519.271        2073.567          44.000  
  19783080.745   105826177.796       -1560.562          50.000  
  23781573.392   127304603.749       -4465.960          34.000  
  20029260.958   107255815.121       -2245.229          48.000  
  24277878.789                        3871.475          25.000  
 16  9 24 14  6  4.0010000  0 18G17G27G 1G 8R15G11G14G 3G32G22R17R22
                                R 1R24R23R 7R 8R 2
  25050978.717   131643656.792        3046.677          32.000  
  25170749.124   132273330.016       -4106.844          40.000  
  20625056.399   108385402.464         171.539          48.000  
  22122323.960   116253589.282       -3206.866          41.000  
  24703530.712                       -2528.123          21.000  
  20319624.051   106780341.114        -782.286          46.000  
  22425741.994   117848079.372        -250.929          46.000  
  21650063.727   113771873.330        1799.078          42.000  
  23379970.541   122862588.799       -2187.107          42.000  
  20796270.432   109285138.002         520.367          50.000  
  24580442.313                        3701.289          21.000  
  23666666.648   126334303.059       -4117.768          45.000  
  20074239.347   107308336.831        1755.286          43.000  
  20343233.674   108784445.688        2073.474          44.000  
  19783372.478   105827738.668       -1561.089          50.000  
  23782407.408   127309069.669       -4465.469          34.000  
  20029680.321   107258060.717       -2245.679          48.000  
  24277154.884                        3874.139          26.000  
 16  9 24 14  6  5.0010000  0 18G17G27G 1G 8R15G11G14G 3G32G22R17R22
                                R 1R24R23R 7R 8R 2
  25050396.997   131640610.229        3046.185          30.000  
  25171530.929   132277436.808       -4106.810          40.000  
  20625023.663   108385231.138         171.019          48.000  
  22122934.264   116256796.124       -3207.055          41.000  
  24704006.231                       -2527.010          20.000  
  20319773.076   106781123.634        -782.882          46.000  
  22425789.668   117848330.740        -251.763          46.000  
  21649721.668   113770074.712        1798.386          42.000  
  23380387.217   122864776.465       -2187.984          42.000  
  20796171.594   109284617.977         519.750          50.000  
  24579748.143                        3703.082          20.000  
  23667437.808   126338421.107       -4118.156          45.000  
  20073910.690   107306581.813        1754.568          43.000  
  20342846.105   108782372.482        2072.702          44.000  
  19783664.560   105829300.149       -1561.835          50.000  
  23783241.458   127313535.566       -4465.442          35.000  
  20030099.964   107260306.915       -2246.655          48.000  
  24276430.526                        3876.195          25.000  
 16  9 24 14  6  6.0010000  0 18G17G27G 1G 8R15G11G14G 3G32G22R17R22
                                R 1R24R23R 7R 8R 2
  25049814.857   131637563.771        3046.767          30.000  
  25172312.350   132281543.595       -4107.134          40.000  
  20624991.205   108385060.122         171.001          48.000  
  22123544.394   116260003.327       -3207.208          41.000  
  24704479.481                       -2533.453          20.000  
  20319922.101   106781906.664        -783.232          46.000  
  22425837.622   117848582.690        -252.036          46.000  
  21649379.469   113768276.461        1798.020          42.000  
  23380803.684   122866964.593       -2188.245          42.000  
  20796072.826   109284098.340         519.649          50.000  
  24579055.300                        3702.609          19.000  
  23668209.666   126342539.295       -4118.135          45.000  
  20073582.766   107304827.459        1754.293          43.000  
  20342458.849   108780299.675        2072.885          44.000  
  19783956.257   105830862.254       -1562.382          49.000  
  23784075.579   127318001.524       -4465.523          35.000  
  20030519.572   107262553.721       -2247.037          48.000  
  24275708.296                        3873.521          26.000  
 16  9 24 14  6  7.0010000  0 18G17G27G 1G 8R15G11G14G 3G32G22R17R22
                                R 1R24R23R 7R 8R 2
  25049238.023   131634517.281        3046.568          32.000  
  25173093.282   132285650.352       -4106.722          40.000  
  20624958.503   108384889.344         170.583          48.000  
  22124154.767   116263210.838       -3207.593          41.000  
  24704953.882                       -2525.046          20.000  
  20320071.266   106782690.110        -783.615          46.000  
  22425885.819   117848835.136        -252.564          46.000  
  21649037.724   113766478.473        1797.949          42.000  
  23381220.256   122869153.196       -2188.761          42.000  
  20795974.023   109283579.038         519.170          50.000  
  24578363.992                        3697.817          19.000  
  23668980.965   126346657.632       -4118.273          44.000  
  20073254.632   107303073.716        1753.566          44.000  
  20342071.524   108778227.263        2072.407          44.000  
  19784247.781   105832424.918       -1562.863          49.000  
  23784910.083   127322467.523       -4466.418          37.000  
  20030938.761   107264801.091       -2247.650          47.000  
  24274984.042                        3872.494          25.000  
 16  9 24 14  6  8.0010000  0 18G17G27G 1G 8R15G11G14G 3G32G22R17R22
                                R 1R24R23R 7R 8R 2
  25048654.976   131631470.653        3046.862          31.000  
  25173875.261   132289756.929       -4106.424          41.000  
  20624926.325   108384718.670         170.694          48.000  
  22124765.316   116266418.504       -3207.811          42.000  
  24705426.190                       -2534.618          22.000  
  20320220.639   106783473.860        -783.912          46.000  
  22425934.017   117849087.981        -253.059          46.000  
  21648695.630   113764680.689        1797.616          43.000  
  23381637.142   122871342.124       -2189.004          42.000  
  20795875.499   109283059.929         519.086          50.000  
  24577671.149                        3708.508          20.000  
  23669752.021   126350775.976       -4118.173          44.000  
  20072927.021   107301320.384        1753.365          44.000  
  20341683.885   108776155.091        2071.999          44.000  
  19784539.548   105833988.020       -1563.210          49.000  
  23785744.797   127326933.299       -4465.970          37.000  
  20031358.229   107267048.855       -2247.868          47.000  
  24274259.195                        3873.553          25.000  
 16  9 24 14  6  9.0010000  0 18G17G27G 1G 8R15G11G14G 3G32G22R17R22
                                R 1R24R23R 7R 8R 2
  25048075.455   131628424.058        3046.516          30.000  
  25174656.717   132293863.429       -4106.266          40.000  
  20624893.658   108384548.229         170.475          48.000  
  22125376.108   116269626.434       -3207.803          42.000  
  24705899.614                       -2544.520          21.000  
  20320369.734   106784258.028        -784.282          46.000  
  22425982.354   117849341.324        -253.322          46.000  
  21648353.501   113762883.145        1797.394          42.000  
  23382054.027   122873531.455       -2189.461          42.000  
  20795776.800   109282541.128         518.887          50.000  
  24576979.387                        3702.538          20.000  
  23670523.216   126354894.425       -4118.282          44.000  
  20072598.783   107299567.678        1752.344          44.000  
  20341296.874   108774083.293        2071.828          44.000  
  19784831.595   105835551.687       -1563.696          49.000  
  23786579.196   127331399.064       -4465.586          38.000  
  20031777.872   107269297.152       -2248.301          47.000  
  24273532.917                        3875.492          24.000  
 16  9 24 14  6 10.0010000  0 18G17G27G 1G 8R15G11G14G 3G32G22R17R22
                                R 1R24R23R 7R 8R 2
  25047496.422   131625377.711        3046.448          30.000  
  25175438.102   132297970.110       -4106.888          40.000  
  20624861.201   108384378.222         169.655          48.000  
  22125986.587   116272834.903       -3208.887          42.000  
  24706376.110                       -2534.084          21.000  
  20320518.934   106785042.841        -785.329          46.000  
  22426030.377   117849595.405        -254.690          45.000  
  21648011.058   113761086.142        1796.351          42.000  
  23382470.808   122875721.452       -2190.300          42.000  
  20795678.381   109282022.866         517.820          50.000  
  24576285.671                        3702.178          21.000  
  23671294.341   126359013.237       -4119.224          44.000  
  20072270.963   107297815.755        1751.392          43.000  
  20340909.968   108772012.099        2070.828          44.000  
  19785123.433   105837116.149       -1564.988          49.000  
  23787413.875   127335864.958       -4465.718          37.000  
  20032197.864   107271546.209       -2249.591          47.000  
  24272807.826                        3882.607          24.000  
 16  9 24 14  6 11.0010000  0 18G17G27G 1G 8R15G11G14G 3G32G22R17R22
                                R 1R24R23R 7R 8R 2
  25046915.469   131622331.434        3046.467          28.000  
  25176219.593   132302076.835       -4106.631          40.000  
  20624828.709   108384208.563         169.732          48.000  
  22126597.588   116276043.750       -3208.830          42.000  
  24706850.651                       -2539.296          22.000  
  20320668.552   106785828.176        -785.367          46.000  
  22426078.923   117849850.087        -254.667          45.000  
  21647669.278   113759289.499        1796.655          42.000  
  23382887.868   122877912.027       -2190.553          42.000  
  20795579.787   109281505.024         517.831          50.000  
  24575594.014                        3706.329          21.000  
  23672065.675   126363132.268       -4119.002          44.000  
  20071942.969   107296064.553        1751.229          43.000  
  20340522.922   108769941.377        2070.857          44.000  
  19785416.003   105838681.273       -1565.310          49.000  
  23788248.449   127340330.974       -4465.542          36.000  
  20032617.786   107273795.897       -2249.662          47.000  
  24272083.991                        3872.829          24.000  
 16  9 24 14  6 12.0010000  0 18G17G27G 1G 8R15G11G14G 3G32G22R17R22
                                R 1R24R23R 7R 8R 2
  25046335.528   131619285.013        3046.231          28.000  
  25177001.258   132306183.298       -4106.448          40.000  
  20624796.182   108384038.929         169.400          47.000  
  22127209.079   116279252.658       -3208.919          42.000  
  24707326.693                       -2531.696          21.000  
  20320817.821   106786613.722        -785.735          46.000  
  22426127.679   117850105.076        -255.101          46.000  
  21647327.393   113757492.948        1796.526          42.000  
  23383304.824   122880102.808       -2191.185          42.000  
  20795481.159   109280987.292         517.609          50.000  
  24574901.869                        3694.491          21.000  
  23672837.498   126367251.175       -4118.918          44.000  
  20071615.184   107294313.711        1750.695          43.000  
  20340135.702   108767870.783        2070.686          44.000  
  19785708.608   105840246.726       -1565.657          49.000  
  23789082.814   127344796.728       -4465.748          37.000  
  20033037.464   107276045.896       -2250.142          47.000  
  24271358.341                        3873.368          23.000  
 16  9 24 14  6 13.0010000  0 18G17G27G 1G 8R15G11G14G 3G32G22R17R22
                                R 1R24R23R 7R 8R 2
  25045757.368   131616238.657        3046.158          28.000  
  25177782.784   132310289.813       -4106.535          40.000  
  20624764.003   108383869.642         169.283          47.000  
  22127819.557   116282461.967       -3209.012          42.000  
  24707802.805                       -2535.678          22.000  
  20320967.544   106787399.800        -786.243          46.000  
  22426176.051   117850360.678        -255.801          46.000  
  21646985.543   113755696.790        1796.139          42.000  
  23383722.233   122882294.133       -2191.187          42.000  
  20795383.054   109280469.996         517.286          50.000  
  24574213.249                        3695.651          19.000  
  23673609.077   126371370.315       -4119.001          43.000  
  20071287.643   107292563.593        1749.967          43.000  
  20339748.377   108765800.663        2069.928          44.000  
  19786001.004   105841812.855       -1566.299          50.000  
  23789917.249   127349262.513       -4465.526          37.000  
  20033457.735   107278296.542       -2250.803          47.000  
  24270633.040                        3868.382          20.000  
 16  9 24 14  6 14.0010000  0 18G17G27G 1G 8R15G11G14G 3G32G22R17R22
                                R 1R24R23R 7R 8R 2
  25045180.813   131613192.246        3046.650          30.000  
  25178564.414   132314396.277       -4106.281          41.000  
  20624731.930   108383700.571         169.113          47.000  
  22128430.350   116285671.560       -3209.534          42.000  
  24708276.264                       -2542.488          21.000  
  20321117.162   106788186.296        -786.677          46.000  
  22426225.261   117850616.785        -256.371          46.000  
  21646643.763   113753900.919        1795.825          42.000  
  23384139.398   122884485.919       -2192.121          42.000  
  20795284.739   109279953.003         516.870          50.000  
  24573523.511                        3699.255          21.000  
  23674380.481   126375489.557       -4119.274          44.000  
  20070960.417   107290814.042        1749.317          43.000  
  20339361.191   108763730.833        2069.759          44.000  
  19786293.784   105843379.535       -1566.883          50.000  
  23790751.788   127353728.344       -4465.536          37.000  
  20033877.901   107280547.718       -2251.306          47.000  
  24269908.367                        3868.382          18.000  
 16  9 24 14  6 15.0010000  0 19G17G28G27G 1G 8R15G11G14G 3G32G22R17
                                R22R 1R24R23R 7R 8R 2
  25044596.928   131610145.794        3046.070          30.000  
  23631041.482                        -848.679          29.000  
  25179346.288   132318502.467       -4106.237          41.000  
  20624700.101   108383531.560         168.859          48.000  
  22129040.340   116288881.242       -3209.812          42.000  
  24708749.026                       -2532.080          21.000  
  20321266.989   106788973.030        -787.077          46.000  
  22426273.772   117850873.216        -256.837          46.000  
  21646301.320   113752105.153        1795.638          42.000  
  23384556.772   122886677.925       -2192.349          42.000  
  20795186.250   109279436.152         516.687          50.000  
  24572834.856                        3700.235          22.000  
  23675152.165   126379608.719       -4119.224          44.000  
  20070632.841   107289064.879        1748.742          43.000  
  20338974.250   108761661.176        2069.428          44.000  
  19786586.878   105844946.583       -1567.470          50.000  
  23791586.013   127358193.951       -4465.385          36.000  
  20034298.172   107282799.292       -2252.017          47.000  
  24269185.265                        3881.392          18.000  
 16  9 24 14  6 16.0010000  0 19G17G28G27G 1G 8R15G11G14G 3G32G22R17
                                R22R 1R24R23R 7R 8R 2
  25044018.593   131607099.409        3046.294          30.000  
  23631203.315                        -849.332          29.000  
  25180127.883   132322608.745       -4106.020          41.000  
  20624668.097   108383362.893         168.628          47.000  
  22129651.062   116292091.339       -3210.130          42.000  
  24709223.811                       -2540.063          20.000  
  20321416.747   106789760.314        -787.372          46.000  
  22426322.214   117851130.271        -257.137          45.000  
  21645959.785   113750309.775        1795.669          42.000  
  23384973.763   122888870.524       -2192.900          42.000  
  20795087.831   109278919.742         516.271          50.000  
  24572145.712                        3701.551          24.000  
  23675923.744   126383728.135       -4119.413          42.000  
  20070305.440   107287316.409        1748.240          43.000  
  20338587.484   108759592.005        2069.127          44.000  
  19786880.111   105846514.306       -1567.825          50.000  
  23792420.308   127362659.611       -4465.114          36.000  
  20034719.106   107285051.517       -2252.235          47.000  
  24268458.184                        3868.660          17.000  
 16  9 24 14  6 17.0010000  0 19G17G28G27G 1G 8R15G11G14G 3G32G22R17
                                R22R 1R24R23R 7R 8R 2
  25043434.848   131604052.812        3046.734          29.000  
  23631370.523   124183661.2053       -850.555          30.000  
  25180908.816   132326714.782       -4105.547          41.000  
  20624635.640   108383194.289         168.741          47.000  
  22130261.960   116295301.536       -3210.094          42.000  
  24709698.317                       -2536.357          18.000  
  20321566.435   106790547.854        -787.583          46.000  
  22426371.319   117851387.682        -257.572          45.000  
  21645617.760   113748514.529        1795.469          42.000  
  23385391.277   122891063.387       -2193.010          42.000  
  20794989.761   109278403.480         516.267          50.000  
  24571454.753                        3702.436          24.000  
  23676695.218   126387847.478       -4119.298          43.000  
  20069977.969   107285568.357        1747.982          42.000  
  20338200.473   108757523.065        2068.894          44.000  
  19787173.659   105848082.403       -1568.123          50.000  
  23793254.289   127367125.080       -4465.321          34.000  
  20035139.901   107287304.098       -2252.772          47.000  
  24267734.943                        3869.789          19.000  
 16  9 24 14  6 18.0010000  0 19G17G28G27G 1G 8R15G11G14G 3G32G22R17
                                R22R 1R24R23R 7R 8R 2
  25042857.770   131601006.269        3045.789          30.000  
  23631522.096   124184511.4312       -850.573          29.000  
  25181690.690   132330820.753       -4106.014          41.000  
  20624603.357   108383025.907         168.218          47.000  
  22130872.927   116298511.992       -3210.834          42.000  
  24710173.312                       -2536.357          16.000  
  20321716.786   106791335.787        -788.254          46.000  
  22426420.459   117851645.567        -258.197          45.000  
  21645276.504   113746719.572        1794.636          42.000  
  23385808.476   122893256.656       -2193.608          42.000  
  20794891.655   109277887.526         515.691          50.000  
  24570767.529                        3704.089          25.000  
  23677467.146   126391966.923       -4119.489          44.000  
  20069650.952   107283820.900        1747.072          42.000  
  20337813.567   108755454.467        2068.270          44.000  
  19787467.520   105849651.032       -1569.030          50.000  
  23794088.304   127371590.499       -4465.664          34.000  
  20035561.045   107289557.159       -2253.577          47.000  
  24267008.944                        3869.795          22.000  
 16  9 24 14  6 19.0010000  0 18G17G27G 1G 8R15G11G14G 3G32G22R17R22
                                R 1R24R23R 7R 8R 2
  25042280.970   131597959.665        3046.451          32.000  
  25182471.797   132334926.647       -4106.161          41.000  
  20624571.318   108382857.726         167.754          47.000  
  22131483.719   116301722.707       -3211.225          42.000  
  24710649.564                       -2536.357          15.000  
  20321866.684   106792124.109        -788.882          46.000  
  22426469.459   117851903.940        -259.071          45.000  
  21644934.933   113744924.837        1794.443          42.000  
  23386226.060   122895450.342       -2194.191          42.000  
  20794793.725   109277371.856         515.231          50.000  
  24570072.905                        3701.292          24.000  
  23678238.829   126396086.475       -4119.905          44.000  
  20069324.424   107282074.004        1746.470          42.000  
  20337426.870   108753386.195        2067.798          44.000  
  19787761.487   105851220.175       -1569.769          50.000  
  23794922.599   127376055.803       -4465.152          34.000  
  20035981.874   107291810.735       -2254.219          47.000  
  24266283.992                        3875.437          23.000  
 16  9 24 14  6 20.0010000  0 19G17G28G27G 1G 8R15G11G14G 3G32G22R17
                                R22R 1R24R23R 7R 8R 2
  25041699.215   131594913.103        3046.164          31.000  
  23631842.412   124186169.4963       -851.303          28.000  
  25183253.113   132339032.491       -4105.666          41.000  
  20624539.245   108382689.801         167.895          47.000  
  22132094.756   116304933.742       -3211.240          42.000  
  24711126.653                       -2536.784          16.000  
  20322017.035   106792912.897        -789.023          46.000  
  22426518.808   117852162.838        -259.077          45.000  
  21644593.712   113743130.423        1794.398          42.000  
  23386643.749   122897644.513       -2194.219          43.000  
  20794695.550   109276856.528         515.339          50.000  
  24569379.852                        3703.640          23.000  
  23679010.234   126400206.182       -4119.713          43.000  
  20068997.477   107280327.706        1746.204          43.000  
  20337040.313   108751318.295        2067.758          44.000  
  19788055.453   105852789.903       -1569.911          50.000  
  23795756.824   127380521.133       -4465.000          34.000  
  20036402.948   107294064.877       -2254.324          47.000  
  24265558.202                        3867.071          22.000  
 16  9 24 14  6 21.0010000  0 19G17G28G27G 1G 8R15G11G14G 3G32G22R17
                                R22R 1R24R23R 7R 8R 2
  25041118.890   131591866.396        3046.630          31.000  
  23632010.876   124187020.9412       -851.575          29.000  
  25184034.254   132343138.141       -4105.312          41.000  
  20624507.485   108382521.979         167.818          47.000  
  22132705.863   116308144.892       -3211.335          42.000  
  24711601.857                       -2533.731          16.000  
  20322167.281   106793701.976        -789.146          46.000  
  22426568.192   117852422.091        -259.303          45.000  
  21644252.281   113741336.139        1794.530          42.000  
  23387061.297   122899838.980       -2194.690          42.000  
  20794597.515   109276341.384         515.082          50.000  
  24568689.347                        3703.649          24.000  
  23679781.917   126404325.844       -4119.746          44.000  
  20068671.018   107278581.854        1745.778          43.000  
  20336653.685   108749250.617        2067.560          44.000  
  19788349.071   105854360.064       -1570.367          50.000  
  23796590.631   127384986.240       -4464.796          33.000  
  20036824.161   107296319.412       -2254.619          47.000  
  24264833.146                        3866.276          20.000  
 16  9 24 14  6 22.0010000  0 19G17G28G27G 1G 8R15G11G14G 3G32G22R17
                                R22R 1R24R23R 7R 8R 2
  25040542.370   131588819.743        3046.434          31.000  
  23632173.128   124187872.9332       -852.008          28.000  
  25184815.466   132347243.777       -4105.498          41.000  
  20624475.342   108382354.421         167.471          47.000  
  22133317.214   116311356.375       -3211.377          42.000  
  24712078.038                       -2545.561          16.000  
  20322317.632   106794491.529        -789.798          46.000  
  22426617.437   117852681.919        -260.011          45.000  
  21643910.640   113739542.226        1793.733          42.000  
  23387478.776   122902033.902       -2195.085          42.000  
  20794499.375   109275826.602         514.708          50.000  
  24567996.888                        3701.952          22.000  
  23680553.740   126408445.689       -4119.840          44.000  
  20068344.978   107276836.637        1744.930          43.000  
  20336267.163   108747183.335        2067.140          44.000  
  19788642.897   105855930.836       -1570.959          50.000  
  23797424.856   127389451.420       -4465.107          34.000  
  20037245.514   107298574.518       -2255.317          47.000  
  24264107.880                        3869.523          19.000  
 16  9 24 14  6 23.0010000  0 19G17G28G27G 1G 8R15G11G14G 3G32G22R17
                                R22R 1R24R23R 7R 8R 2
  25039961.487   131585772.908        3047.521          31.000  
  23632335.136   124188725.2502       -852.300          28.000  
  25185596.433   132351349.189       -4104.890          40.000  
  20624443.617   108382186.907         167.950          47.000  
  22133928.250   116314567.962       -3211.083          42.000  
  24712553.906                       -2535.657          17.000  
  20322467.704   106795281.308        -789.420          46.000  
  22426666.961   117852942.051        -259.830          45.000  
  21643569.210   113737748.391        1794.165          42.000  
  23387896.360   122904229.081       -2194.732          42.000  
  20794401.479   109275311.950         515.011          50.000  
  24567304.987                        3708.514          23.000  
  23681325.947   126412565.425       -4119.215          44.000  
  20068019.357   107275091.793        1745.040          43.000  
  20335880.431   108745116.225        2067.533          44.000  
  19788936.375   105857501.966       -1570.798          50.000  
  23798258.802   127393916.323       -4464.039          35.000  
  20037667.007   107300829.939       -2255.145          48.000  
  24263381.078                        3869.523          16.000  
 16  9 24 14  6 24.0010000  0 19G17G28G27G 1G 8R15G11G14G 3G32G22R17
                                R22R 1R24R23R 7R 8R 2
  25039380.639   131582726.028        3046.761          31.000  
  23632495.434   124189577.8432       -853.058          28.000  
  25186377.818   132355454.446       -4105.602          40.000  
  20624411.823   108382019.564         166.937          47.000  
  22134539.776   116317779.792       -3212.521          42.000  
  24713032.112                       -2537.411          17.000  
  20322617.811   106796071.452        -790.570          46.000  
  22426716.554   117853202.633        -261.139          45.000  
  21643227.779   113735954.768        1793.317          42.000  
  23388314.293   122906424.660       -2196.192          42.000  
  20794303.932   109274797.549         513.919          50.000  
  24566613.225                        3698.176          24.000  
  23682098.085   126416685.199       -4120.154          44.000  
  20067693.422   107273347.477        1743.703          43.000  
  20335493.804   108743049.407        2066.387          44.000  
  19789230.516   105859073.584       -1572.188          50.000  
  23799092.608   127398381.171       -4464.647          34.000  
  20038088.499   107303085.841       -2256.496          48.000  
  24262656.580                        3869.523          14.000  
 16  9 24 14  6 25.0010000  0 19G17G28G27G 1G 8R15G11G14G 3G32G22R17
                                R22R 1R24R23R 7R 8R 2
  25038800.804   131579679.248        3046.130          32.000  
  23632657.477   124190430.9982       -853.054          29.000  
  25187159.204   132359559.740       -4105.155          41.000  
  20624379.889   108381852.547         166.772          47.000  
  22135151.476   116320991.972       -3212.295          42.000  
  24713507.072                       -2544.435          19.000  
  20322768.336   106796862.081        -790.891          46.000  
  22426766.497   117853463.797        -261.678          45.000  
  21642886.208   113734161.538        1792.921          42.000  
  23388732.086   122908620.741       -2196.231          42.000  
  20794206.141   109274283.552         513.698          50.000  
  24565923.139                        3703.894          26.000  
  23682869.629   126420805.195       -4120.189          43.000  
  20067367.661   107271603.835        1743.307          43.000  
  20335106.898   108740983.026        2066.066          44.000  
  19789524.727   105860645.844       -1572.671          50.000  
  23799926.135   127402846.051       -4464.737          34.000  
  20038509.817   107305342.382       -2256.808          48.000  
  24261929.081                        3876.806          15.000  
 16  9 24 14  6 26.0010000  0 19G17G28G27G 1G 8R15G11G14G 3G32G22R17
                                R22R 1R24R23R 7R 8R 2
  25038221.003   131576632.457        3046.694          31.000  
  23632817.321   124191284.5832       -853.841          29.000  
  25187940.276   132363665.019       -4105.256          40.000  
  20624348.234   108381685.772         166.742          47.000  
  22135762.792   116324204.487       -3212.792          42.000  
  24713983.672                       -2543.830          20.000  
  20322918.757   106797653.172        -791.243          46.000  
  22426816.335   117853725.484        -261.882          45.000  
  21642544.847   113732368.588        1793.057          42.000  
  23389149.879   122910817.287       -2196.636          41.000  
  20794108.210   109273769.905         513.525          50.000  
  24565230.225                        3704.054          25.000  
  23683641.138   126424925.340       -4120.290          43.000  
  20067041.726   107269860.781        1742.953          43.000  
  20334720.411   108738917.013        2065.989          44.000  
  19789818.728   105862218.697       -1573.119          50.000  
  23800760.011   127407310.902       -4464.901          36.000  
  20038931.729   107307599.490       -2257.245          48.000  
  24261202.803                        3868.754          17.000  
 16  9 24 14  6 27.0010000  0 19G17G28G27G 1G 8R15G11G14G 3G32G22R17
                                R22R 1R24R23R 7R 8R 2
  25037641.411   131573585.593        3047.037          31.000  
  23632978.596   124192138.4522       -852.031          29.000  
  25188721.627   132367770.147       -4105.089          40.000  
  20624316.964   108381519.143         166.636          48.000  
  22136374.492   116327417.185       -3212.636          43.000  
  24714460.028                       -2544.805          20.000  
  20323069.283   106798444.594        -791.569          46.000  
  22426866.207   117853987.603        -262.244          45.000  
  21642203.486   113730575.874        1792.726          42.000  
  23389568.021   122913014.202       -2197.184          42.000  
  20794010.175   109273256.488         513.415          50.000  
  24564537.207                        3705.346          24.000  
  23684412.961   126429045.506       -4120.254          43.000  
  20066716.140   107268118.232        1742.298          43.000  
  20334334.063   108736851.294        2065.799          44.000  
  19790113.148   105863792.006       -1573.440          50.000  
  23801594.097   127411775.616       -4464.630          36.000  
  20039353.570   107309857.030       -2257.619          48.000  
  24260476.664                        3870.172          19.000  
 16  9 24 14  6 28.0010000  0 19G17G28G27G 1G 8R15G11G14G 3G32G22R17
                                R22R 1R24R23R 7R 8R 2
  25037061.505   131570538.723        3047.004          31.000  
  23633137.707   124192992.8702       -854.725          29.000  
  25189502.420   132371875.129       -4104.881          40.000  
  20624285.379   108381352.701         166.457          48.000  
  22136986.192   116330630.127       -3213.068          43.000  
  24714937.117                       -2544.787          20.000  
  20323219.704   106799236.368        -791.688          46.000  
  22426916.255   117854250.173        -262.668          45.000  
  21641861.915   113728783.373        1792.539          41.000  
  23389985.954   122915211.479       -2197.388          42.000  
  20793912.175   109272743.338         513.117          50.000  
  24563842.654                        3705.444          23.000  
  23685184.889   126433165.740       -4120.166          44.000  
  20066390.728   107266376.213        1741.737          43.000  
  20333947.645   108734785.881        2065.480          44.000  
  19790407.219   105865365.827       -1573.911          50.000  
  23802428.182   127416240.245       -4464.359          36.000  
  20039775.063   107312115.019       -2257.920          48.000  
  24259747.280                        3874.391          21.000  
 16  9 24 14  6 29.0010000  0 19G17G28G27G 1G 8R15G11G14G 3G32G22R17
                                R22R 1R24R23R 7R 8R 2
  25036482.158   131567491.934        3047.098          31.000  
  23633302.751   124193847.6732       -855.172          29.000  
  25190283.352   132375980.184       -4105.001          40.000  
  20624253.654   108381186.570         165.892          47.000  
  22137597.333   116333843.430       -3213.530          43.000  
  24715413.403                       -2546.894          20.000  
  20323370.648   106800028.673        -792.504          46.000  
  22426966.057   117854513.328        -263.311          45.000  
  21641520.589   113726991.242        1791.888          41.000  
  23390403.991   122917409.297       -2198.153          42.000  
  20793814.802   109272230.583         512.616          50.000  
  24563149.287                        3706.830          21.000  
  23685957.165   126437286.165       -4120.427          44.000  
  20066065.177   107264634.867        1741.035          43.000  
  20333561.367   108732720.928        2064.732          44.000  
  19790701.011   105866940.282       -1574.697          50.000  
  23803262.477   127420704.951       -4464.561          36.000  
  20040196.800   107314373.635       -2258.843          48.000  
  24259023.096                        3875.698          22.000  
 16  9 24 14  6 30.0010000  0 19G17G28G27G 1G 8R15G11G14G 3G32G22R17
                                R22R 1R24R23R 7R 8R 2
  25035902.741   131564445.171        3047.500          32.000  
  23633465.701   124194703.0152       -855.371          30.000  
  25191064.633   132380085.187       -4104.934          40.000  
  20624222.139   108381020.707         165.717          47.000  
  22138209.033   116337057.044       -3213.882          43.000  
  24715889.061                       -2545.361          19.000  
  20323521.558   106800821.421        -792.856          46.000  
  22427016.419   117854777.041        -263.788          45.000  
  21641179.402   113725199.426        1791.857          41.000  
  23390822.064   122919607.578       -2198.615          42.000  
  20793717.186   109271718.193         512.235          50.000  
  24562456.304                        3703.066          20.000  
  23686729.023   126441406.735       -4120.644          44.000  
  20065739.521   107262894.141        1740.688          43.000  
  20333175.299   108730656.382        2064.317          44.000  
  19790995.117   105868515.328       -1575.301          50.000  
  23804096.842   127425169.652       -4465.020          37.000  
  20040618.641   107316632.838       -2259.273          47.000  
  24258298.144                        3877.173          22.000  
 16  9 24 14  6 31.0010000  0 19G17G28G27G 1G 8R15G11G14G 3G32G22R17
                                R22R 1R24R23R 7R 8R 2
  25035322.801   131561398.388        3047.041          31.000  
  23633628.407   124195558.747        -856.266          30.000  
  25191845.809   132384190.121       -4105.180          40.000  
  20624190.275   108380855.055         165.258          47.000  
  22138820.454   116340270.903       -3214.190          43.000  
  24716365.382                       -2542.241          18.000  
  20323672.327   106801614.551        -793.437          46.000  
  22427066.606   117855041.236        -264.797          45.000  
  21640838.530   113723407.898        1790.730          41.000  
  23391240.450   122921806.287       -2199.309          42.000  
  20793619.639   109271206.089         511.657          50.000  
  24561762.693                        3701.106          21.000  
  23687501.126   126445527.392       -4120.972          44.000  
  20065413.900   107261153.997        1739.727          43.000  
  20332789.370   108728592.156        2063.697          44.000  
  19791288.839   105870090.902       -1576.134          50.000  
  23804931.067   127429634.278       -4465.100          38.000  
  20041040.727   107318892.567       -2260.259          47.000  
  24257572.808                        3873.573          24.000  
 16  9 24 14  6 32.0010000  0 19G17G28G27G 1G 8R15G11G14G 3G32G22R17
                                R22R 1R24R23R 7R 8R 2
  25034742.825   131558351.693        3046.522          30.000  
  23633790.694   124196414.943        -856.316          29.000  
  25192626.637   132388295.074       -4105.024          40.000  
  20624158.725   108380689.701         165.244          47.000  
  22139432.189   116343485.145       -3214.578          43.000  
  24716842.960                       -2542.241          17.000  
  20323823.167   106802408.203        -794.091          46.000  
  22427117.037   117855305.999        -265.171          45.000  
  21640497.622   113721616.693        1790.879          41.000  
  23391659.011   122924005.489       -2199.437          42.000  
  20793522.267   109270694.371         511.423          50.000  
  24561071.873                        3696.548          22.000  
  23688272.984   126449648.231       -4121.085          43.000  
  20065088.069   107259414.509        1739.057          43.000  
  20332403.231   108726528.361        2063.574          44.000  
  19791583.433   105871667.117       -1576.655          50.000  
  23805765.152   127434098.930       -4464.901          38.000  
  20041462.848   107321152.901       -2260.657          47.000  
  24256846.251                        3872.249          23.000  
 16  9 24 14  6 33.0010000  0 19G17G28G27G 1G 8R15G11G14G 3G32G22R17
                                R22R 1R24R23R 7R 8R 2
  25034159.988   131555305.168        3046.833          30.000  
  23633952.318   124197271.830        -857.056          29.000  
  25193407.778   132392400.116       -4104.683          40.000  
  20624127.350   108380524.762         164.991          47.000  
  22140044.063   116346699.828       -3214.777          43.000  
  24717321.515                       -2548.901          18.000  
  20323974.321   106803202.423        -794.212          46.000  
  22427167.503   117855571.446        -265.539          45.000  
  21640156.750   113719825.968        1790.637          41.000  
  23392077.572   122926205.317       -2199.884          42.000  
  20793424.720   109270183.158         511.132          50.000  
  24560381.962                        3704.673          21.000  
  23689045.016   126453769.369       -4121.192          44.000  
  20064762.413   107257675.792        1738.517          43.000  
  20332017.337   108724465.103        2062.993          44.000  
  19791878.203   105873244.060       -1577.044          50.000  
  23806599.273   127438563.675       -4464.450          38.000  
  20041885.003   107323413.937       -2261.127          47.000  
  24256117.774                        3873.794          24.000  
 16  9 24 14  6 34.0010000  0 19G17G28G27G 1G 8R15G11G14G 3G32G22R17
                                R22R 1R24R23R 7R 8R 2
  25033574.952   131552258.699        3046.274          29.000  
  23634116.769   124198129.176        -858.394          30.000  
  25194189.059   132396505.144       -4104.988          40.000  
  20624096.149   108380360.084         164.517          47.000  
  22140655.938   116349914.808       -3215.032          43.000  
  24717800.279                       -2545.968          20.000  
  20324125.265   106803997.116        -794.926          46.000  
  22427217.899   117855837.435        -266.262          45.000  
  21639816.086   113718035.574        1790.209          41.000  
  23392496.412   122928405.622       -2200.791          42.000  
  20793327.488   109269672.290         510.667          50.000  
  24559691.108                        3705.673          25.000  
  23689817.188   126457890.664       -4121.320          44.000  
  20064436.304   107255937.681        1737.960          42.000  
  20331631.618   108722402.246        2062.517          44.000  
  19792173.146   105874821.590       -1577.927          50.000  
  23807433.323   127443028.414       -4464.647          38.000  
  20042307.264   107325675.530       -2261.956          47.000  
  24255390.728                        3872.267          23.000  
 16  9 24 14  6 35.0010000  0 19G17G28G27G 1G 8R15G11G14G 3G32G22R17
                                R22R 1R24R23R 7R 8R 2
  25032997.385   131549212.227        3046.875          30.000  
  23634277.764   124198986.933        -858.564          30.000  
  25194970.585   132400610.162       -4105.427          40.000  
  20624064.913   108380195.680         163.985          47.000  
  22141267.707   116353130.116       -3215.855          43.000  
  24718275.099                       -2544.614          21.000  
  20324276.698   106804792.259        -795.624          46.000  
  22427268.749   117856103.961        -267.070          45.000  
  21639475.249   113716245.483        1789.789          41.000  
  23392915.113   122930606.385       -2201.315          42.000  
  20793230.185   109269161.778         510.038          50.000  
  24558999.869                        3706.447          26.000  
  23690589.326   126462012.100       -4121.716          44.000  
  20064110.892   107254200.203        1736.888          42.000  
  20331245.968   108720339.796        2062.027          44.000  
  19792468.578   105876399.705       -1578.598          50.000  
  23808267.444   127447493.173       -4465.140          38.000  
  20042729.594   107327937.707       -2262.816          48.000  
  24254664.625                        3867.514          21.000  
 16  9 24 14  6 36.0010000  0 19G17G28G27G 1G 8R15G11G14G 3G32G22R17
                                R22R 1R24R23R 7R 8R 2
  25032419.364   131546166.082        3045.271          31.000  
  23634445.147   124199845.312        -859.190          30.000  
  25195751.552   132404715.292       -4105.278          39.000  
  20624033.991   108380031.706         163.437          47.000  
  22141879.756   116356345.896       -3216.376          43.000  
  24718750.862                       -2548.297          21.000  
  20324428.236   106805588.034        -796.413          46.000  
  22427319.110   117856371.189        -267.710          45.000  
  21639134.516   113714455.884        1789.028          41.000  
  23393333.534   122932807.786       -2201.938          42.000  
  20793133.232   109268651.787         509.366          50.000  
  24558309.399                        3705.656          26.000  
  23691361.707   126466133.834       -4122.226          44.000  
  20063785.411   107252463.504        1736.021          42.000  
  20330860.388   108718277.923        2061.354          44.000  
  19792764.080   105877978.584       -1579.615          50.000  
  23809102.053   127451958.118       -4465.309          39.000  
  20043152.064   107330200.615       -2263.634          48.000  
  24253941.488                        3875.948          19.000  
 16  9 24 14  6 37.0010000  0 19G17G28G27G 1G 8R15G11G14G 3G32G22R17
                                R22R 1R24R23R 7R 8R 2
  25031843.018   131543120.057        3044.670          31.000  
  23634609.388   124200704.289        -859.510          31.000  
  25196532.659   132408820.523       -4105.179          39.000  
  20624002.720   108379868.120         163.265          47.000  
  22142491.910   116359562.107       -3216.567          43.000  
  24719228.056                       -2544.438          21.000  
  20324579.634   106806384.377        -796.760          46.000  
  22427370.170   117856639.087        -268.344          45.000  
  21638793.818   113712666.694        1789.252          41.000  
  23393752.409   122935009.779       -2202.262          42.000  
  20793036.313   109268142.254         509.375          50.000  
  24557615.963                        3706.323          26.000  
  23692133.844   126470255.853       -4122.273          44.000  
  20063460.173   107250727.519        1735.578          42.000  
  20330474.843   108716216.563        2061.114          44.000  
  19793059.478   105879558.182       -1579.910          50.000  
  23809936.592   127456423.268       -4465.561          39.000  
  20043574.952   107332464.208       -2263.906          48.000  
  24253214.930                        3873.591          22.000  
 16  9 24 14  6 38.0010000  0 19G17G28G27G 1G 8R15G11G14G 3G32G22R17
                                R22R 1R24R23R 7R 8R 2
  25031265.485   131540073.884        3045.968          31.000  
  23634774.049   124201563.637        -858.403          31.000  
  25197313.835   132412925.703       -4105.452          39.000  
  20623971.519   108379704.739         163.051          47.000  
  22143104.064   116362778.587       -3216.768          43.000  
  24719704.028                       -2541.851          20.000  
  20324731.137   106807181.125        -797.237          46.000  
  22427421.264   117856907.463        -268.820          45.000  
  21638453.120   113710877.824        1788.534          41.000  
  23394171.703   122937212.160       -2202.489          41.000  
  20792939.779   109267633.036         508.922          50.000  
  24556925.422                        3706.037          25.000  
  23692906.400   126474377.979       -4122.230          44.000  
  20063135.425   107248992.102        1734.831          42.000  
  20330089.297   108714155.534        2060.738          44.000  
  19793355.224   105881138.324       -1580.540          50.000  
  23810770.922   127460888.277       -4465.032          40.000  
  20043997.806   107334728.323       -2264.457          48.000  
  24252490.048                        3872.786          24.000  
 16  9 24 14  6 39.0010000  0 19G17G28G27G 1G 8R15G11G14G 3G32G22R17
                                R22R 1R24R23R 7R 8R 2
  25030684.603   131537028.235        3045.207          32.000  
  23634926.040   124202424.000        -861.116          30.000  
  25198095.151   132417031.220       -4105.766          39.000  
  20623940.528   108379541.983         162.478          47.000  
  22143716.392   116365995.727       -3217.336          43.000  
  24720178.499                       -2548.629          20.000  
  20324882.919   106807978.686        -797.801          46.000  
  22427472.637   117857176.761        -269.854          45.000  
  21638113.224   113709089.595        1788.019          41.000  
  23394590.752   122939415.419       -2203.721          41.000  
  20792843.035   109267124.532         508.202          50.000  
  24556231.497                        3698.887          22.000  
  23693678.363   126478500.631       -4122.816          43.000  
  20062810.432   107247257.659        1733.963          42.000  
  20329704.032   108712095.256        2059.862          44.000  
  19793651.180   105882719.451       -1581.641          50.000  
  23811605.496   127465353.643       -4465.344          40.000  
  20044420.346   107336993.358       -2265.383          47.000  
  24251764.713                        3872.296          26.000  
 16  9 24 14  6 40.0010000  0 19G17G28G27G 1G 8R15G11G14G 3G32G22R17
                                R22R 1R24R23R 7R 8R 2
  25030105.116   131533982.640        3045.707          30.000  
  23635099.530   124203284.800        -861.404          30.000  
  25198875.944   132421136.799       -4106.014          39.000  
  20623909.710   108379379.611         162.017          47.000  
  22144329.104   116369213.321       -3218.111          43.000  
  24720655.763                       -2547.988          19.000  
  20325034.840   106808776.824        -798.625          46.000  
  22427524.115   117857446.693        -270.368          45.000  
  21637773.539   113707301.824        1787.439          42.000  
  23395010.186   122941619.267       -2204.273          42.000  
  20792745.942   109266616.491         507.641          50.000  
  24555538.514                        3704.822          19.000  
  23694450.954   126482623.543       -4123.299          44.000  
  20062485.718   107245523.960        1733.261          41.000  
  20329319.115   108710035.459        2059.443          44.000  
  19793947.065   105884301.265       -1582.336          50.000  
  23812440.070   127469819.129       -4465.550          39.000  
  20044843.513   107339259.065       -2266.294          47.000  
  24251038.784   129408189.6603       3871.332          27.000  
 16  9 24 14  6 41.0010000  0 19G17G28G27G 1G 8R15G11G14G 3G32G22R17
                                R22R 1R24R23R 7R 8R 2
  25029524.233   131530937.148        3045.627          30.000  
  23635255.884   124204146.039        -861.643          30.000  
  25199656.946   132425242.229       -4105.318          39.000  
  20623878.893   108379217.407         161.900          47.000  
  22144941.327   116372431.126       -3217.897          43.000  
  24721133.410                       -2547.135          20.000  
  20325186.657   106809575.314        -798.870          46.000  
  22427575.594   117857717.078        -270.749          45.000  
  21637433.085   113705514.273        1787.126          42.000  
  23395429.270   122943823.482       -2204.409          40.000  
  20792649.442   109266108.701         507.506          50.000  
  24554845.880                        3709.653          17.000  
  23695223.545   126486746.507       -4123.089          44.000  
  20062160.726   107243790.774        1732.837          41.000  
  20328934.128   108707975.952        2059.249          44.000  
  19794242.847   105885883.566       -1582.647          50.000  
  23813274.679   127474284.522       -4465.517          40.000  
  20045266.751   107341525.225       -2266.324          48.000  
  24250309.958   129404317.6702       3872.406          27.000  
 16  9 24 14  6 42.0010000  0 19G17G28G27G 1G 8R15G11G14G 3G32G22R17
                                R22R 1R24R23R 7R 8R 2
  25028945.619   131527891.743        3044.954          30.000  
  23635427.594   124205007.773        -861.769          30.000  
  25200438.331   132429347.810       -4105.759          39.000  
  20623848.111   108379055.572         161.603          47.000  
  22145554.109   116375649.374       -3218.591          43.000  
  24721610.080                       -2553.879          19.000  
  20325338.788   106810374.366        -799.385          46.000  
  22427627.002   117857988.115        -271.398          45.000  
  21637093.364   113703727.146        1787.070          42.000  
  23395848.564   122946028.257       -2205.121          40.000  
  20792552.907   109265601.374         507.093          49.000  
  24554152.792                        3714.200          19.000  
  23695995.787   126490869.705       -4123.184          44.000  
  20061836.186   107242058.309        1732.244          41.000  
  20328549.525   108705916.972        2058.659          44.000  
  19794538.418   105887466.554       -1583.332          50.000  
  23814109.358   127478750.020       -4465.508          39.000  
  20045690.093   107343792.098       -2267.155          47.000  
  24249583.191   129400445.9702       3872.492          26.000  
 16  9 24 14  6 43.0010000  0 19G17G28G27G 1G 8R15G11G14G 3G32G22R17
                                R22R 1R24R23R 7R 8R 2
  25028364.038   131524846.744        3044.675          29.000  
  23635589.532   124205870.457        -862.657          31.000  
  25201219.613   132433453.772       -4106.180          39.000  
  20623817.573   108378894.446         160.590          47.000  
  22146166.647   116378868.362       -3219.497          43.000  
  24722089.159                       -2557.367          21.000  
  20325490.780   106811174.302        -800.415          46.000  
  22427678.515   117858260.116        -272.682          45.000  
  21636753.503   113701940.777        1786.027          42.000  
  23396268.311   122948233.968       -2206.686          41.000  
  20792456.338   109265094.832         506.102          49.000  
  24553459.216                        3703.265          17.000  
  23696768.413   126494993.494       -4124.042          44.000  
  20061511.682   107240326.929        1730.717          41.000  
  20328164.783   108703858.849        2057.595          44.000  
  19794834.374   105889050.572       -1584.649          50.000  
  23814943.862   127483215.945       -4466.196          39.000  
  20046113.610   107346060.009       -2268.502          47.000  
  24248855.936   129396574.7322       3870.557          27.000  
 16  9 24 14  6 44.0010000  0 19G17G28G27G 1G 8R15G11G14G 3G32G22R17
                                R22R 1R24R23R 7R 8R 2
  25027778.548   131521801.907        3045.258          28.000  
  23635758.031   124206733.687        -864.204          32.000  
  25202000.998   132437559.735       -4106.464          39.000  
  20623786.896   108378733.608         160.552          47.000  
  22146779.289   116382087.676       -3219.673          43.000  
  24722565.410                       -2551.121          22.000  
  20325643.190   106811974.740        -800.922          46.000  
  22427730.656   117858532.698        -273.097          45.000  
  21636413.783   113700154.760        1785.394          42.000  
  23396687.989   122950440.130       -2206.407          41.000  
  20792359.908   109264588.671         505.800          49.000  
  24552767.559                        3703.265          16.000  
  23697540.864   126499117.459       -4124.111          44.000  
  20061187.597   107238596.168        1730.281          41.000  
  20327779.866   108701801.152        2057.254          44.000  
  19795130.400   105890635.191       -1585.139          50.000  
  23815778.332   127487681.878       -4465.945          39.000  
  20046537.127   107348328.509       -2269.006          47.000  
  24248131.647   129392703.5352       3871.796          28.000  
 16  9 24 14  6 45.0010000  0 19G17G28G27G 1G 8R15G11G14G 3G32G22R17
                                R22R 1R24R23R 7R 8R 2
  25027196.758   131518757.165        3044.790          28.000  
  23635925.868   124207597.424        -863.738          33.000  
  25202782.733   132441665.806       -4106.481          39.000  
  20623756.358   108378573.185         159.975          47.000  
  22147392.071   116385307.467       -3220.245          43.000  
  24723043.616                       -2543.493          22.000  
  20325795.600   106812775.763        -801.552          46.000  
  22427782.763   117858805.946        -273.684          45.000  
  21636074.201   113698369.199        1784.904          42.000  
  23397108.086   122952646.939       -2207.181          41.000  
  20792263.443   109264083.015         505.124          49.000  
  24552077.438                        3703.265          12.000  
  23698313.420   126503241.728       -4124.586          44.000  
  20060863.721   107236866.191        1729.497          41.000  
  20327395.019   108699744.011        2056.682          44.000  
  19795426.460   105892220.553       -1586.056          50.000  
  23816612.871   127492147.992       -4466.291          39.000  
  20046960.644   107350597.702       -2269.730          47.000  
  24247406.137   129388832.5102       3871.674          29.000  
 16  9 24 14  6 46.0010000  0 19G17G28G27G 1G 8R15G11G14G 3G32G22R17
                                R22R 1R24R23R 7R 8R 2
  25026614.863   131515712.842        3044.416          28.000  
  23636089.935   124208462.036        -865.098          32.000  
  25203563.840   132445772.134       -4106.271          39.000  
  20623726.099   108378413.340         159.754          47.000  
  22148004.713   116388527.881       -3220.547          43.000  
  24723523.462                       -2559.291          22.000  
  20325948.045   106813577.554        -801.885          46.000  
  22427834.834   117859080.060        -274.219          45.000  
  21635734.515   113696584.265        1784.882          42.000  
  23397528.008   122954854.522       -2207.560          41.000  
  20792167.327   109263578.016         504.955          49.000  
  24551385.083                        3701.811          17.000  
  23699085.872   126507366.449       -4124.783          44.000  
  20060540.054   107235137.156        1728.775          41.000  
  20327010.590   108697687.602        2056.264          44.000  
  19795722.555   105893806.829       -1586.387          50.000  
  23817447.654   127496614.385       -4466.174          39.000  
  20047384.474   107352867.761       -2270.285          47.000  
  24246672.041   129384961.9612       3870.984          29.000  
 16  9 24 14  6 47.0010000  0 19G17G28G27G 1G 8R15G11G14G 3G32G22R17
                                R22R 1R24R23R 7R 8R 2
  25026032.654   131512668.401        3044.443          28.000  
  23636252.222   124209326.955        -865.377          32.000  
  25204345.226   132449878.355       -4106.137          40.000  
  20623695.910   108378253.636         159.409          47.000  
  22148617.285   116391748.482       -3220.842          43.000  
  24724000.027                       -2548.998          22.000  
  20326100.909   106814379.682        -802.429          46.000  
  22427886.871   117859354.595        -274.912          45.000  
  21635394.969   113694799.518        1784.510          41.000  
  23397948.104   122957062.480       -2208.213          41.000  
  20792071.177   109263073.238         504.646          49.000  
  24550692.903                        3708.135          18.000  
  23699858.428   126511491.188       -4124.865          44.000  
  20060216.771   107233408.627        1728.076          42.000  
  20326626.197   108695631.443        2055.763          44.000  
  19796018.930   105895393.574       -1587.157          50.000  
  23818282.194   127501080.633       -4466.335          38.000  
  20047808.480   107355138.248       -2270.920          47.000  
  24245943.529   129381091.3432       3870.343          28.000  
 16  9 24 14  6 48.0010000  0 19G17G28G27G 1G 8R15G11G14G 3G32G22R17
                                R22R 1R24R23R 7R 8R 2
  25025453.341   131509624.161        3043.867          28.000  
  23636417.615   124210192.484        -866.346          32.000  
  25205126.612   132453984.710       -4107.124          39.000  
  20623665.861   108378094.348         158.605          48.000  
  22149229.893   116394969.561       -3221.845          43.000  
  24724477.186                       -2540.328          22.000  
  20326253.773   106815182.423        -803.615          46.000  
  22427938.977   117859629.823        -275.958          45.000  
  21635055.458   113693015.269        1783.633          42.000  
  23398368.096   122959271.064       -2209.657          41.000  
  20791975.550   109262568.984         503.505          49.000  
  24550001.071                        3708.135          17.000  
  23700630.460   126515616.242       -4125.588          43.000  
  20059893.907   107231680.860        1726.898          42.000  
  20326241.908   108693575.820        2054.820          44.000  
  19796315.584   105896981.064       -1588.335          50.000  
  23819116.872   127505547.055       -4467.206          38.000  
  20048232.660   107357409.506       -2272.142          47.000  
  24245220.707   129377220.934        3869.855          28.000  
 16  9 24 14  6 49.0010000  0 19G17G28G27G 1G 8R15G11G14G 3G32G22R17
                                R22R 1R24R23R 7R 8R 2
  25024874.029   131506580.123        3043.758          28.000  
  23636581.751   124211058.558        -866.136          32.000  
  25205907.195   132458091.077       -4106.282          39.000  
  20623635.498   108377935.432         158.758          48.000  
  22149842.744   116398191.033       -3221.515          43.000  
  24724957.207                       -2551.859          23.000  
  20326406.462   106815985.702        -803.555          46.000  
  22427991.607   117859905.686        -276.227          45.000  
  21634715.876   113691231.429        1783.722          42.000  
  23398788.332   122961480.190       -2209.300          41.000  
  20791879.399   109262065.173         503.551          49.000  
  24549309.484                        3705.774          18.000  
  23701402.458   126519741.535       -4125.396          43.000  
  20059571.218   107229953.826        1726.774          42.000  
  20325857.550   108691520.673        2055.012          44.000  
  19796611.888   105898569.234       -1588.513          49.000  
  23819951.202   127510013.567       -4466.330          39.000  
  20048657.154   107359681.439       -2272.194          48.000  
  24244499.698   129373350.655        3870.380          27.000  
 16  9 24 14  6 50.0010000  0 19G17G28G27G 1G 8R15G11G14G 3G32G22R17
                                R22R 1R24R23R 7R 8R 2
  25024293.809   131503536.333        3044.292          28.000  
  23636743.131   124211925.422        -867.605          31.000  
  25206688.162   132462197.740       -4106.473          38.000  
  20623605.414   108377777.041         158.589          48.000  
  22150455.910   116401413.099       -3221.907          43.000  
  24725437.995                       -2550.775          24.000  
  20326559.466   106816789.695        -803.945          46.000  
  22428044.481   117860182.348        -276.632          45.000  
  21634376.784   113689448.152        1783.544          42.000  
  23399208.778   122963690.039       -2209.476          41.000  
  20791783.667   109261561.966         503.234          49.000  
  24548618.142                        3701.512          18.000  
  23702175.572   126523867.258       -4125.543          44.000  
  20059248.668   107228227.661        1726.212          43.000  
  20325473.122   108689466.191        2054.407          44.000  
  19796908.577   105900158.263       -1589.127          49.000  
  23820785.881   127514480.398       -4466.756          39.000  
  20049081.962   107361954.173       -2272.746          48.000  
  24243771.117   129369480.599        3870.386          27.000  
 16  9 24 14  6 51.0010000  0 19G17G28G27G 1G 8R15G11G14G 3G32G22R17
                                R22R 1R24R23R 7R 8R 2
  25023716.696   131500492.830        3043.154          28.000  
  23636913.340   124212792.889        -867.265          32.000  
  25207469.303   132466304.575       -4106.521          38.000  
  20623575.225   108377619.141         157.913          48.000  
  22151069.180   116404635.689       -3222.726          43.000  
  24725917.981                       -2556.134          23.000  
  20326712.819   106817594.382        -804.816          46.000  
  22428097.285   117860459.780        -277.603          45.000  
  21634037.691   113687665.432        1782.848          42.000  
  23399629.363   122965900.621       -2210.835          41.000  
  20791687.691   109261059.347         502.447          49.000  
  24547926.380                        3699.160          18.000  
  23702948.756   126527993.342       -4126.159          44.000  
  20058926.363   107226502.362        1725.170          43.000  
  20325088.519   108687412.335        2053.770          44.000  
  19797205.894   105901748.136       -1590.163          49.000  
  23821620.630   127518947.402       -4466.819          39.000  
  20049506.421   107364227.679       -2273.777          47.000  
  24243042.640   129365610.901        3869.745          28.000  
 16  9 24 14  6 52.0010000  0 19G17G28G27G 1G 8R15G11G14G 3G32G22R17
                                R22R 1R24R23R 7R 8R 2
  25023138.046   131497449.548        3042.683          28.000  
  23637078.454   124213661.092        -868.261          32.000  
  25208251.213   132470411.587       -4107.207          39.000  
  20623545.141   108377461.692         157.129          48.000  
  22151682.905   116407858.796       -3223.462          43.000  
  24726398.839                       -2552.735          23.000  
  20326865.927   106818399.712        -805.691          46.000  
  22428150.334   117860737.944        -278.720          45.000  
  21633698.633   113685883.212        1782.296          42.000  
  23400050.297   122968111.820       -2211.640          41.000  
  20791592.098   109260557.267         501.691          49.000  
  24547234.933                        3699.160          16.000  
  23703722.429   126532119.783       -4126.763          44.000  
  20058604.546   107224777.877        1724.102          43.000  
  20324704.230   108685359.058        2052.964          44.000  
  19797503.106   105903338.782       -1591.087          49.000  
  23822455.657   127523414.597       -4467.597          39.000  
  20049931.194   107366501.922       -2274.681          47.000  
  24242317.898   129361741.518        3869.342          28.000  
 16  9 24 14  6 53.0010000  0 20R16G17G28G27G 1G 8R15G11G14G 3G32G22
                                R17R22R 1R24R23R 7R 8R 2
  24647031.281                         341.014          25.000  
  25022555.244   131494406.469        3042.854          27.000  
  23637243.289   124214529.939        -869.278          32.000  
  25209032.738   132474518.738       -4106.976          39.000  
  20623515.475   108377304.717         156.569          48.000  
  22152296.768   116411082.401       -3224.101          43.000  
  24726878.545                       -2556.595          22.000  
  20327019.209   106819205.689        -806.334          46.000  
  22428203.697   117861016.824        -279.313          45.000  
  21633359.855   113684101.537        1781.465          42.000  
  23400471.127   122970323.694       -2212.266          41.000  
  20791496.890   109260055.731         501.108          49.000  
  24546543.206                        3705.895          17.000  
  23704495.753   126536246.554       -4127.300          44.000  
  20058282.450   107223054.226        1723.169          43.000  
  20324320.221   108683306.398        2052.327          44.000  
  19797800.178   105904930.218       -1591.833          49.000  
  23823290.476   127527881.973       -4467.425          39.000  
  20050356.002   107368776.946       -2275.636          47.000  
  24241593.539   129357872.344        3869.452          29.000  
 16  9 24 14  6 54.0010000  0 20R16G17G28G27G 1G 8R15G11G14G 3G32G22
                                R17R22R 1R24R23R 7R 8R 2
  24646967.099                         342.684          25.000  
  25021977.537   131491363.593        3042.821          28.000  
  23637406.693   124215399.364        -869.716          31.000  
  25209814.159   132478625.948       -4107.385          39.000  
  20623485.391   108377148.056         156.439          48.000  
  22152910.283   116414306.405       -3224.337          43.000  
  24727356.507                       -2554.700          20.000  
  20327172.632   106820012.209        -806.934          46.000  
  22428257.094   117861296.325        -279.860          45.000  
  21633021.181   113682320.227        1781.238          42.000  
  23400892.026   122972536.138       -2212.894          41.000  
  20791401.437   109259554.620         500.882          49.000  
  24545849.246                        3708.185          17.000  
  23705269.182   126540373.540       -4127.176          44.000  
  20057960.249   107221331.242        1722.511          43.000  
  20323936.246   108681254.229        2051.983          44.000  
  19798097.704   105906522.328       -1592.502          49.000  
  23824125.224   127532349.434       -4467.588          39.000  
  20050781.229   107371052.615       -2275.955          47.000  
  24240867.645   129354003.358        3869.458          28.000  
 16  9 24 14  6 55.0010000  0 20R16G17G28G27G 1G 8R15G11G14G 3G32G22
                                R17R22R 1R24R23R 7R 8R 2
  24646905.604                         339.640          25.000  
  25021396.340   131488320.892        3042.664          28.000  
  23637569.015   124216269.461        -871.307          31.000  
  25210595.231   132482733.353       -4107.756          38.000  
  20623455.726   108376991.888         155.929          48.000  
  22153523.938   116417530.918       -3224.731          43.000  
  24727834.992                       -2561.834          20.000  
  20327326.368   106820819.378        -807.774          46.000  
  22428310.701   117861576.591        -280.869          45.000  
  21632682.542   113680539.486        1780.160          42.000  
  23401313.100   122974749.242       -2213.593          41.000  
  20791306.229   109259054.068         500.081          49.000  
  24545157.589                        3708.185          16.000  
  23706042.226   126544500.903       -4127.677          43.000  
  20057638.537   107219609.068        1721.780          43.000  
  20323552.551   108679202.691        2051.171          44.000  
  19798395.789   105908115.229       -1593.442          49.000  
  23824959.938   127536817.127       -4467.664          39.000  
  20051206.456   107373329.086       -2276.967          47.000  
  24240144.124   129350134.623        3868.671          29.000  
 16  9 24 14  6 56.0010000  0 19G17G28G27G 1G 8R15G11G14G 3G32G22R17
                                R22R 1R24R23R 7R 8R 2
  25020816.190   131485278.370        3042.473          28.000  
  23637736.712   124217140.092        -871.531          31.000  
  25211376.616   132486840.805       -4107.363          38.000  
  20623425.956   108376836.073         155.582          48.000  
  22154137.522   116420755.866       -3225.534          43.000  
  24728313.616                       -2545.795          18.000  
  20327480.384   106821627.101        -808.293          46.000  
  22428364.483   117861857.464        -281.268          45.000  
  21632343.799   113678759.110        1780.244          42.000  
  23401734.383   122976962.908       -2214.067          41.000  
  20791210.916   109258553.953         499.723          49.000  
  24544464.048                        3707.431          16.000  
  23706815.411   126548628.513       -4127.908          44.000  
  20057316.475   107217887.627        1720.932          43.000  
  20323168.820   108677151.653        2050.577          44.000  
  19798693.560   105909708.815       -1594.237          49.000  
  23825794.861   127541284.890       -4468.213          39.000  
  20051631.543   107375606.212       -2277.589          47.000  
  24239419.800   129346265.963        3868.640          28.000  
 16  9 24 14  6 57.0010000  0 19G17G28G27G 1G 8R15G11G14G 3G32G22R17
                                R22R 1R24R23R 7R 8R 2
  25020239.216   131482235.960        3042.990          27.000  
  23637902.454   124218011.304        -870.821          31.000  
  25212157.863   132490948.396       -4107.365          38.000  
  20623396.534   108376680.698         155.287          48.000  
  22154751.456   116423981.249       -3225.360          43.000  
  24728790.217                       -2564.155          18.000  
  20327634.330   106822435.442        -808.569          46.000  
  22428417.706   117862139.068        -281.921          45.000  
  21632005.369   113676979.279        1779.451          43.000  
  23402155.073   122979177.223       -2214.679          40.000  
  20791116.022   109258054.356         499.513          49.000  
  24543768.656                        3707.143          15.000  
  23707589.467   126552756.439       -4128.088          44.000  
  20056994.903   107216166.966        1720.184          43.000  
  20322785.160   108675101.179        2050.205          44.000  
  19798991.365   105911303.161       -1594.641          49.000  
  23826629.819   127545752.736       -4467.428          39.000  
  20052056.735   107377884.053       -2277.940          47.000  
  24238700.886   129342397.634        3868.390          28.000  
 16  9 24 14  6 58.0010000  0 20G17G28G27G 1G 8R15G11G14G 3G32G22R17
                                R22R 1R24R23R 7R 8R 2G10
  25019662.207   131479193.896        3042.141          28.000  
  23638068.370   124218883.237        -872.048          31.000  
  25212939.179   132495056.075       -4106.997          38.000  
  20623367.044   108376525.712         155.093          48.000  
  22155365.215   116427207.116       -3226.057          43.000  
  24729269.051                       -2561.976          18.000  
  20327787.996   106823244.368        -808.826          46.000  
  22428471.418   117862421.335        -282.390          45.000  
  21631666.870   113675199.851        1779.462          43.000  
  23402576.181   122981392.099       -2214.674          40.000  
  20791020.988   109257555.247         499.202          49.000  
  24543077.139                        3707.143          15.000  
  23708363.664   126556884.593       -4127.891          44.000  
  20056673.400   107214447.046        1719.884          43.000  
  20322401.499   108673051.233        2049.980          44.000  
  19799289.624   105912898.234       -1595.149          49.000  
  23827464.428   127550220.789       -4467.500          38.000  
  20052482.137   107380162.598       -2278.681          47.000  
  24237977.575   129338529.429        3867.865          29.000  
  26095787.505                       -3728.061          17.000  
 16  9 24 14  6 59.0010000  0 20G17G28G27G 1G 8R15G11G14G 3G32G22R17
                                R22R 1R24R23R 7R 8R 2G10
  25019097.065   131476152.020        3042.532          30.000  
  23638235.020   124219755.832        -872.959          32.000  
  25213721.123   132499164.055       -4107.756          38.000  
  20623337.867   108376371.263         154.462          48.000  
  22155978.660   116430433.571       -3226.782          43.000  
  24729749.316                       -2561.976          17.000  
  20327942.500   106824054.024        -809.856          46.000  
  22428525.025   117862704.411        -283.313          45.000  
  21631328.719   113673421.021        1778.890          43.000  
  23402997.534   122983607.770       -2215.925          40.000  
  20790926.163   109257056.759         498.388          49.000  
  24542383.947                        3707.143          14.000  
  23709137.127   126561013.189       -4128.749          44.000  
  20056351.792   107212728.028        1718.682          43.000  
  20322018.118   108671001.935        2049.156          44.000  
  19799587.848   105914494.178       -1596.089          49.000  
  23828299.247   127554689.104       -4468.219          38.000  
  20052907.748   107382441.974       -2279.430          48.000  
  24237252.728   129334661.697        3867.865          29.000  
  26096499.230                       -3728.061          16.000  
 16  9 24 14  7  0.0010000  0 20G17G28G27G 1G 8R15G11G14G 3G32G22R17
                                R22R 1R24R23R 7R 8R 2G10
  25018516.985   131473110.322        3041.486          30.000  
  23638401.425   124220628.963        -873.071          32.000  
  25214502.753   132503272.036       -4107.865          38.000  
  20623308.655   108376217.146         153.873          48.000  
  22156592.489   116433660.391       -3226.960          43.000  
  24730229.127                       -2566.080          17.000  
  20328096.656   106824864.193        -810.579          46.000  
  22428579.365   117862988.089        -283.988          45.000  
  21630990.290   113671642.574        1777.948          43.000  
  23403419.271   122985823.936       -2216.356          40.000  
  20790831.548   109256558.679         497.677          49.000  
  24541691.417                        3707.143          11.000  
  23709910.870   126565141.978       -4129.073          43.000  
  20056030.429   107211009.686        1717.897          43.000  
  20321635.086   108668953.087        2048.425          44.000  
  19799886.212   105916090.783       -1597.130          49.000  
  23829133.926   127559157.480       -4468.577          38.000  
  20053333.254   107384721.982       -2280.440          48.000  
  24236529.032   129330793.940        3867.877          28.000  
  26097205.265                       -3728.061          16.000  
 16  9 24 14  7  1.0010000  0 20G17G28G27G 1G 8R15G11G14G 3G32G22R17
                                R22R 1R24R23R 7R 8R 2G10
  25017939.557   131470068.888        3042.063          31.000  
  23638567.482   124221502.820        -874.771          32.000  
  25215284.732   132507380.270       -4108.562          38.000  
  20623279.374   108376063.574         153.104          48.000  
  22157206.527   116436887.787       -3227.506          43.000  
  24730709.252                       -2566.080          16.000  
  20328251.125   106825675.073        -811.112          46.000  
  22428634.054   117863272.576        -284.803          46.000  
  21630652.279   113669864.710        1777.556          43.000  
  23403840.938   122988040.837       -2216.936          40.000  
  20790736.863   109256061.214         497.172          49.000  
  24540998.330                        3704.968          14.000  
  23710684.263   126569271.194       -4129.428          43.000  
  20055709.275   107209292.250        1716.981          43.000  
  20321251.844   108666904.889        2048.002          44.000  
  19800184.646   105917688.257       -1597.881          49.000  
  23829968.674   127563626.101       -4468.666          38.000  
  20053759.283   107387002.833       -2281.333          48.000  
  24235805.930   129326926.683        3867.633          27.000  
  26097917.723                       -3728.061          16.000  
 16  9 24 14  7  2.0010000  0 20G17G28G27G 1G 8R15G11G14G 3G32G22R17
                                R22R 1R24R23R 7R 8R 2G10
  25017364.747   131467027.646        3040.367          31.000  
  23638733.398   124222377.285        -875.457          31.000  
  25216066.502   132511488.569       -4108.885          38.000  
  20623250.162   108375910.360         152.604          47.000  
  22157821.019   116440115.644       -3228.628          43.000  
  24731190.285                       -2566.080          15.000  
  20328405.664   106826486.543        -812.146          47.000  
  22428687.940   117863557.730        -285.910          46.000  
  21630314.199   113668087.294        1776.707          43.000  
  23404262.954   122990258.364       -2218.143          40.000  
  20790642.178   109255564.227         496.371          49.000  
  24540305.102                        3705.399          19.000  
  23711458.006   126573400.688       -4130.076          43.000  
  20055388.366   107207575.552        1715.837          43.000  
  20320869.021   108664857.225        2046.928          44.000  
  19800483.394   105919286.444       -1598.907          49.000  
  23830803.318   127568094.834       -4469.065          37.000  
  20054185.522   107389284.364       -2282.168          48.000  
  24235078.780   129323059.537        3866.931          28.000  
  26098625.957                       -3728.061          16.000  
 16  9 24 14  7  3.0010000  0 20G17G28G27G 1G 8R15G11G14G 3G32G22R17
                                R22R 1R24R23R 7R 8R 2G10
  25016786.621   131463986.381        3040.681          31.000  
  23638900.013   124223252.150        -875.548          32.000  
  25216848.307   132515596.804       -4108.840          38.000  
  20623220.846   108375757.388         152.408          47.000  
  22158435.511   116443343.733       -3228.466          43.000  
  24731670.829                       -2567.086          15.000  
  20328560.273   106827298.427        -812.526          46.000  
  22428742.490   117863843.381        -286.349          46.000  
  21629976.328   113666310.162        1776.587          43.000  
  23404684.901   122992476.305       -2218.581          40.000  
  20790547.668   109255067.556         496.052          49.000  
  24539612.049                        3700.458          21.000  
  23712231.155   126577530.290       -4130.279          42.000  
  20055067.247   107205859.437        1715.416          43.000  
  20320485.989   108662809.918        2046.742          44.000  
  19800782.490   105920885.191       -1599.478          49.000  
  23831637.788   127572563.562       -4469.096          38.000  
  20054611.866   107391566.410       -2282.612          48.000  
  24234355.049   129319192.373        3866.931          29.000  
  26099337.647                       -3728.061          16.000  
 16  9 24 14  7  4.0010000  0 20G17G28G27G 1G 8R15G11G14G 3G32G22R17
                                R22R 1R24R23R 7R 8R 2G10
  25016207.797   131460945.213        3040.830          31.000  
  23639066.523   124224127.543        -876.158          32.000  
  25217630.216   132519705.061       -4108.322          39.000  
  20623191.669   108375604.721         152.358          47.000  
  22159049.479   116446572.206       -3228.750          43.000  
  24732150.605                       -2562.259          17.000  
  20328714.673   106828110.802        -812.790          46.000  
  22428796.899   117864129.602        -286.500          46.000  
  21629638.387   113664533.382        1776.554          43.000  
  23405107.300   122994694.740       -2218.715          40.000  
  20790453.297   109254571.276         495.945          49.000  
  24538920.776                        3702.369          22.000  
  23713004.375   126581660.099       -4129.962          42.000  
  20054746.268   107204143.974        1715.280          43.000  
  20320103.585   108660763.068        2046.496          44.000  
  19801081.413   105922484.565       -1599.693          49.000  
  23832472.641   127577032.293       -4468.837          38.000  
  20055038.000   107393849.044       -2283.011          48.000  
  24233629.679   129315325.293        3866.547          29.000  
  26100042.880                       -3728.061          16.000  
 16  9 24 14  7  5.0010000  0 20G17G28G27G 1G 8R15G11G14G 3G32G22R17
                                R22R 1R24R23R 7R 8R 2G10
  25015628.171   131457904.250        3040.908          32.000  
  23639233.103   124225003.636        -876.510          31.000  
  25218412.370   132523813.493       -4108.758          39.000  
  20623162.318   108375452.511         152.130          47.000  
  22159663.866   116449801.156       -3228.938          43.000  
  24732631.463                       -2562.473          17.000  
  20328869.282   106828923.829        -813.257          46.000  
  22428851.658   117864416.573        -287.211          46.000  
  21629300.585   113662757.114        1776.144          43.000  
  23405529.631   122996913.838       -2219.218          40.000  
  20790358.961   109254075.543         495.606          49.000  
  24538226.048                        3703.459          22.000  
  23713778.292   126585790.215       -4129.940          43.000  
  20054425.568   107202429.336        1714.374          43.000  
  20319720.832   108658716.811        2046.127          44.000  
  19801380.823   105924084.714       -1600.430          49.000  
  23833307.494   127581501.182       -4468.828          38.000  
  20055464.344   107396132.442       -2283.757          48.000  
  24232897.782   129311458.494        3866.339          29.000  
  26100752.371                       -3728.061          18.000  
 16  9 24 14  7  6.0010000  0 20G17G28G27G 1G 8R15G11G14G 3G32G22R17
                                R22R 1R24R23R 7R 8R 2G10
  25015053.012   131454863.645        3040.566          33.000  
  23639399.473   124225880.429        -876.652          31.000  
  25219194.593   132527922.155       -4108.997          39.000  
  20623133.420   108375300.867         151.186          47.000  
  22160278.393   116453030.734       -3230.000          43.000  
  24733110.751                       -2568.213          17.000  
  20329024.100   106829737.606        -814.367          46.000  
  22428906.591   117864704.376        -288.519          46.000  
  21628963.063   113660981.465        1775.206          43.000  
  23405951.891   122999133.736       -2220.703          40.000  
  20790264.660   109253580.470         494.501          49.000  
  24537534.461                        3706.140          21.000  
  23714551.720   126589920.812       -4130.999          42.000  
  20054105.321   107200715.616        1713.098          43.000  
  20319338.567   108656671.247        2045.086          44.000  
  19801680.409   105925685.733       -1601.628          49.000  
  23834142.347   127585970.348       -4469.654          38.000  
  20055891.246   107398416.711       -2284.797          48.000  
  24232174.086   129307592.005        3866.620          29.000  
  26101466.120                       -3728.061          20.000  
 16  9 24 14  7  7.0010000  0 20G17G28G27G 1G 8R15G11G14G 3G32G22R17
                                R22R 1R24R23R 7R 8R 2G10
  25014470.977   131451823.071        3039.621          32.000  
  23639565.843   124226757.671        -878.408          31.000  
  25219976.817   132532030.758       -4108.574          39.000  
  20623104.453   108375149.448         151.075          47.000  
  22160893.199   116456260.589       -3230.659          43.000  
  24733592.482                       -2577.468          17.000  
  20329179.197   106830551.790        -814.556          46.000  
  22428961.629   117864992.666        -288.743          46.000  
  21628625.297   113659206.101        1775.109          43.000  
  23406374.396   123001354.005       -2220.302          40.000  
  20790170.359   109253085.692         494.438          49.000  
  24536845.143                        3706.140          19.000  
  23715324.870   126594051.529       -4131.088          42.000  
  20053784.761   107199002.487        1712.670          43.000  
  20318956.059   108654626.026        2044.982          44.000  
  19801980.587   105927287.294       -1602.000          50.000  
  23834977.550   127590439.503       -4469.417          38.000  
  20056317.939   107400701.537       -2285.369          48.000  
  24231439.955   129303725.611        3866.473          29.000  
  26102176.518                       -3728.061          19.000  
 16  9 24 14  7  8.0010000  0 19G17G28G27G 1G 8R15G11G14G 3G32G22R17
                                R22R 1R24R23R 7R 8R 2
  25013892.433   131448782.676        3040.110          33.000  
  23639732.702   124227635.506        -877.862          31.000  
  25220758.691   132536139.533       -4108.600          39.000  
  20623075.869   108374998.463         151.008          47.000  
  22161507.622   116459490.876       -3230.299          43.000  
  24734073.933                       -2565.133          17.000  
  20329334.330   106831366.608        -814.861          47.000  
  22429016.667   117865281.679        -289.088          46.000  
  21628288.019   113657431.218        1774.972          43.000  
  23406796.551   123003574.979       -2221.219          40.000  
  20790076.407   109252591.444         494.257          49.000  
  24536151.566                        3722.717          20.000  
  23716098.438   126598182.552       -4131.037          42.000  
  20053464.270   107197290.161        1712.200          43.000  
  20318573.515   108652581.384        2044.572          44.000  
  19802280.766   105928889.628       -1602.506          50.000  
  23835812.438   127594908.837       -4469.018          39.000  
  20056744.806   107402987.091       -2285.813          48.000  
  24230714.969   129299859.500        3866.022          29.000  
 16  9 24 14  7  9.0010000  0 19G17G28G27G 1G 8R15G11G14G 3G32G22R17
                                R22R 1R24R23R 7R 8R 2
  25013315.389   131445742.477        3039.631          32.000  
  23639898.130   124228514.042        -879.558          30.000  
  25221540.426   132540248.417       -4109.080          38.000  
  20623047.286   108374847.914         150.117          47.000  
  22162122.567   116462721.700       -3231.522          43.000  
  24734554.512                       -2572.867          17.000  
  20329489.462   106832182.044        -815.868          47.000  
  22429071.845   117865571.397        -290.057          46.000  
  21627950.636   113655656.818        1774.184          43.000  
  23407219.370   123005796.529       -2221.663          40.000  
  20789982.176   109252097.718         493.346          49.000  
  24535459.316                        3702.660          20.000  
  23716872.285   126602313.892       -4131.500          42.000  
  20053144.163   107195578.617        1710.888          43.000  
  20318191.565   108650537.300        2043.616          44.000  
  19802580.840   105930492.734       -1603.691          50.000  
  23836647.396   127599378.359       -4469.438          39.000  
  20057171.499   107405273.351       -2286.663          48.000  
  24229989.005   129295993.595        3865.729          28.000  
 16  9 24 14  7 10.0010000  0 20R16G17G28G27G 1G 8R15G11G14G 3G32G22
                                R17R22R 1R24R23R 7R 8R 2
  24645970.517                         327.278          25.000  
  25012737.228   131442702.620        3039.530          33.000  
  23640061.534   124229393.243        -879.966          30.000  
  25222322.475   132544357.536       -4108.993          39.000  
  20623018.528   108374697.863         149.809          47.000  
  22162737.443   116465953.024       -3231.634          43.000  
  24735034.742                       -2572.867          16.000  
  20329644.595   106832998.183        -816.520          47.000  
  22429126.848   117865861.910        -290.993          46.000  
  21627613.010   113653883.018        1773.335          43.000  
  23407642.259   123008018.824       -2222.864          40.000  
  20789888.329   109251604.576         492.821          49.000  
  24534764.623                        3708.902          19.000  
  23717645.853   126606445.606       -4132.021          42.000  
  20052824.091   107193867.935        1710.108          43.000  
  20317809.963   108648493.852        2043.068          44.000  
  19802880.704   105932096.678       -1604.381          49.000  
  23837482.494   127603848.105       -4469.870          38.000  
  20057598.680   107407560.432       -2287.610          48.000  
  24229259.202   129292127.878        3865.259          27.000  
 16  9 24 14  7 11.0010000  0 20R16G17G28G27G 1G 8R15G11G14G 3G32G22
                                R17R22R 1R24R23R 7R 8R 2
  24645910.383                         326.812          26.000  
  25012158.684   131439662.855        3039.698          32.000  
  23640224.101   124230272.985        -879.970          29.000  
  25223104.245   132548466.740       -4109.077          39.000  
  20622990.224   108374548.199         149.747          47.000  
  22163352.249   116469184.787       -3231.497          43.000  
  24735513.716                       -2571.771          17.000  
  20329800.146   106833814.888        -816.712          47.000  
  22429182.375   117866153.066        -291.311          46.000  
  21627275.557   113652109.623        1773.101          44.000  
  23408065.182   123010241.692       -2222.748          40.000  
  20789794.412   109251111.910         492.553          49.000  
  24534070.209                        3704.218          19.000  
  23718419.456   126610577.557       -4131.896          42.000  
  20052504.543   107192157.974        1709.767          43.000  
  20317428.397   108646450.915        2042.942          44.000  
  19803180.604   105933701.323       -1604.749          49.000  
  23838317.487   127608317.943       -4469.746          37.000  
  20058026.001   107409848.197       -2287.949          48.000  
  24228539.450   129288262.400        3864.703          27.000  
 16  9 24 14  7 12.0010000  0 20R16G17G28G27G 1G 8R15G11G14G 3G32G22
                                R17R22R 1R24R23R 7R 8R 2
  24645847.946                         327.800          25.000  
  25011580.174   131436623.114        3039.283          32.000  
  23640391.308   124231153.273        -880.969          29.000  
  25223886.189   132552575.854       -4108.923          39.000  
  20622961.535   108374398.759         149.388          47.000  
  22163967.753   116472416.849       -3232.089          43.000  
  24735993.981                       -2566.759          18.000  
  20329955.592   106834632.006        -817.276          47.000  
  22429238.250   117866444.719        -291.730          46.000  
  21626938.245   113650336.488        1773.124          44.000  
  23408488.455   123012464.994       -2223.546          40.000  
  20789700.425   109250619.545         492.164          49.000  
  24533378.413                        3704.218          18.000  
  23719192.536   126614709.631       -4132.046          42.000  
  20052184.890   107190448.585        1709.219          43.000  
  20317046.656   108644408.366        2042.332          44.000  
  19803480.783   105935306.511       -1605.420          49.000  
  23839152.410   127612787.679       -4469.405          37.000  
  20058453.182   107412136.467       -2288.427          48.000  
  24227814.359   129284396.891        3864.917          26.000  
 16  9 24 14  7 13.0010000  0 20R16G17G28G27G 1G 8R15G11G14G 3G32G22
                                R17R22R 1R24R23R 7R 8R 2
  24645789.104                         325.973          25.000  
  25011001.804   131433583.624        3038.961          33.000  
  23640563.926   124232034.185        -882.442          30.000  
  25224668.273   132556685.190       -4109.426          38.000  
  20622933.441   108374249.819         148.611          47.000  
  22164583.013   116475649.463       -3232.992          44.000  
  24736474.629                       -2569.460          18.000  
  20330111.283   106835449.804        -818.130          47.000  
  22429293.951   117866737.153        -292.883          46.000  
  21626600.862   113648563.911        1772.421          43.000  
  23408911.727   123014688.974       -2224.187          40.000  
  20789606.892   109250127.743         491.602          49.000  
  24532684.418                        3710.611          18.000  
  23719966.488   126618842.085       -4132.580          41.000  
  20051865.202   107188740.045        1708.199          42.000  
  20316665.473   108642366.440        2041.631          44.000  
  19803780.856   105936912.515       -1606.444          49.000  
  23839987.263   127617257.623       -4469.650          37.000  
  20058880.573   107414425.526       -2289.489          47.000  
  24227089.756   129280531.830        3864.490          26.000  
 16  9 24 14  7 14.0010000  0 20R16G17G28G27G 1G 8R15G11G14G 3G32G22
                                R17R22R 1R24R23R 7R 8R 2
  24645728.971                         324.308          26.000  
  25010423.155   131430544.202        3039.777          31.000  
  23640733.158   124232915.561        -881.437          29.000  
  25225449.798   132560794.520       -4109.379          38.000  
  20622905.171   108374101.169         148.498          47.000  
  22165198.098   116478882.382       -3233.178          43.000  
  24736956.639                       -2574.137          18.000  
  20330267.009   106836268.081        -818.589          47.000  
  22429349.443   117867030.145        -293.355          46.000  
  21626263.410   113646791.685        1772.117          43.000  
  23409335.035   123016913.464       -2224.812          40.000  
  20789513.568   109249636.337         491.216          49.000  
  24531992.377                        3703.067          18.000  
  23720740.440   126622974.705       -4132.900          42.000  
  20051545.898   107187032.157        1707.541          42.000  
  20316283.593   108640324.946        2041.449          44.000  
  19804081.140   105938519.118       -1606.950          49.000  
  23840821.907   127621727.698       -4469.944          37.000  
  20059308.383   107416715.156       -2289.932          48.000  
  24226364.909                        3859.373          25.000  
 16  9 24 14  7 15.0010000  0 20R16G17G28G27G 1G 8R15G11G14G 3G32G22
                                R17R22R 1R24R23R 7R 8R 2
  24645667.825                         323.492          26.000  
  25009842.970   131427504.895        3039.302          30.000  
  23640901.483   124233797.453        -882.115          30.000  
  25226231.673   132564903.869       -4109.676          38.000  
  20622876.727   108373952.839         147.965          47.000  
  22165813.079   116482115.684       -3233.670          43.000  
  24737437.637                       -2574.137          16.000  
  20330422.735   106837086.875        -819.077          46.000  
  22429405.423   117867323.744        -294.088          46.000  
  21625926.272   113645019.871        1771.217          43.000  
  23409758.482   123019138.474       -2225.255          40.000  
  20789420.489   109249145.346         490.612          49.000  
  24531301.802                        3705.902          19.000  
  23721515.020   126627107.549       -4133.154          42.000  
  20051227.152   107185324.946        1706.697          42.000  
  20315901.642   108638283.920        2040.592          44.000  
  19804381.493   105940126.390       -1607.824          49.000  
  23841656.795   127626197.779       -4470.223          38.000  
  20059736.192   107419005.428       -2290.846          48.000  
  24225639.503                        3866.713          24.000  
 16  9 24 14  7 16.0010000  0 20R16G17G28G27G 1G 8R15G11G14G 3G32G22
                                R17R22R 1R24R23R 7R 8R 2
  24645606.854                         322.367          26.000  
  25009265.437   131424465.895        3038.863          30.000  
  23641074.834   124234680.070        -882.145          32.000  
  25227013.652   132569013.429       -4110.086          38.000  
  20622848.737   108373804.987         147.756          47.000  
  22166428.374   116485349.512       -3234.298          43.000  
  24737919.542                       -2573.380          18.000  
  20330578.391   106837906.338        -819.703          46.000  
  22429461.543   117867618.093        -294.691          46.000  
  21625589.413   113643248.548        1771.040          43.000  
  23410182.173   123021364.170       -2225.975          40.000  
  20789327.235   109248654.913         490.166          49.000  
  24530610.215                        3710.180          20.000  
  23722289.042   126631240.730       -4133.320          41.000  
  20050908.371   107183618.588        1705.756          43.000  
  20315520.076   108636243.495        2040.133          44.000  
  19804682.544   105941734.478       -1608.548          49.000  
  23842491.718   127630668.042       -4470.117          37.000  
  20060164.246   107421296.499       -2291.470          48.000  
  24224916.017                        3865.100          26.000  
 16  9 24 14  7 17.0010000  0 20R16G17G28G27G 1G 8R15G11G14G 3G32G22
                                R17R22R 1R24R23R 7R 8R 2
  24645545.639                         323.545          25.000  
  25008684.659   131421427.084        3038.939          30.000  
  23641241.064   124235563.395        -883.965          33.000  
  25227795.003   132573123.126       -4109.791          37.000  
  20622820.991   108373657.616         147.194          47.000  
  22167043.703   116488583.858       -3234.488          43.000  
  24738402.983                       -2574.785          16.000  
  20330734.326   106838726.478        -820.289          46.000  
  22429517.908   117867913.186        -295.350          46.000  
  21625252.239   113641477.770        1770.914          43.000  
  23410605.655   123023590.555       -2226.664          40.000  
  20789233.806   109248165.044         489.720          49.000  
  24529916.464                        3700.035          23.000  
  23723063.343   126635374.273       -4133.540          42.000  
  20050589.521   107181913.065        1704.896          43.000  
  20315138.579   108634203.702        2039.460          44.000  
  19804983.560   105943343.372       -1609.086          49.000  
  23843326.955   127635138.556       -4470.682          37.000  
  20060592.056   107423588.342       -2292.116          48.000  
  24224193.194   129264928.3693       3864.117          27.000  
 16  9 24 14  7 18.0010000  0 20R16G17G28G27G 1G 8R15G11G14G 3G32G22
                                R17R22R 1R24R23R 7R 8R 2
  24645484.458                         321.135          26.000  
  25008105.940   131418388.314        3038.960          30.000  
  23641410.541   124236447.145        -883.477          32.000  
  25228576.773   132577232.816       -4109.143          38.000  
  20622793.211   108373510.485         147.304          47.000  
  22167658.928   116491818.491       -3234.477          43.000  
  24738887.052                       -2583.387          18.000  
  20330890.575   106839547.058        -820.647          46.000  
  22429574.097   117868208.812        -295.711          46.000  
  21624914.578   113639707.301        1770.486          43.000  
  23411029.102   123025817.380       -2226.897          40.000  
  20789140.866   109247675.510         489.575          49.000  
  24529223.272                        3706.923          24.000  
  23723837.191   126639507.933       -4133.575          41.000  
  20050270.426   107180208.126        1704.677          42.000  
  20314756.873   108632164.282        2039.374          44.000  
  19805284.681   105944952.836       -1609.481          49.000  
  23844161.879   127639608.994       -4470.435          36.000  
  20061020.110   107425880.719       -2292.397          48.000  
  24223473.408   129261063.9902       3865.155          29.000  
 16  9 24 14  7 19.0010000  0 20R16G17G28G27G 1G 8R15G11G14G 3G32G22
                                R17R22R 1R24R23R 7R 8R 2
  24645427.047                         320.311          27.000  
  25007527.745   131415349.663        3038.628          30.000  
  23641582.251   124237331.412        -884.662          33.000  
  25229359.310   132581342.516       -4109.732          38.000  
  20622765.360   108373363.700         146.690          47.000  
  22168274.467   116495053.495       -3235.140          43.000  
  24739368.120                       -2583.387          16.000  
  20331046.929   106840368.127        -821.248          46.000  
  22429630.566   117868505.029        -296.623          46.000  
  21624577.265   113637937.203        1769.910          43.000  
  23411452.933   123028044.714       -2227.471          40.000  
  20789047.961   109247186.378         488.871          49.000  
  24528530.428                        3706.264          23.000  
  23724610.863   126643641.832       -4133.782          40.000  
  20049951.471   107178503.851        1703.923          43.000  
  20314375.725   108630125.311        2038.742          44.000  
  19805585.872   105946562.953       -1610.347          49.000  
  23844996.697   127644079.497       -4470.608          35.000  
  20061448.233   107428173.727       -2293.318          48.000  
  24222738.963   129257199.7502       3864.325          29.000  
 16  9 24 14  7 20.0010000  0 20R16G17G28G27G 1G 8R15G11G14G 3G32G22
                                R17R22R 1R24R23R 7R 8R 2
  24645367.716   131651116.9403        319.253          28.000  
  25006950.806   131412311.369        3038.655          31.000  
  23641748.691   124238216.454        -885.857          32.000  
  25230141.045   132585452.476       -4109.532          38.000  
  20622737.440   108373217.469         146.205          47.000  
  22168890.041   116498289.134       -3235.827          43.000  
  24739849.327                       -2583.387          14.000  
  20331203.527   106841189.979        -822.059          46.000  
  22429686.965   117868802.089        -297.303          46.000  
  21624240.197   113636167.718        1769.668          42.000  
  23411876.903   123030272.838       -2228.395          40.000  
  20788955.126   109246697.902         488.373          49.000  
  24527837.934                        3707.572          20.000  
  23725385.583   126647776.155       -4133.986          41.000  
  20049632.726   107176800.517        1703.132          42.000  
  20313994.333   108628087.042        2038.288          44.000  
  19805887.028   105948173.963       -1611.122          49.000  
  23845831.655   127648550.288       -4470.239          36.000  
  20061876.287   107430467.596       -2293.983          48.000  
  24222012.510   129253336.0512       3863.464          28.000  
 16  9 24 14  7 21.0010000  0 20R16G17G28G27G 1G 8R15G11G14G 3G32G22
                                R17R22R 1R24R23R 7R 8R 2
  24645314.703   131650798.0092        318.007          30.000  
  25006373.413   131409273.254        3038.102          31.000  
  23641916.911   124239102.069        -885.961          31.000  
  25230923.129   132589562.572       -4110.423          38.000  
  20622709.694   108373071.655         145.546          47.000  
  22169505.964   116501525.232       -3236.592          43.000  
  24740331.372                       -2574.349          16.000  
  20331359.951   106842012.420        -822.796          46.000  
  22429743.504   117869099.826        -298.136          46.000  
  21623903.198   113634398.709        1768.674          43.000  
  23412300.769   123032501.579       -2229.146          39.000  
  20788862.396   109246209.932         487.548          49.000  
  24527146.068                        3706.074          21.000  
  23726159.117   126651910.758       -4134.999          39.000  
  20049313.736   107175097.964        1701.876          42.000  
  20313613.011   108626049.332        2037.222          44.000  
  19806188.568   105949785.725       -1612.350          49.000  
  23846666.857   127653021.185       -4470.730          36.000  
  20062304.690   107432762.178       -2295.109          48.000  
  24221283.021                        3867.662          26.000  
 16  9 24 14  7 22.0010000  0 20R16G17G28G27G 1G 8R15G11G14G 3G32G22
                                R17R22R 1R24R23R 7R 8R 2
  24645251.777   131650479.9742        317.919          29.000  
  25005796.160   131406235.410        3037.672          31.000  
  23642077.558   124239988.483        -886.472          30.000  
  25231705.038   132593672.914       -4110.334          37.000  
  20622681.913   108372926.384         145.167          47.000  
  22170121.607   116504761.891       -3236.805          43.000  
  24740816.488                       -2580.229          22.000  
  20331516.514   106842835.594        -823.186          46.000  
  22429800.078   117869398.391        -298.815          46.000  
  21623566.618   113632630.316        1768.315          42.000  
  23412725.542   123034731.053       -2229.632          39.000  
  20788769.665   109245722.574         487.331          50.000  
  24526453.050                        3699.776          21.000  
  23726933.138   126656045.792       -4135.156          40.000  
  20048995.444   107173396.291        1701.714          42.000  
  20313231.829   108624012.278        2037.021          44.000  
  19806489.793   105951398.340       -1612.705          49.000  
  23847502.025   127657492.383       -4470.857          36.000  
  20062733.197   107435057.585       -2295.482          48.000  
  24220556.569                        3862.367          26.000  
 16  9 24 14  7 23.0010000  0 20R16G17G28G27G 1G 8R15G11G14G 3G32G22
                                R17R22R 1R24R23R 7R 8R 2
  24645193.075   131650162.9682        317.099          27.000  
  25005220.721   131403197.998        3037.026          32.000  
  23642249.094   124240875.621        -886.678          31.000  
  25232487.331   132597783.496       -4110.584          37.000  
  20622654.481   108372781.667         144.391          47.000  
  22170737.565   116507999.150       -3237.426          43.000  
  24741297.974                       -2577.833          23.000  
  20331673.113   106843659.512        -824.223          46.000  
  22429856.791   117869697.776        -299.845          46.000  
  21623230.143   113630862.522        1767.495          42.000  
  23413149.896   123036961.288       -2230.654          39.000  
  20788677.319   109245235.868         486.260          49.000  
  24525758.705                        3706.474          22.000  
  23727707.754   126660181.246       -4135.600          40.000  
  20048677.466   107171695.568        1700.082          42.000  
  20312850.646   108621975.923        2036.005          44.000  
  19806791.752   105953011.848       -1613.993          49.000  
  23848337.053   127661963.831       -4471.877          36.000  
  20063161.949   107437353.841       -2296.611          48.000  
  24219828.825                        3862.583          26.000  
 16  9 24 14  7 24.0010000  0 20R16G17G28G27G 1G 8R15G11G14G 3G32G22
                                R17R22R 1R24R23R 7R 8R 2
  24645136.361   131649846.8052        316.122          26.000  
  25004643.817   131400160.636        3037.943          32.000  
  23642416.755   124241763.364        -888.508          31.000  
  25233269.799   132601894.118       -4110.232          38.000  
  20622627.189   108372637.292         144.278          47.000  
  22171353.558   116511236.817       -3237.715          43.000  
  24741780.857                       -2577.934          24.000  
  20331830.095   106844483.970        -824.786          46.000  
  22429913.923   117869997.775        -300.198          46.000  
  21622893.633   113629095.094        1767.389          42.000  
  23413574.390   123039192.076       -2231.139          39.000  
  20788584.868   109244749.577         486.204          49.000  
  24525065.583                        3710.534          25.000  
  23728482.683   126664316.933       -4135.559          40.000  
  20048359.069   107169995.539        1699.772          42.000  
  20312469.813   108619940.055        2035.808          44.000  
  19807093.501   105954626.002       -1614.376          49.000  
  23849172.011   127666435.412       -4470.992          36.000  
  20063590.945   107439650.735       -2297.025          48.000  
  24219102.756                        3863.832          25.000  
 16  9 24 14  7 25.0010000  0 20R16G17G28G27G 1G 8R15G11G14G 3G32G22
                                R17R22R 1R24R23R 7R 8R 2
  24645077.764                         315.396          24.000  
  25004062.690   131397123.614        3036.289          31.000  
  23642591.572   124242651.748        -889.242          31.000  
  25234052.511   132606004.983       -4110.803          38.000  
  20622599.932   108372493.418         143.573          47.000  
  22171969.969   116514475.037       -3238.513          43.000  
  24742261.366                       -2578.906          24.000  
  20331987.042   106845309.102        -825.403          46.000  
  22429971.404   117870298.560        -301.268          46.000  
  21622557.542   113627328.242        1766.932          42.000  
  23413999.233   123041423.546       -2231.664          39.000  
  20788492.521   109244263.890         485.336          49.000  
  24524371.483                        3706.329          23.000  
  23729257.263   126668452.994       -4135.998          38.000  
  20048040.393   107168296.376        1698.769          42.000  
  20312089.119   108617904.837        2034.778          44.000  
  19807395.460   105956241.008       -1615.427          49.000  
  23850007.353   127670907.258       -4472.000          37.000  
  20064020.151   107441948.436       -2297.993          48.000  
  24218378.188                        3863.239          25.000  
 16  9 24 14  7 26.0010000  0 20R16G17G28G27G 1G 8R15G11G14G 3G32G22
                                R17R22R 1R24R23R 7R 8R 2
  24645014.594                         314.677          23.000  
  25003484.390   131394086.609        3036.512          31.000  
  23642761.746   124243540.659        -889.594          31.000  
  25234834.944   132610115.855       -4111.012          38.000  
  20622572.570   108372349.853         143.502          47.000  
  22172586.346   116517713.609       -3238.510          43.000  
  24742742.713                       -2579.166          25.000  
  20332143.954   106846134.753        -826.056          46.000  
  22430028.920   117870599.930        -301.829          46.000  
  21622221.206   113625561.774        1765.929          42.000  
  23414423.832   123043655.536       -2232.332          40.000  
  20788400.140   109243778.595         485.083          49.000  
  24523677.069                        3703.596          23.000  
  23730031.599   126672589.316       -4136.456          38.000  
  20047722.415   107166597.918        1697.986          42.000  
  20311708.669   108615870.088        2034.402          44.000  
  19807697.418   105957856.644       -1616.116          49.000  
  23850842.869   127675379.135       -4471.412          37.000  
  20064449.391   107444246.759       -2298.634          48.000  
  24217656.238                        3862.356          26.000  
 16  9 24 14  7 27.0010000  0 20R16G17G28G27G 1G 8R15G11G14G 3G32G22
                                R17R22R 1R24R23R 7R 8R 2
  24644954.879                         313.479          24.000  
  25002906.962   131391049.920        3035.979          30.000  
  23642931.118   124244430.204        -890.077          30.000  
  25235617.098   132614226.904       -4111.292          37.000  
  20622545.313   108372206.781         142.590          47.000  
  22173202.688   116520952.758       -3239.788          43.000  
  24743223.641                       -2580.248          24.000  
  20332301.286   106846961.065        -826.758          46.000  
  22430086.645   117870902.059        -302.618          46.000  
  21621885.534   113623795.819        1765.686          43.000  
  23414848.536   123045888.211       -2232.778          39.000  
  20788307.793   109243293.861         484.417          50.000  
  24522980.456                        3706.886          22.000  
  23730806.214   126676725.969       -4137.124          38.000  
  20047403.914   107164900.270        1697.210          42.000  
  20311328.080   108613835.960        2033.767          44.000  
  19807999.865   105959473.085       -1616.920          49.000  
  23851678.176   127679851.235       -4472.132          37.000  
  20064878.597   107446545.871       -2299.586          48.000  
  24216933.938   129226199.1203       3861.749          27.000  
 16  9 24 14  7 28.0010000  0 20R16G17G28G27G 1G 8R15G11G14G 3G32G22
                                R17R22R 1R24R23R 7R 8R 2
  24644897.468                         311.937          25.000  
  25002328.452   131388013.275        3036.363          30.000  
  23643101.956   124245320.272        -890.654          32.000  
  25236399.391   132618337.977       -4111.536          38.000  
  20622518.090   108372064.001         142.539          47.000  
  22173818.680   116524192.223       -3239.847          43.000  
  24743709.141                       -2580.871          24.000  
  20332458.756   106847787.872        -827.171          46.000  
  22430144.231   117871204.751        -302.917          46.000  
  21621549.513   113622030.239        1765.100          42.000  
  23415273.274   123048121.409       -2233.347          39.000  
  20788215.795   109242809.523         484.038          50.000  
  24522287.997                        3701.098          19.000  
  23731580.341   126680862.778       -4137.270          38.000  
  20047085.901   107163203.294        1696.566          42.000  
  20310947.805   108611802.284        2033.150          44.000  
  19808302.138   105961090.168       -1617.414          49.000  
  23852513.623   127684323.306       -4472.427          37.000  
  20065308.221   107448845.588       -2299.978          48.000  
  24216212.197   129222337.3082       3861.627          27.000  
 16  9 24 14  7 29.0010000  0 20R16G17G28G27G 1G 8R15G11G14G 3G32G22
                                R17R22R 1R24R23R 7R 8R 2
  24644840.650                         311.576          26.000  
  25001750.850   131384977.006        3036.036          30.000  
  23643271.223   124246211.138        -890.799          32.000  
  25237181.824   132622449.301       -4111.505          38.000  
  20622490.938   108371921.815         141.619          47.000  
  22174434.848   116527432.317       -3240.662          43.000  
  24744192.756                       -2581.964          25.000  
  20332616.122   106848615.444        -828.093          46.000  
  22430201.851   117871508.323        -304.118          46.000  
  21621213.421   113620265.277        1764.680          42.000  
  23415698.047   123050355.370       -2234.377          39.000  
  20788123.937   109242325.842         483.207          50.000  
  24521593.548                        3701.098          17.000  
  23732354.607   126685000.101       -4137.890          38.000  
  20046767.714   107161507.268        1695.501          42.000  
  20310567.564   108609769.280        2032.632          44.000  
  19808604.620   105962708.158       -1618.557          49.000  
  23853349.383   127688795.605       -4472.535          37.000  
  20065737.811   107451146.171       -2301.092          48.000  
  24215489.444   129218475.4452       3861.383          26.000  
 16  9 24 14  7 30.0010000  0 20R16G17G28G27G 1G 8R15G11G14G 3G32G22
                                R17R22R 1R24R23R 7R 8R 2
  24644779.923   131647979.3933        309.965          27.000  
  25001168.153   131381940.896        3035.938          30.000  
  23643441.118   124247102.597        -891.598          33.000  
  25237964.257   132626560.744       -4111.731          37.000  
  20622464.100   108371780.023         141.471          47.000  
  22175051.224   116530672.847       -3240.932          43.000  
  24744677.593                       -2583.427          25.000  
  20332773.803   106849443.620        -828.562          46.000  
  22430259.681   117871812.581        -304.766          46.000  
  21620877.365   113618500.803        1764.150          42.000  
  23416123.483   123052589.947       -2234.639          39.000  
  20788031.835   109241842.661         482.817          49.000  
  24520899.099                        3706.305          18.000  
  23733129.152   126689137.645       -4137.622          37.000  
  20046450.085   107159811.980        1694.907          42.000  
  20310187.359   108607736.833        2032.158          44.000  
  19808907.067   105964326.883       -1619.188          49.000  
  23854184.760   127693268.091       -4472.824          37.000  
  20066167.540   107453447.449       -2301.868          48.000  
  24214765.435                        3860.185          24.000  
 16  9 24 14  7 31.0010000  0 20R16G17G28G27G 1G 8R15G11G14G 3G32G22
                                R17R22R 1R24R23R 7R 8R 2
  24644722.268   131647669.1142        309.876          28.000  
  25000590.969   131378904.944        3037.038          29.000  
  23643610.978   124247994.661        -891.943          33.000  
  25238746.550   132630672.306       -4111.450          38.000  
  20622437.331   108371638.627         141.340          47.000  
  22175668.020   116533913.794       -3241.132          43.000  
  24745162.674                       -2582.282          25.000  
  20332931.518   106850272.352        -828.792          46.000  
  22430317.825   117872117.472        -304.975          46.000  
  21620541.448   113616736.754        1763.983          42.000  
  23416548.885   123054825.110       -2235.380          39.000  
  20787939.907   109241359.947         482.735          49.000  
  24520202.312                        3703.717          19.000  
  23733903.733   126693275.521       -4137.761          37.000  
  20046132.875   107158117.436        1694.514          42.000  
  20309807.398   108605704.909        2031.732          44.000  
  19809209.270   105965946.311       -1619.645          49.000  
  23855020.102   127697740.682       -4472.359          37.000  
  20066597.478   107455749.381       -2302.140          48.000  
  24214043.973                        3862.036          22.000  
 16  9 24 14  7 32.0010000  0 20R16G17G28G27G 1G 8R15G11G14G 3G32G22
                                R17R22R 1R24R23R 7R 8R 2
  24644662.832   131647359.6242        309.852          29.000  
  25000013.786   131375869.201        3034.441          29.000  
  23643781.048   124248887.174        -892.218          33.000  
  25239529.227   132634783.855       -4111.918          38.000  
  20622410.388   108371497.536         140.655          47.000  
  22176284.780   116537155.105       -3241.986          43.000  
  24745644.998                       -2583.498          26.000  
  20333089.303   106851101.582        -829.595          46.000  
  22430375.795   117872422.960        -305.991          46.000  
  21620205.741   113614973.056        1763.264          42.000  
  23416974.496   123057060.755       -2235.982          39.000  
  20787848.015   109240877.622         481.900          49.000  
  24519509.364                        3704.895          23.000  
  23734678.313   126697413.572       -4138.905          36.000  
  20045815.735   107156423.535        1693.207          42.000  
  20309427.786   108603673.423        2031.038          44.000  
  19809511.857   105967566.368       -1620.593          49.000  
  23855855.479   127702213.339       -4472.748          37.000  
  20067027.452   107458051.935       -2303.114          48.000  
  24213318.602                        3865.755          20.000  
 16  9 24 14  7 33.0010000  0 20R16G17G28G27G 1G 8R15G11G14G 3G32G22
                                R17R22R 1R24R23R 7R 8R 2
  24644603.955   131647050.9812        307.872          30.000  
  24999437.545   131372833.431        3035.624          30.000  
  23643951.188   124249780.362        -893.978          33.000  
  25240311.067   132638895.483       -4111.836          37.000  
  20622383.724   108371356.814         140.444          47.000  
  22176901.575   116540396.833       -3242.048          43.000  
  24746128.788                       -2586.401          26.000  
  20333247.227   106851931.401        -830.075          46.000  
  22430433.904   117872729.100        -306.542          46.000  
  21619869.999   113613209.797        1762.891          42.000  
  23417400.316   123059296.995       -2236.701          40.000  
  20787756.401   109240395.775         481.516          49.000  
  24518816.346                        3705.539          25.000  
  23735453.347   126701551.858       -4138.801          38.000  
  20045498.525   107154730.378        1692.718          42.000  
  20309047.790   108601642.466        2030.742          44.000  
  19809814.932   105969187.172       -1621.289          49.000  
  23856691.275   127706686.094       -4472.823          37.000  
  20067457.495   107460355.177       -2303.633          48.000  
  24212592.778                        3866.241          18.000  
 16  9 24 14  7 34.0010000  0 20R16G17G28G27G 1G 8R15G11G14G 3G32G22
                                R17R22R 1R24R23R 7R 8R 2
  24644542.914   131646743.0532        308.004          30.000  
  24998860.152   131369797.863        3035.607          30.000  
  23644121.676   124250674.047        -894.106          33.000  
  25241093.465   132643007.176       -4112.189          37.000  
  20622357.165   108371216.433         140.152          47.000  
  22177518.301   116543638.939       -3242.616          43.000  
  24746612.578                       -2584.696          25.000  
  20333405.152   106852761.736        -830.714          46.000  
  22430492.188   117873035.844        -307.258          46.000  
  21619534.466   113611446.912        1762.745          42.000  
  23417826.031   123061533.783       -2237.481          40.000  
  20787664.927   109239914.338         481.120          49.000  
  24518124.654                        3705.404          25.000  
  23736228.276   126705690.298       -4138.600          38.000  
  20045182.187   107153037.910        1691.852          43.000  
  20308668.213   108599611.992        2030.102          44.000  
  19810118.078   105970808.637       -1621.922          49.000  
  23857526.861   127711158.921       -4472.926          37.000  
  20067887.712   107462659.063       -2304.383          48.000  
  24211868.978                        3864.108          20.000  
 16  9 24 14  7 35.0010000  0 20R16G17G28G27G 1G 8R15G11G14G 3G32G22
                                R17R22R 1R24R23R 7R 8R 2
  24644489.796   131646436.0812        306.456          31.000  
  24998287.540   131366762.570        3034.724          31.000  
  23644292.025   124251568.405        -894.512          33.000  
  25241875.409   132647118.998       -4111.783          36.000  
  20622330.431   108371076.535         139.677          47.000  
  22178135.306   116546881.563       -3243.083          42.000  
  24747095.041                       -2586.250          25.000  
  20333563.285   106853592.739        -831.240          46.000  
  22430550.716   117873343.350        -307.973          46.000  
  21619198.864   113609684.583        1762.552          41.000  
  23418252.375   123063771.230       -2237.716          40.000  
  20787573.278   109239433.469         480.632          49.000  
  24517433.137   131197779.6863       3705.992          27.000  
  23737003.764   126709829.156       -4139.039          39.000  
  20044865.710   107151346.287        1691.265          43.000  
  20308288.636   108597582.109        2029.661          44.000  
  19810421.362   105972430.918       -1622.837          49.000  
  23858362.342   127715631.929       -4473.080          37.000  
  20068318.209   107464963.735       -2304.979          48.000  
  24211151.634                        3861.937          24.000  
 16  9 24 14  7 36.0000000  0 20R16G17G28G27G 1G 8R15G11G14G 3G32G22
                                R17R22R 1R24R23R 7R 8R 2
  24344640.157   130044692.4022        304.681          30.000  
  24697919.839   129788307.381        3035.746          32.000  
  23344670.461   122677043.367        -895.269          33.000  
  24942865.474   131075810.969       -4112.098          36.000  
  20322511.190   106795517.003         139.266          47.000  
  21878959.838   114974704.598       -3243.389          43.000  
  24447788.942                       -2586.317          24.000  
  20033929.087   105279004.312        -831.814          46.000  
  22130816.632   116298231.502        -308.513          45.000  
  21319071.173   112032502.699        1761.307          42.000  
  23118885.793   121490589.260       -2238.331          40.000  
  20487689.472   107663533.066         480.137          49.000  
  24216948.519   129589823.6472       3706.013          26.000  
  23437987.268   125113655.759       -4139.265          40.000  
  19744757.040   105547092.908        1690.505          43.000  
  20008116.796   106992427.753        2029.178          44.000  
  19510931.791   104370366.391       -1623.323          49.000  
  23559405.491   126115292.511       -4472.880          36.000  
  19768956.374   105861894.084       -2305.679          48.000  
  23910638.363                        3858.689          25.000  
 16  9 24 14  7 37.0000000  0 20R16G17G28G27G 1G 8R15G11G14G 3G32G22
                                R17R22R 1R24R23R 7R 8R 2
  24344586.899   130044387.0802        304.685          31.000  
  24697342.726   129785272.520        3034.672          32.000  
  23344841.263   122677938.939        -895.585          33.000  
  24943647.907   131079923.077       -4112.164          36.000  
  20322484.631   106795377.938         138.798          47.000  
  21879577.332   114977948.146       -3243.845          43.000  
  24448269.870                       -2587.096          22.000  
  20034087.360   105279836.521        -832.637          46.000  
  22130875.370   116298540.386        -309.350          45.000  
  21318735.884   112030741.304        1761.036          42.000  
  23119311.683   121492827.945       -2238.840          40.000  
  20487598.207   107663053.197         479.601          49.000  
  24216252.709                        3706.467          25.000  
  23438763.419   125117795.225       -4139.699          40.000  
  19744440.982   105545402.850        1689.774          42.000  
  20007737.533   106990398.984        2028.477          44.000  
  19511235.320   104371990.142       -1624.203          49.000  
  23560241.217   126119765.805       -4473.136          36.000  
  19769387.219   105864200.154       -2306.372          49.000  
  23909912.993                        3859.333          24.000  
 16  9 24 14  7 38.0000000  0 20R16G17G28G27G 1G 8R15G11G14G 3G32G22
                                R17R22R 1R24R23R 7R 8R 2
  24344531.582   130044082.684         303.350          31.000  
  24696763.064   129782237.797        3034.624          32.000  
  23345012.171   122678835.237        -896.489          33.000  
  24944430.026   131084035.326       -4112.268          36.000  
  20322458.037   106795239.340         138.260          47.000  
  21880194.302   114981192.241       -3244.479          43.000  
  24448751.914                       -2598.301          22.000  
  20034245.494   105280669.401        -833.160          46.000  
  22130934.142   116298850.016        -310.006          45.000  
  21318400.805   112028980.438        1760.573          42.000  
  23119737.817   121495067.329       -2239.642          40.000  
  20487506.942   107662573.892         479.090          49.000  
  24215559.342   129582391.7243       3705.271          26.000  
  23439539.500   125121935.017       -4139.652          40.000  
  19744124.784   105543713.611        1688.705          42.000  
  20007358.200   106988370.812        2027.748          44.000  
  19511538.744   104373614.678       -1625.014          49.000  
  23561076.978   126124239.272       -4473.560          36.000  
  19769818.345   105866506.978       -2307.337          49.000  
  23909189.053                        3859.651          23.000  
 16  9 24 14  7 39.0000000  0 20R16G17G28G27G 1G 8R15G11G14G 3G32G22
                                R17R22R 1R24R23R 7R 8R 2
  24344471.762   130043779.172         303.386          30.000  
  24696186.998   129779203.373        3034.282          32.000  
  23345182.869   122679732.152        -897.426          32.000  
  24945213.052   131088147.802       -4112.863          37.000  
  20322431.617   106795101.225         138.054          47.000  
  21880811.970   114984436.826       -3244.799          43.000  
  24449238.008                       -2580.299          22.000  
  20034404.012   105281502.949        -834.001          46.000  
  22130992.914   116299160.387        -310.611          45.000  
  21318065.761   112027220.117        1759.861          42.000  
  23120164.231   121497307.389       -2240.391          40.000  
  20487415.678   107662095.148         478.421          49.000  
  24214867.336   129578685.7692       3706.397          27.000  
  23440315.301   125126075.198       -4140.272          40.000  
  19743808.795   105542025.203        1688.100          42.000  
  20006979.286   106986343.249        2027.352          44.000  
  19511842.308   104375239.995       -1625.733          48.000  
  23561912.843   126128712.972       -4474.073          36.000  
  19770249.470   105868814.553       -2307.900          49.000  
  23908467.347                        3864.370          21.000  
 16  9 24 14  7 40.0000000  0 20R16G17G28G27G 1G 8R15G11G14G 3G32G22
                                R17R22R 1R24R23R 7R 8R 2
  24344408.488   130043476.482         302.297          30.000  
  24695609.919   129776169.107        3034.091          32.000  
  23345353.567   122680629.676        -898.129          31.000  
  24945996.288   131092260.300       -4112.578          37.000  
  20322405.372   106794963.468         137.404          47.000  
  21881429.463   114987681.824       -3245.329          43.000  
  24449720.646                       -2586.518          22.000  
  20034562.634   105282337.039        -834.495          46.000  
  22131051.757   116299471.411        -311.556          45.000  
  21317730.507   112025460.192        1759.634          42.000  
  23120590.644   121499547.979       -2241.013          40.000  
  20487324.692   107661616.846         477.897          49.000  
  24214175.959   129574979.8332       3705.845          27.000  
  23441091.662   125130215.576       -4140.454          40.000  
  19743492.981   105540337.531        1687.202          43.000  
  20006600.546   106984316.185        2026.630          44.000  
  19512145.768   104376865.971       -1626.324          48.000  
  23562748.464   126133186.776       -4474.099          37.000  
  19770680.560   105871122.798       -2308.761          49.000  
  23907747.805                        3860.735          21.000  
 16  9 24 14  7 41.0000000  0 20R16G17G28G27G 1G 8R15G11G14G 3G32G22
                                R17R22R 1R24R23R 7R 8R 2
  24344360.988   130043174.677         301.107          30.000  
  24695032.038   129773135.035        3033.856          33.000  
  23345524.160   122681527.782        -898.364          32.000  
  24946779.419   131096372.939       -4112.713          37.000  
  20322379.301   106794826.143         136.929          47.000  
  21882047.131   114990927.299       -3246.131          43.000  
  24450204.715                       -2595.592          22.000  
  20034721.710   105283171.749        -835.144          46.000  
  22131110.843   116299783.135        -312.185          45.000  
  21317395.742   112023700.751        1759.130          42.000  
  23121017.302   121501789.202       -2241.351          40.000  
  20487233.742   107661139.056         477.423          49.000  
  24213486.640   129571273.8762       3705.303          27.000  
  23441867.359   125134356.275       -4141.047          39.000  
  19743177.760   105538650.646        1686.401          43.000  
  20006221.702   106982289.706        2026.027          44.000  
  19512449.506   104378492.722       -1627.243          48.000  
  23563584.434   126137660.725       -4474.831          36.000  
  19771111.964   105873431.772       -2309.547          49.000  
  23907025.819                        3857.716          22.000  
 16  9 24 14  7 42.0000000  0 20G17G28G27G 1G 8R16G11G14G 3G32G22R17
                                R22R 1R24R23R 7R 8R 2R15
  24694454.400   129770101.188        3034.723          32.000  
  23345695.312   122682426.594        -898.900          32.000  
  24947562.200   131100485.751       -4112.746          37.000  
  20322353.021   106794689.287         136.874          47.000  
  21882664.764   114994173.255       -3246.184          43.000  
  24344308.358   130042873.634         301.322          29.000  
  20034880.682   105284007.110        -835.441          46.000  
  22131170.348   116300095.595        -312.706          45.000  
  21317061.117   112021941.829        1759.138          42.000  
  23121443.925   121504031.111       -2241.877          40.000  
  20487142.966   107660661.809         477.260          49.000  
  24212795.367   129567568.0252       3706.103          28.000  
  23442642.777   125138497.331       -4140.971          38.000  
  19742863.028   105536964.571        1685.869          43.000  
  20005842.718   106980263.843        2025.859          44.000  
  19512753.280   104380120.276       -1627.739          48.000  
  23564420.125   126142134.806       -4474.257          36.000  
  19771543.089   105875741.509       -2309.987          49.000  
  23906303.345                        3852.877          23.000  
  24450688.923                       -2588.806          20.000  
 16  9 24 14  7 43.0000000  0 20R15G17G28G27G 1G 8R16G11G14G 3G32G22
                                R17R22R 1R24R23R 7R 8R 2
  24451171.771                       -2594.808          19.000  
  24693877.077   129767067.572        3034.257          33.000  
  23345866.568   122683325.940        -899.135          32.000  
  24948345.017   131104598.634       -4112.321          38.000  
  20322327.300   106794552.821         136.465          47.000  
  21883282.502   114997419.660       -3246.705          43.000  
  24344248.644   130042573.538         299.895          29.000  
  20035039.584   105284843.049        -836.153          46.000  
  22131229.853   116300408.716        -313.385          45.000  
  21316726.841   112020183.365        1758.328          42.000  
  23121870.548   121506273.597       -2242.403          40.000  
  20487052.260   107660185.042         476.685          49.000  
  24212104.269   129563862.2942       3705.406          26.000  
  23443418.264   125142638.619       -4141.328          38.000  
  19742547.877   105535279.238        1685.157          43.000  
  20005463.804   106978238.509        2025.562          44.000  
  19513057.332   104381748.545       -1628.452          48.000  
  23565255.816   126146609.005       -4474.082          36.000  
  19771974.598   105878051.928       -2310.520          49.000  
  23905582.058                        3854.833          22.000  
 16  9 24 14  7 44.0000000  0 20R15G17G28G27G 1G 8R16G11G14G 3G32G22
                                R17R22R 1R24R23R 7R 8R 2
  24451656.468                       -2585.028          18.000  
  24693299.720   129764034.007        3033.993          33.000  
  23346038.034   122684225.825        -899.591          33.000  
  24949128.043   131108711.564       -4112.930          38.000  
  20322301.334   106794416.655         136.055          47.000  
  21883900.658   115000666.422       -3246.913          43.000  
  24344190.430   130042274.163         298.982          29.000  
  20035198.520   105285679.479        -836.658          46.000  
  22131289.184   116300722.423        -313.956          45.000  
  21316392.320   112018425.248        1757.869          42.000  
  23122297.066   121508516.583       -2243.248          39.000  
  20486961.798   107659708.664         476.184          49.000  
  24211413.903                        3708.180          25.000  
  23444194.380   125146780.106       -4141.404          38.000  
  19742232.901   105533594.563        1684.297          43.000  
  20005085.379   106976213.621        2024.592          44.000  
  19513361.873   104383377.452       -1629.244          48.000  
  23566091.856   126151083.227       -4474.021          36.000  
  19772406.177   105880362.958       -2311.311          49.000  
  23904859.096                        3859.308          23.000  
 16  9 24 14  7 45.0000000  0 20R15G17G28G27G 1G 8R16G11G14G 3G32G22
                                R17R22R 1R24R23R 7R 8R 2
  24452142.003                       -2595.238          18.000  
  24692722.292   129761000.643        3033.562          34.000  
  23346209.326   122685126.334        -901.373          33.000  
  24949911.139   131112824.612       -4113.431          38.000  
  20322275.996   106794280.927         135.304          47.000  
  21884518.675   115003913.654       -3247.768          43.000  
  24344130.157   130041975.646         298.197          29.000  
  20035357.980   105286516.541        -837.599          46.000  
  22131349.108   116301036.829        -314.916          45.000  
  21316057.660   112016667.638        1757.057          41.000  
  23122724.038   121510760.223       -2244.129          39.000  
  20486871.161   107659232.803         475.376          49.000  
  24210722.665                        3707.497          23.000  
  23444970.950   125150921.902       -4141.985          39.000  
  19741917.924   105531910.672        1683.316          43.000  
  20004706.674   106974189.276        2023.815          44.000  
  19513666.450   104385007.137       -1630.366          48.000  
  23566927.722   126155557.669       -4474.893          36.000  
  19772837.721   105882674.714       -2312.370          49.000  
  23904134.039                        3861.349          25.000  
 16  9 24 14  7 46.0000000  0 20R15G17G28G27G 1G 8R16G11G14G 3G32G22
                                R17R22R 1R24R23R 7R 8R 2
  24452626.526                       -2605.578          20.000  
  24692145.248   129757967.486        3032.301          33.000  
  23346380.861   122686027.469        -901.847          32.000  
  24950693.782   131116937.767       -4113.071          38.000  
  20322250.309   106794145.605         134.994          47.000  
  21885136.483   115007161.319       -3248.057          43.000  
  24344072.501   130041678.014         297.431          28.000  
  20035517.371   105287354.203        -837.974          46.000  
  22131408.997   116301351.937        -315.539          45.000  
  21315722.965   112014910.476        1757.148          41.000  
  23123151.010   121513004.433       -2244.673          39.000  
  20486780.734   107658757.443         475.010          49.000  
  24210032.753                        3705.401          22.000  
  23445748.008   125155063.990       -4142.354          41.000  
  19741603.192   105530227.570        1682.906          43.000  
  20004328.249   106972165.471        2023.562          44.000  
  19513971.130   104386637.569       -1630.816          48.000  
  23567763.657   126160032.215       -4474.654          37.000  
  19773269.335   105884987.184       -2312.867          49.000  
  23903410.274                        3858.191          26.000  
 16  9 24 14  7 47.0000000  0 20R15G17G28G27G 1G 8R16G11G14G 3G32G22
                                R17R22R 1R24R23R 7R 8R 2
  24453110.665                       -2599.677          21.000  
  24691567.960   129754934.423        3033.406          32.000  
  23346549.535   122686929.168        -902.183          31.000  
  24951476.494   131121051.000       -4113.355          38.000  
  20322224.832   106794010.626         134.867          47.000  
  21885754.534   115010409.402       -3248.184          43.000  
  24344014.287   130041381.160         296.628          28.000  
  20035676.761   105288192.398        -838.439          46.000  
  22131469.026   116301667.654        -315.888          45.000  
  21315388.618   112013153.707        1756.528          42.000  
  23123578.505   121515249.216       -2244.833          39.000  
  20486690.412   107658282.504         474.779          49.000  
  24209341.446                        3702.357          20.000  
  23446525.520   125159206.303       -4142.401          41.000  
  19741288.704   105528545.166        1682.078          44.000  
  20003949.858   106970142.174        2023.120          44.000  
  19514276.125   104388268.668       -1631.270          48.000  
  23568599.732   126164506.847       -4474.402          37.000  
  19773701.402   105887300.263       -2313.164          49.000  
  23902689.894   127549318.8253       3858.032          26.000  
 16  9 24 14  7 48.0000000  0 20R15G17G28G27G 1G 8R16G11G14G 3G32G22
                                R17R22R 1R24R23R 7R 8R 2
  24453594.455                       -2588.461          22.000  
  24690990.672   129751901.605        3032.479          32.000  
  23346720.931   122687831.416        -902.915          31.000  
  24952259.450   131125164.335       -4114.047          38.000  
  20322199.250   106793876.071         134.059          47.000  
  21886372.481   115013657.977       -3249.395          43.000  
  24343958.167   130041085.039         295.659          29.000  
  20035836.291   105289031.206        -839.460          46.000  
  22131529.125   116301984.073        -317.188          45.000  
  21315054.272   112011397.425        1755.879          42.000  
  23124006.036   121517494.657       -2246.359          38.000  
  20486600.194   107657808.085         473.801          50.000  
  24208647.765                        3716.719          19.000  
  23447302.264   125163348.903       -4143.038          40.000  
  19740974.356   105526863.541        1680.686          43.000  
  20003571.398   106968119.452        2021.943          44.000  
  19514581.260   104389900.513       -1632.639          48.000  
  23569435.841   126168981.636       -4474.999          36.000  
  19774133.330   105889614.064       -2314.693          49.000  
  23901972.550   127545461.2192       3857.398          30.000  
 16  9 24 14  7 49.0000000  0 20R15G17G28G27G 1G 8R16G11G14G 3G32G22
                                R17R22R 1R24R23R 7R 8R 2
  24454081.665                       -2594.330          22.000  
  24690411.848   129748868.828        3032.959          30.000  
  23346894.072   122688734.207        -902.928          31.000  
  24953042.372   131129277.672       -4113.566          38.000  
  20322173.563   106793741.850         133.788          47.000  
  21886990.603   115016906.886       -3249.460          43.000  
  24343905.258   130040789.744         294.695          29.000  
  20035996.274   105289870.518        -839.782          46.000  
  22131589.293   116302301.079        -317.634          45.000  
  21314720.415   112009641.524        1755.364          42.000  
  23124433.182   121519740.615       -2246.668          38.000  
  20486510.256   107657334.068         473.473          50.000  
  24207953.525                        3711.788          20.000  
  23448078.903   125167491.713       -4143.082          40.000  
  19740659.799   105525182.574        1680.383          44.000  
  20003193.182   106966097.199        2021.859          44.000  
  19514886.534   104391532.979       -1633.200          48.000  
  23570271.812   126173456.490       -4475.233          36.000  
  19774565.083   105891928.446       -2314.941          49.000  
  23901252.764   127541603.6472       3857.568          30.000  
 16  9 24 14  7 50.0000000  0 20R15G17G28G27G 1G 8R16G11G14G 3G32G22
                                R17R22R 1R24R23R 7R 8R 2
  24454566.955                       -2592.715          23.000  
  24689837.247   129745836.524        3032.564          31.000  
  23347069.307   122689637.755        -904.205          31.000  
  24953825.642   131133391.302       -4113.846          39.000  
  20322148.435   106793608.164         133.461          47.000  
  21887609.178   115020156.369       -3249.769          43.000  
  24343849.662   130040495.432         293.358          29.000  
  20036155.979   105290710.567        -840.283          46.000  
  22131649.741   116302618.918        -318.277          45.000  
  21314386.487   112007886.231        1754.827          42.000  
  23124860.224   121521987.309       -2246.960          39.000  
  20486420.213   107656860.680         473.016          50.000  
  24207260.926                        3712.205          18.000  
  23448856.031   125171634.927       -4143.284          41.000  
  19740345.974   105523502.509        1679.506          44.000  
  20002815.210   106964075.626        2021.242          44.000  
  19515192.052   104393166.323       -1633.783          48.000  
  23571107.677   126177931.612       -4475.544          36.000  
  19774997.290   105894243.695       -2315.634          49.000  
  23900539.818   127537746.3602       3858.576          30.000  
 16  9 24 14  7 51.0000000  0 20R15G17G28G27G 1G 8R16G11G14G 3G32G22
                                R17R22R 1R24R23R 7R 8R 2
  24455053.328                       -2594.287          24.000  
  24689259.191   129742804.186        3033.031          30.000  
  23347237.946   122690541.776        -903.744          31.000  
  24954608.598   131137504.904       -4113.382          39.000  
  20322123.167   106793474.776         133.550          47.000  
  21888227.335   115023406.202       -3249.847          43.000  
  24343796.927   130040201.921         292.395          30.000  
  20036315.753   105291551.103        -840.461          46.000  
  22131710.014   116302937.304        -318.425          45.000  
  21314052.525   112006131.269        1754.996          41.000  
  23125287.649   121524234.466       -2247.484          39.000  
  20486330.239   107656387.661         473.140          50.000  
  24206570.351                        3705.074          20.000  
  23449633.648   125175778.358       -4143.440          41.000  
  19740031.730   105521823.070        1679.386          44.000  
  20002437.204   106962054.464        2021.268          44.000  
  19515497.640   104394800.291       -1633.923          48.000  
  23571943.577   126182406.704       -4475.168          36.000  
  19775429.846   105896559.548       -2315.898          49.000  
  23899814.168   127533889.2262       3857.306          31.000  
 16  9 24 14  7 52.0000000  0 20R15G17G28G27G 1G 8R16G11G14G 3G32G22
                                R17R22R 1R24R23R 7R 8R 2
  24455536.105                       -2597.413          25.000  
  24688684.940   129739772.010        3031.549          32.000  
  23347408.295   122691446.399        -904.776          30.000  
  24955391.974   131141618.591       -4113.808          39.000  
  20322097.794   106793341.785         132.721          48.000  
  21888845.666   115026656.475       -3250.638          43.000  
  24343746.915   130039909.089         292.069          30.000  
  20036475.841   105292392.219        -841.443          46.000  
  22131771.159   116303256.369        -319.553          45.000  
  21313718.598   112004376.744        1754.396          42.000  
  23125715.075   121526482.215       -2247.727          39.000  
  20486240.336   107655915.128         472.284          50.000  
  24205877.961                        3708.173          21.000  
  23450410.811   125179922.034       -4143.952          41.000  
  19739718.115   105520144.422        1678.242          43.000  
  20002059.127   106960033.846        2020.277          44.000  
  19515803.543   104396435.002       -1635.146          48.000  
  23572779.513   126186881.868       -4475.255          37.000  
  19775862.193   105898876.093       -2316.971          49.000  
  23899089.146   127530032.2432       3856.677          31.000  
 16  9 24 14  7 53.0000000  0 20R15G17G28G27G 1G 8R16G11G14G 3G32G22
                                R17R22R 1R24R23R 7R 8R 2
  24456023.664                       -2596.441          26.000  
  24688098.996   129736740.261        3032.491          30.000  
  23347582.623   122692351.799        -905.475          32.000  
  24956174.581   131145732.529       -4113.889          38.000  
  20322072.666   106793209.336         132.262          48.000  
  21889464.032   115029907.338       -3251.145          43.000  
  24343688.911   130039617.256         291.373          29.000  
  20036636.034   105293234.077        -842.204          46.000  
  22131832.444   116303576.248        -320.193          46.000  
  21313384.880   112002622.854        1753.647          42.000  
  23126143.024   121528730.709       -2248.692          39.000  
  20486150.746   107655443.225         471.568          50.000  
  24205185.851                        3700.609          21.000  
  23451188.113   125184066.147       -4144.190          40.000  
  19739404.395   105518466.672        1677.272          44.000  
  20001681.400   106958013.897        2019.554          44.000  
  19516109.655   104398070.573       -1636.012          48.000  
  23573615.692   126191357.281       -4475.552          37.000  
  19776294.714   105901193.486       -2317.799          49.000  
  23898364.125   127526175.6382       3857.062          31.000  
 16  9 24 14  7 54.0000000  0 20R15G17G28G27G 1G 8R16G11G14G 3G32G22
                                R17R22R 1R24R23R 7R 8R 2
  24456510.002                       -2597.677          25.000  
  24687522.895   129733708.539        3030.990          29.000  
  23347758.172   122693257.661        -906.397          31.000  
  24956957.467   131149846.501       -4114.312          38.000  
  20322047.258   106793077.213         131.731          48.000  
  21890083.375   115033158.540       -3251.596          43.000  
  24343629.056   130039326.224         290.623          29.000  
  20036796.367   105294076.442        -842.922          46.000  
  22131893.625   116303896.720        -320.905          46.000  
  21313050.673   112000869.325        1753.182          41.000  
  23126571.602   121530979.748       -2249.509          41.000  
  20486060.703   107654971.734         471.115          50.000  
  24204493.845                        3704.249          21.000  
  23451965.311   125188210.486       -4144.631          41.000  
  19739090.745   105516789.613        1676.392          44.000  
  20001303.498   106955994.416        2018.900          44.000  
  19516416.045   104399706.786       -1636.722          49.000  
  23574451.697   126195832.732       -4475.572          34.000  
  19776727.479   105903511.471       -2318.338          49.000  
  23897638.998   127522319.116        3856.476          31.000  
 16  9 24 14  7 55.0000000  0 20R15G17G28G27G 1G 8R16G11G14G 3G32G22
                                R17R22R 1R24R23R 7R 8R 2
  24456997.107                       -2597.097          24.000  
  24686938.487   129730676.782        3031.861          29.000  
  23347929.045   122694163.993        -906.504          31.000  
  24957740.075   131153960.363       -4113.662          38.000  
  20322022.409   106792945.301         131.730          47.000  
  21890702.264   115036410.001       -3251.462          43.000  
  24343576.985   130039035.879         289.449          29.000  
  20036956.909   105294919.193        -842.953          46.000  
  22131955.015   116304217.679        -321.199          46.000  
  21312716.850   111999116.061        1753.121          41.000  
  23126999.795   121533229.194       -2249.280          41.000  
  20485971.044   107654500.532         471.025          50.000  
  24203801.909                        3702.335          21.000  
  23452742.579   125192354.914       -4144.339          42.000  
  19738777.234   105515113.109        1676.268          44.000  
  20000925.910   106953975.265        2018.862          44.000  
  19516722.401   104401343.540       -1637.019          49.000  
  23575287.493   126200308.211       -4475.470          34.000  
  19777160.524   105905829.970       -2318.792          49.000  
  23896912.232   127518462.670        3856.848          30.000  
 16  9 24 14  7 56.0000000  0 20R15G17G28G27G 1G 8R16G11G14G 3G32G22
                                R17R22R 1R24R23R 7R 8R 2
  24457483.619                       -2597.472          25.000  
  24686363.188   129727645.286        3031.719          28.000  
  23348102.290   122695070.859        -906.982          30.000  
  24958523.066   131158074.305       -4114.081          38.000  
  20321997.211   106792813.738         131.555          47.000  
  21891320.979   115039661.880       -3252.021          43.000  
  24343525.088   130038746.180         289.518          28.000  
  20037117.451   105295762.492        -843.429          46.000  
  22132016.509   116304539.271        -321.827          46.000  
  21312382.783   111997363.195        1752.816          41.000  
  23127428.163   121535479.181       -2250.188          41.000  
  20485881.350   107654029.771         470.666          50.000  
  24203109.380                        3710.868          20.000  
  23453519.916   125196499.501       -4144.438          42.000  
  19738463.758   105513437.336        1675.468          43.000  
  20000548.567   106951956.638        2018.574          44.000  
  19517028.443   104402980.975       -1637.752          49.000  
  23576123.428   126204783.760       -4475.014          33.000  
  19777593.568   105908149.118       -2319.468          49.000  
  23896186.617   127514606.406        3856.366          29.000  
 16  9 24 14  7 57.0000000  0 20G17G28G27G 1G 8R16G11G14G 3G32G22R17
                                R22R 1R24R23R 7R 8R 2R15
  24685784.958   129724613.716        3031.823          28.000  
  23348274.419   122695978.328        -909.799          30.000  
  24959305.988   131162188.273       -4113.850          38.000  
  20321972.467   106792682.515         131.092          47.000  
  21891939.869   115042914.125       -3252.331          43.000  
  24343466.804   130038457.345         288.637          28.000  
  20037278.237   105296606.320        -843.978          46.000  
  22132077.550   116304861.468        -322.626          46.000  
  21312048.786   111995610.736        1752.389          41.000  
  23127857.229   121537729.713       -2250.955          41.000  
  20485791.935   107653559.426         470.224          50.000  
  24202416.536                        3712.553          21.000  
  23454297.219   125200644.369       -4145.042          42.000  
  19738150.038   105511762.260        1674.725          43.000  
  20000171.083   106949938.496        2017.734          44.000  
  19517335.323   104404619.053       -1638.452          49.000  
  23576959.363   126209259.391       -4475.478          35.000  
  19778026.752   105910468.875       -2320.064          48.000  
  23895462.747   127510750.174        3856.293          29.000  
  24457971.877                       -2598.060          25.000  
 16  9 24 14  7 58.0000000  0 20R15G17G28G27G 1G 8R16G11G14G 3G32G22
                                R17R22R 1R24R23R 7R 8R 2
  24458459.191                       -2600.338          25.000  
  24685215.173   129721582.393        3030.684          29.000  
  23348449.654   122696886.216        -908.647          31.000  
  24960089.118   131166302.314       -4114.351          39.000  
  20321947.443   106792551.647         130.470          47.000  
  21892559.072   115046166.781       -3253.072          43.000  
  24343414.349   130038169.282         287.279          28.000  
  20037439.163   105297450.711        -844.917          46.000  
  22132139.254   116305184.292        -323.291          46.000  
  21311715.382   111993858.690        1751.473          41.000  
  23128285.981   121539980.776       -2251.492          41.000  
  20485702.346   107653089.528         469.487          49.000  
  24201725.124                        3707.812          19.000  
  23455074.277   125204789.451       -4145.382          41.000  
  19737836.912   105510087.890        1673.837          44.000  
  19999793.914   106947920.839        2017.156          44.000  
  19517641.993   104406257.813       -1639.393          49.000  
  23577795.264   126213735.085       -4475.603          36.000  
  19778459.762   105912789.285       -2321.000          49.000  
  23894744.635   127506894.145        3855.670          30.000  
 16  9 24 14  7 59.0000000  0 20G17G28G27G 1G 8R16G11G14G 3G32G22R17
                                R22R 1R24R23R 7R 8R 2R15
  24684637.431   129718551.313        3030.895          30.000  
  23348624.191   122697794.902        -909.739          30.000  
  24960872.284   131170416.542       -4114.174          39.000  
  20321922.908   106792421.281         130.042          47.000  
  21893178.346   115049419.965       -3253.442          43.000  
  24343358.648   130037882.139         286.926          28.000  
  20037599.984   105298295.783        -845.478          46.000  
  22132200.923   116305507.895        -323.864          46.000  
  21311381.874   111992107.200        1751.055          41.000  
  23128715.361   121542232.559       -2252.097          42.000  
  20485612.582   107652620.218         469.066          49.000  
  24201033.362                        3707.807          21.000  
  23455851.230   125208934.891       -4145.311          41.000  
  19737523.785   105508414.382        1673.141          44.000  
  19999416.676   106945903.839        2016.706          44.000  
  19517948.558   104407897.380       -1639.834          49.000  
  23578631.303   126218210.928       -4475.880          36.000  
  19778893.121   105915110.501       -2321.519          49.000  
  23894019.928   127503038.532        3855.237          29.000  
  24458949.368                       -2599.669          25.000  
 16  9 24 14  7 60.0000000  0 20G17G28G27G 1G 8R16G11G14G 3G32G22R17
                                R22R 1R24R23R 7R 8R 2R15
  24684062.063   129715520.132        3031.449          30.000  
  23348795.134   122698703.770        -908.924          29.000  
  24961654.996   131174530.567       -4114.064          38.000  
  20321897.885   106792291.011         130.084          47.000  
  21893797.863   115052673.290       -3253.379          44.000  
  24343303.191   130037595.497         286.908          28.000  
  20037761.085   105299141.126        -845.507          46.000  
  22132262.522   116305831.870        -324.081          46.000  
  21311048.505   111990355.834        1751.346          41.000  
  23129144.008   121544484.661       -2252.007          42.000  
  20485523.376   107652151.080         469.060          49.000  
  24200339.890                        3706.015          22.000  
  23456628.149   125213080.304       -4145.399          41.000  
  19737210.972   105506741.283        1672.997          44.000  
  19999039.786   106943887.056        2016.795          44.000  
  19518255.194   104409537.371       -1640.148          49.000  
  23579467.308   126222686.566       -4475.378          37.000  
  19779326.794   105917432.123       -2321.750          49.000  
  23893295.534   127499182.646        3855.994          29.000  
  24459435.426                       -2601.788          25.000  
 16  9 24 14  8  1.0000000  0 20R15G17G28G27G 1G 8R16G11G14G 3G32G22
                                R17R22R 1R24R23R 7R 8R 2
  24459921.380                       -2601.430          26.000  
  24683485.228   129712489.152        3029.577          30.000  
  23348967.228   122699613.193        -909.509          30.000  
  24962437.953   131178644.688       -4114.702          39.000  
  20321873.070   106792161.115         129.381          47.000  
  21894416.822   115055927.031       -3254.450          43.000  
  24343249.060   130037309.772         284.619          29.000  
  20037922.115   105299987.037        -846.452          46.000  
  22132324.645   116306156.499        -325.317          46.000  
  21310715.380   111988604.901        1750.798          41.000  
  23129572.446   121546737.311       -2253.157          41.000  
  20485433.891   107651682.402         468.191          49.000  
  24199648.094                        3711.524          23.000  
  23457404.998   125217225.957       -4146.080          41.000  
  19736897.671   105505068.947        1671.681          44.000  
  19998662.687   106941870.781        2015.742          44.000  
  19518561.585   104411178.057       -1641.306          49.000  
  23580303.558   126227162.410       -4476.392          37.000  
  19779760.606   105919754.392       -2322.923          49.000  
  23892578.016   127495326.926        3856.037          27.000  
 16  9 24 14  8  2.0000000  0 20R15G17G28G27G 1G 8R16G11G14G 3G32G22
                                R17R22R 1R24R23R 7R 8R 2
  24460410.405                       -2601.318          26.000  
  24682904.415   129709458.286        3031.007          30.000  
  23349135.971   122700523.367        -909.624          31.000  
  24963221.398   131182758.897       -4114.253          39.000  
  20321848.431   106792031.656         129.515          47.000  
  21895035.468   115059181.256       -3254.339          43.000  
  24343202.224   130037024.796         284.148          31.000  
  20038083.285   105300833.569        -846.691          46.000  
  22132386.628   116306481.822        -325.343          46.000  
  21310382.256   111986854.473        1750.675          41.000  
  23130001.058   121548990.582       -2253.277          41.000  
  20485344.581   107651214.234         468.314          49.000  
  24198955.879                        3707.400          25.000  
  23458181.846   125221371.912       -4146.069          41.000  
  19736584.754   105503397.390        1671.386          43.000  
  19998285.902   106939855.076        2015.604          44.000  
  19518868.394   104412819.508       -1641.480          49.000  
  23581140.051   126231638.363       -4476.024          38.000  
  19780194.384   105922077.358       -2322.928          49.000  
  23891855.124   127491471.602        3855.451          27.000  
 16  9 24 14  8  3.0000000  0 20R15G17G28G27G 1G 8R16G11G14G 3G32G22
                                R17R22R 1R24R23R 7R 8R 2
  24460897.580                       -2601.492          26.000  
  24682333.409   129706427.639        3030.993          31.000  
  23349309.880   122701434.105        -911.155          31.000  
  24964004.563   131186873.240       -4114.448          39.000  
  20321823.686   106791902.591         128.992          47.000  
  21895654.462   115062435.905       -3254.747          43.000  
  24343148.757   130036740.666         283.755          31.000  
  20038244.421   105301680.690        -847.302          46.000  
  22132448.681   116306807.825        -326.262          46.000  
  21310049.026   111985104.514        1749.542          41.000  
  23130429.531   121551244.455       -2254.158          41.000  
  20485255.934   107650746.551         467.560          49.000  
  24198262.058                        3706.778          25.000  
  23458958.451   125225518.192       -4146.318          41.000  
  19736272.116   105501726.576        1670.602          44.000  
  19997909.500   106937839.884        2015.014          45.000  
  19519175.204   104414461.677       -1642.448          49.000  
  23581976.266   126236114.425       -4475.828          37.000  
  19780628.615   105924401.043       -2323.934          49.000  
  23891127.694   127487616.370        3854.993          28.000  
 16  9 24 14  8  4.0000000  0 20R15G17G28G27G 1G 8R16G11G14G 3G32G22
                                R17R22R 1R24R23R 7R 8R 2
  24461384.651   130714222.3622      -2603.335          27.000  
  24681757.482   129703397.135        3030.574          31.000  
  23349477.891   122702345.354        -910.631          29.000  
  24964787.380   131190987.617       -4114.168          39.000  
  20321799.291   106791773.904         128.431          47.000  
  21896274.189   115065690.940       -3255.143          43.000  
  24343093.858   130036457.378         282.639          31.000  
  20038406.149   105302528.368        -847.868          46.000  
  22132510.979   116307134.463        -326.839          46.000  
  21309716.006   111983354.934        1749.557          41.000  
  23130859.050   121553498.882       -2254.653          41.000  
  20485166.868   107650279.320         467.027          49.000  
  24197568.866                        3716.599          22.000  
  23459734.986   125229664.721       -4146.767          41.000  
  19735959.652   105500056.501        1669.906          44.000  
  19997532.611   106935825.211        2014.370          44.000  
  19519482.084   104416104.544       -1643.134          49.000  
  23582812.480   126240590.629       -4476.450          37.000  
  19781062.706   105926725.404       -2324.653          49.000  
  23890400.229   127483761.231        3855.090          27.000  
