     2.11           OBSERVATION DATA    M (MIXED)           RINEX VERSION / TYPE
CONVBIN 2.4.3                           20160924 152556 UTC PGM / RUN BY / DATE 
log: Base.ubx                                               COMMENT             
format: u-blox                                              COMMENT             
                                                            MARKER NAME         
                                                            MARKER NUMBER       
                                                            OBSERVER / AGENCY   
                                                            REC # / TYPE / VERS 
                                                            ANT # / TYPE        
  4658497.5981    96926.6984  4341515.3834                  APPROX POSITION XYZ 
        0.0000        0.0000        0.0000                  ANTENNA: DELTA H/E/N
     1     1                                                WAVELENGTH FACT L1/2
     4    C1    L1    C2    L2                              # / TYPES OF OBSERV 
  2016     9    24    14     4   43.0000000     GPS         TIME OF FIRST OBS   
  2016     9    24    14    44   34.0010000     GPS         TIME OF LAST OBS    
                                                            END OF HEADER       
 16  9 24 14  4 43.0000000  0 22R16G11R17G23G27R 1R 2G28G 8G17R22R24
                                G 1R 7G32R 8R23G14G22G 3G10R15
  24394897.761   130313143.149                                  
  20046256.060   105343836.347                                  
  24374755.201   130434285.228                                  
  25333562.832   133128807.479                                  
  24845839.611   130565711.234                                  
  19839619.634   106054213.601                                  
  24074346.325   128465246.979                                  
  23354948.081   122731123.183                                  
  21811502.183   114620218.769                                  
  24836370.565   130516016.087                                  
  23342682.380   124604756.050                                  
  20113283.604   107554845.440                                  
  20366269.042   107025478.177                                  
  23453240.914   125547106.230                                  
  23084960.685   121312396.520                                  
  19734469.334   105677186.523                                  
  19498499.174   104303874.722                                  
  22160617.346   116454949.662                                  
  20542913.617   107953774.047                                  
  21416391.212   112543904.195                                  
  25738166.163   135254971.441                                  
  24403865.417                                                  
 16  9 24 14  4 44.0000000  0 22R16G11R17G23G27R 1R 2G28G 8G17R22R24
                                G 1R 7G32R 8R23G14G22G 3G10R15
  24394820.212   130312729.187                                  
  20046401.769   105344600.569                                  
  24374069.442   130430616.715                                  
  25332964.254   133125662.926                                  
  24846625.046   130569838.206                                  
  19839285.114   106052427.589                                  
  24073623.537   128461387.862                                  
  23355105.377   122731948.304                                  
  21812111.125   114623418.180                                  
  24835793.765   130512985.183                                  
  23343454.552   124608880.543                                  
  20112893.731   107552759.824                                  
  20366235.852   107025303.966                                  
  23454078.560   125551590.732                                  
  23085373.313   121314564.086                                  
  19734883.672   105679405.039                                  
  19498785.392   104305407.239                                  
  22160660.483   116455175.831                                  
  20542812.755   107953243.967                                  
  21416047.756   112542098.330                                  
  25738882.634   135258737.066                                  
  24404336.643                                                  
 16  9 24 14  4 45.0000000  0 22R16G11R17G23G27R 1R 2G28G 8G17R22R24
                                G 1R 7G32R 8R23G14G22G 3G10R15
  24394742.594   130312315.988                                  
  20046547.374   105345365.293                                  
  24373384.137   130426948.162                                  
  25332365.712   133122518.284                                  
  24847409.887   130573965.201                                  
  19838950.244   106050642.261                                  
  24072901.063   128457528.808                                  
  23355262.464   122732773.940                                  
  21812719.615   114626617.966                                  
  24835217.070   130509954.376                                  
  23344226.690   124613005.227                                  
  20112503.684   107550674.632                                  
  20366202.836   107025130.083                                  
  23454916.659   125556075.302                                  
  23085785.871   121316732.182                                  
  19735298.045   105681624.198                                  
  19499071.716   104306940.411                                  
  22160703.550   116455402.581                                  
  20542712.312   107952714.293                                  
  21415704.196   112540292.831                                  
  25739599.279   135262502.622                                  
  24404806.508                                                  
 16  9 24 14  4 46.0000000  0 22R16G11R17G23G27R 1R 2G28G 8G17R22R24
                                G 1R 7G32R 8R23G14G22G 3G10R15
  24394665.534   130311903.702                                  
  20046693.083   105346130.689                                  
  24372699.007   130423279.656                                  
  25331767.065   133119373.657                                  
  24848195.495   130578092.362                                  
  19838616.282   106048857.770                                  
  24072178.484   128453669.948                                  
  23355419.865   122733600.266                                  
  21813329.011   114629818.284                                  
  24834640.480   130506923.845                                  
  23344999.420   124617130.255                                  
  20112113.672   107548590.049                                  
  20366169.855   107024956.641                                  
  23455754.513   125560560.052                                  
  23086198.917   121318900.963                                  
  19735712.417   105683844.136                                  
  19499357.794   104308474.388                                  
  22160746.862   116455630.080                                  
  20542611.345   107952185.175                                  
  21415360.671   112538487.863                                  
  25740315.750   135266268.213                                  
  24405274.697                                                  
 16  9 24 14  4 47.0000000  0 22R16G11R17G23G27R 1R 2G28G 8G17R22R24
                                G 1R 7G32R 8R23G14G22G 3G10R15
  24394588.683   130311492.184                                  
  20046838.478   105346896.607                                  
  24372013.632   130419611.070                                  
  25331168.732   133116228.968                                  
  24848981.139   130582219.620                                  
  19838282.075   106047073.976                                  
  24071455.522   128449811.238                                  
  23355577.580   122734427.149                                  
  21813938.128   114633018.996                                  
  24834063.227   130503893.387                                  
  23345772.430   124621255.506                                  
  20111724.078   107546505.908                                  
  20366136.944   107024783.556                                  
  23456591.879   125565044.860                                  
  23086611.720   121321070.288                                  
  19736127.000   105686064.730                                  
  19499644.571   104310009.036                                  
  22160790.452   116455858.196                                  
  20542510.727   107951656.489                                  
  21415017.007   112536683.279                                  
  25741032.221   135270033.792                                  
  24405745.853                                                  
 16  9 24 14  4 48.0000000  0 22R16G11R17G23G27R 1R 2G28G 8G17R22R24
                                G 1R 7G32R 8R23G14G22G 3G10R15
  24394511.693   130311081.241                                  
  20046984.572   105347662.938                                  
  24371328.013   130415942.221                                  
  25330570.259   133113084.101                                  
  24849766.748   130586346.769                                  
  19837948.706   106045290.748                                  
  24070732.734   128445952.517                                  
  23355735.016   122735254.423                                  
  21814547.281   114636220.001                                  
  24833486.323   130500862.906                                  
  23346545.265   124625380.902                                  
  20111334.415   107544422.107                                  
  20366103.719   107024610.690                                  
  23457429.979   125569529.676                                  
  23087024.348   121323240.073                                  
  19736541.757   105688285.841                                  
  19499931.488   104311544.220                                  
  22160833.450   116456086.803                                  
  20542409.830   107951128.112                                  
  21414673.936   112534878.963                                  
  25741748.832   135273799.161                                  
  24406217.078                                                  
 16  9 24 14  4 49.0000000  0 22R16G11R17G23G27R 1R 2G28G 8G17R22R24
                                G 1R 7G32R 8R23G14G22G 3G10R15
  24394434.981   130310671.178                                  
  20047130.525   105348429.881                                  
  24370642.149   130412273.446                                  
  25329971.996   133109939.231                                  
  24850552.566   130590474.138                                  
  19837614.953   106043508.318                                  
  24070010.050   128442094.120                                  
  23355892.486   122736082.367                                  
  21815156.503   114639421.498                                  
  24832909.593   130497832.658                                  
  23347318.589   124629506.624                                  
  20110945.031   107542338.848                                  
  20366070.982   107024438.250                                  
  23458268.147   125574014.713                                  
  23087437.673   121325410.500                                  
  19736956.409   105690507.727                                  
  19500218.684   104313080.167                                  
  22160876.796   116456316.126                                  
  20542308.932   107950600.248                                  
  21414330.585   112533075.148                                  
  25742465.617   135277564.600                                  
  24406689.107                                                  
 16  9 24 14  4 50.0000000  0 22R16G11R17G23G27R 1R 2G28G 8G17R22R24
                                G 1R 7G32R 8R23G14G22G 3G10R15
  24394358.061   130310261.797                                  
  20047276.444   105349197.314                                  
  24369956.146   130408604.430                                  
  25329373.907   133106794.216                                  
  24851338.000   130594601.464                                  
  19837281.759   106041726.539                                  
  24069287.751   128438235.814                                  
  23356050.655   122736910.792                                  
  21815765.899   114642623.328                                  
  24832332.794   130494802.435                                  
  23348091.599   124633632.523                                  
  20110555.996   107540255.988                                  
  20366038.210   107024266.113                                  
  23459106.072   125578499.774                                  
  23087850.511   121327581.422                                  
  19737370.921   105692730.199                                  
  19500506.019   104314616.715                                  
  22160920.352   116456546.001                                  
  20542208.594   107950072.765                                  
  21413987.444   112531271.669                                  
  25743182.437   135281329.915                                  
  24407159.809                                                  
 16  9 24 14  4 51.0000000  0 22R16G11R17G23G27R 1R 2G28G 8G17R22R24
                                G 1R 7G32R 8R23G14G22G 3G10R15
  24394281.350   130309853.034                                  
  20047422.607   105349965.096                                  
  24369270.388   130404935.229                                  
  25328775.225   133103648.984                                  
  24852123.539   130598728.688                                  
  19836948.564   106039945.261                                  
  24068564.858   128434377.393                                  
  23356208.614   122737739.604                                  
  21816375.086   114645825.380                                  
  24831756.378   130491772.170                                  
  23348864.853   124637758.478                                  
  20110166.402   107538173.416                                  
  20366005.369   107024094.122                                  
  23459944.241   125582984.723                                  
  23088264.151   121329752.696                                  
  19737785.643   105694953.148                                  
  19500793.145   104316153.766                                  
  22160964.117   116456776.322                                  
  20542108.360   107949545.539                                  
  21413643.849   112529468.427                                  
  25743899.222   135285095.002                                  
  24407630.651                                                  
 16  9 24 14  4 52.0000000  0 22R16G11R17G23G27R 1R 2G28G 8G17R22R24
                                G 1R 7G32R 8R23G14G22G 3G10R15
  24394205.197   130309444.947                                  
  20047568.910   105350733.284                                  
  24368584.664   130401265.865                                  
  25328176.543   133100503.538                                  
  24852909.183   130602855.835                                  
  19836615.265   106038164.538                                  
  24067842.454   128430518.930                                  
  23356366.818   122738568.826                                  
  21816984.867   114649027.716                                  
  24831179.893   130488741.862                                  
  23349637.723   124641884.522                                  
  20109776.843   107536091.180                                  
  20365972.807   107023922.350                                  
  23460782.305   125587469.641                                  
  23088677.511   121331924.424                                  
  19738200.295   105697176.614                                  
  19501080.445   104317691.343                                  
  22161007.882   116457007.128                                  
  20542007.742   107949018.605                                  
  21413300.499   112527665.419                                  
  25744615.938   135288859.916                                  
  24408099.852                                                  
 16  9 24 14  4 53.0000000  0 22R16G11R17G23G27R 1R 2G28G 8G17R22R24
                                G 1R 7G32R 8R23G14G22G 3G10R15
  24394128.590   130309037.688                                  
  20047715.038   105351502.077                                  
  24367898.975   130397596.474                                  
  25327577.931   133097358.098                                  
  24853694.583   130606983.120                                  
  19836281.966   106036384.586                                  
  24067119.666   128426660.676                                  
  23356524.812   122739398.690                                  
  21817594.333   114652230.529                                  
  24830603.477   130485711.744                                  
  23350410.872   124646010.871                                  
  20109388.122   107534009.497                                  
  20365940.280   107023750.996                                  
  23461620.020   125591954.694                                  
  23089090.628   121334096.774                                  
  19738615.331   105699400.820                                  
  19501367.745   104319229.664                                  
  22161051.857   116457238.630                                  
  20541907.822   107948492.179                                  
  21412957.881   112525862.885                                  
  25745332.374   135292624.860                                  
  24408570.869                                                  
 16  9 24 14  4 54.0000000  0 22R16G11R17G23G27R 1R 2G28G 8G17R22R24
                                G 1R 7G32R 8R23G14G22G 3G10R15
  24394052.507   130308631.139                                  
  20047861.375   105352271.368                                  
  24367213.286   130393926.955                                  
  25326979.039   133094212.558                                  
  24854479.912   130611110.446                                  
  19835948.702   106034605.293                                  
  24066397.018   128422802.515                                  
  23356682.981   122740229.054                                  
  21818203.694   114655433.705                                  
  24830027.201   130482681.731                                  
  23351183.847   124650137.426                                  
  20108998.982   107531928.209                                  
  20365907.822   107023579.939                                  
  23462458.678   125596439.810                                  
  23089504.163   121336269.639                                  
  19739030.716   105701625.662                                  
  19501655.814   104320768.621                                  
  22161096.041   116457470.721                                  
  20541807.623   107947966.152                                  
  21412614.845   112524060.712                                  
  25746049.124   135296389.682                                  
  24409042.339                                                  
 16  9 24 14  4 55.0000000  0 22R16G11R17G23G27R 1R 2G28G 8G17R22R24
                                G 1R 7G32R 8R23G14G22G 3G10R15
  24393976.599   130308225.284                                  
  20048007.678   105353041.089                                  
  24366527.632   130390257.250                                  
  25326380.078   133091066.851                                  
  24855265.172   130615237.705                                  
  19835616.101   106032826.572                                  
  24065674.299   128418944.409                                  
  23356841.394   122741059.873                                  
  21818813.300   114658637.183                                  
  24829450.786   130479651.684                                  
  23351956.543   124654264.119                                  
  20108609.878   107529847.310                                  
  20365875.190   107023409.138                                  
  23463296.463   125600924.912                                  
  23089918.117   121338442.995                                  
  19739446.031   105703851.049                                  
  19501943.812   104322308.139                                  
  22161140.050   116457703.328                                  
  20541707.772   107947440.467                                  
  21412272.227   112522258.849                                  
  25746765.281   135300154.395                                  
  24409511.714                                                  
 16  9 24 14  4 56.0000000  0 22R16G11R17G23G27R 1R 2G28G 8G17R22R24
                                G 1R 7G32R 8R23G14G22G 3G10R15
  24393900.516   130307820.178                                  
  20048154.225   105353811.369                                  
  24365841.839   130386587.451                                  
  25325781.186   133087921.065                                  
  24856051.234   130619365.047                                  
  19835283.639   106031048.558                                  
  24064951.581   128415086.509                                  
  23356999.528   122741891.256                                  
  21819422.767   114661841.062                                  
  24828874.579   130476621.803                                  
  23352729.867   124658391.071                                  
  20108221.087   107527766.872                                  
  20365842.698   107023238.690                                  
  23464134.352   125605410.125                                  
  23090332.036   121340616.902                                  
  19739861.591   105706077.118                                  
  19502231.950   104323848.341                                  
  22161184.653   116457936.555                                  
  20541607.643   107946915.218                                  
  21411929.296   112520457.398                                  
  25747481.473   135303919.041                                  
  24409984.301                                                  
 16  9 24 14  4 57.0000000  0 22R16G11R17G23G27R 1R 2G28G 8G17R22R24
                                G 1R 7G32R 8R23G14G22G 3G10R15
  24393824.852   130307415.771                                  
  20048301.051   105354582.107                                  
  24365155.871   130382917.490                                  
  25325182.539   133084775.125                                  
  24856837.088   130623492.380                                  
  19834951.317   106029271.153                                  
  24064228.898   128411228.645                                  
  23357157.976   122742723.139                                  
  21820032.477   114665045.282                                  
  24828298.234   130473591.951                                  
  23353502.876   124662518.199                                  
  20107832.435   107525686.834                                  
  20365810.380   107023068.513                                  
  23464971.928   125609895.360                                  
  23090745.886   121342791.306                                  
  19740277.325   105708303.794                                  
  19502520.367   104325389.149                                  
  22161229.256   116458170.349                                  
  20541507.688   107946390.344                                  
  21411586.434   112518656.261                                  
  25748197.770   135307683.561                                  
  24410455.457                                                  
 16  9 24 14  4 58.0000000  0 22R16G11R17G23G27R 1R 2G28G 8G17R22R24
                                G 1R 7G32R 8R23G14G22G 3G10R15
  24393748.874   130307012.228                                  
  20048447.598   105355353.478                                  
  24364469.903   130379247.512                                  
  25324583.997   133081629.250                                  
  24857622.941   130627619.876                                  
  19834618.507   106027494.552                                  
  24063506.284   128407370.975                                  
  23357316.564   122743555.648                                  
  21820642.502   114668249.997                                  
  24827721.574   130470562.314                                  
  23354276.340   124666645.651                                  
  20107443.400   107523607.341                                  
  20365778.237   107022898.776                                  
  23465809.678   125614380.757                                  
  23091160.328   121344966.359                                  
  19740693.373   105710531.244                                  
  19502808.715   104326930.724                                  
  22161273.649   116458404.863                                  
  20541407.908   107945865.997                                  
  21411243.537   112516855.628                                  
  25748913.822   135311448.138                                  
  24410926.124                                                  
 16  9 24 14  4 59.0000000  0 22R16G11R17G23G27R 1R 2G28G 8G17R22R24
                                G 1R 7G32R 8R23G14G22G 3G10R15
  24393673.838   130306609.416                                  
  20048594.354   105356125.350                                  
  24363783.655   130375577.566                                  
  25323984.896   133078483.237                                  
  24858408.166   130631747.394                                  
  19834286.010   106025718.616                                  
  24062784.055   128403513.362                                  
  23357475.465   122744388.673                                  
  21821252.527   114671455.069                                  
  24827145.263   130467532.722                                  
  23355049.803   124670773.321                                  
  20107055.063   107521528.268                                  
  20365745.954   107022729.351                                  
  23466647.916   125618866.220                                  
  23091574.562   121347141.929                                  
  19741109.351   105712759.317                                  
  19503097.062   104328472.938                                  
  22161318.740   116458639.946                                  
  20541308.058   107945342.046                                  
  21410900.745   112515055.363                                  
  25749629.804   135315212.662                                  
  24411399.933                                                  
 16  9 24 14  5  0.0000000  0 22R16G11R17G23G27R 1R 2G28G 8G17R22R24
                                G 1R 7G32R 8R23G14G22G 3G10R15
  24393598.627   130306207.499                                  
  20048741.320   105356897.847                                  
  24363097.722   130371907.594                                  
  25323385.900   133075337.279                                  
  24859193.705   130635875.056                                  
  19833953.688   106023943.483                                  
  24062061.476   128399656.027                                  
  23357634.158   122745222.370                                  
  21821861.958   114674660.655                                  
  24826568.603   130464503.366                                  
  23355823.267   124674901.302                                  
  20106666.517   107519449.773                                  
  20365713.776   107022560.362                                  
  23467485.632   125623351.875                                  
  23091988.725   121349318.151                                  
  19741525.434   105714988.124                                  
  19503385.758   104330015.933                                  
  22161363.832   116458875.754                                  
  20541208.592   107944818.626                                  
  21410558.581   112513255.580                                  
  25750345.996   135318977.188                                  
  24411873.252                                                  
 16  9 24 14  5  1.0000000  0 22R16G11R17G23G27R 1R 2G28G 8G17R22R24
                                G 1R 7G32R 8R23G14G22G 3G10R15
  24393523.556   130305806.229                                  
  20048888.007   105357670.765                                  
  24362411.894   130368237.426                                  
  25322787.078   133072191.131                                  
  24859978.546   130640002.689                                  
  19833621.576   106022168.929                                  
  24061338.514   128395798.723                                  
  23357792.536   122746056.487                                  
  21822472.053   114677866.526                                  
  24825992.048   130461474.023                                  
  23356596.800   124679029.404                                  
  20106278.040   107517371.624                                  
  20365681.633   107022391.604                                  
  23468323.277   125627837.499                                  
  23092403.412   121351494.834                                  
  19741942.075   105717217.467                                  
  19503674.664   104331559.473                                  
  22161408.749   116459112.076                                  
  20541108.846   107944295.527                                  
  21410216.208   112511456.094                                  
  25751062.083   135322741.635                                  
  24412345.944                                                  
 16  9 24 14  5  2.0000000  0 22R16G11R17G23G27R 1R 2G28G 8G17R22R24
                                G 1R 7G32R 8R23G14G22G 3G10R15
  24393448.660   130305405.741                                  
  20049034.937   105358444.217                                  
  24361726.170   130364567.167                                  
  25322188.256   133069044.884                                  
  24860763.770   130644130.383                                  
  19833289.742   106020395.053                                  
  24060615.621   128391941.565                                  
  23357950.879   122746891.159                                  
  21823082.426   114681072.806                                  
  24825415.074   130458444.758                                  
  23357370.263   124683157.719                                  
  20105889.807   107515293.965                                  
  20365649.524   107022223.189                                  
  23469161.446   125632323.194                                  
  23092817.715   121353672.062                                  
  19742358.822   105719447.442                                  
  19503963.675   104333103.683                                  
  22161453.945   116459348.995                                  
  20541009.415   107943772.851                                  
  21409873.451   112509656.987                                  
  25751778.589   135326505.962                                  
  24412815.215                                                  
 16  9 24 14  5  3.0000000  0 22R16G11R17G23G27R 1R 2G28G 8G17R22R24
                                G 1R 7G32R 8R23G14G22G 3G10R15
  24393373.450   130305006.083                                  
  20049182.357   105359218.262                                  
  24361040.202   130360896.851                                  
  25321590.063   133065898.695                                  
  24861549.065   130648258.220                                  
  19832958.083   106018621.930                                  
  24059892.554   128388084.593                                  
  23358109.851   122747726.421                                  
  21823692.660   114684279.540                                  
  24824838.693   130455415.684                                  
  23358143.238   124687286.348                                  
  20105501.226   107513216.833                                  
  20365617.730   107022055.189                                  
  23469999.440   125636809.045                                  
  23093232.193   121355849.913                                  
  19742775.637   105721678.156                                  
  19504252.895   104334648.642                                  
  22161499.071   116459586.616                                  
  20540910.193   107943250.678                                  
  21409530.938   112507858.337                                  
  25752495.025   135330270.288                                  
  24413285.743                                                  
 16  9 24 14  5  4.0000000  0 22R16G11R17G23G27R 1R 2G28G 8G17R22R24
                                G 1R 7G32R 8R23G14G22G 3G10R15
  24393298.658   130304607.155                                  
  20049329.706   105359992.845                                  
  24360353.955   130357226.407                                  
  25320991.346   133062752.352                                  
  24862335.058   130652386.059                                  
  19832626.285   106016849.490                                  
  24059169.940   128384227.722                                  
  23358268.787   122748562.268                                  
  21824302.650   114687486.654                                  
  24824261.963   130452386.711                                  
  23358916.039   124691415.205                                  
  20105112.714   107511140.164                                  
  20365585.691   107021887.511                                  
  23470837.400   125641294.986                                  
  23093646.984   121358028.312                                  
  19743192.314   105723909.519                                  
  19504542.254   104336194.254                                  
  22161543.988   116459824.848                                  
  20540810.901   107942728.919                                  
  21409188.739   112506060.092                                  
  25753211.496   135334034.558                                  
  24413756.864                                                  
 16  9 24 14  5  5.0000000  0 22R16G11R17G23G27R 1R 2G28G 8G17R22R24
                                G 1R 7G32R 8R23G14G22G 3G10R15
  24393223.936   130304209.051                                  
  20049477.266   105360767.984                                  
  24359667.882   130353555.998                                  
  25320392.873   133059605.978                                  
  24863121.190   130656513.996                                  
  19832294.626   106015077.770                                  
  24058447.292   128380370.971                                  
  23358427.863   122749398.673                                  
  21824912.570   114690694.192                                  
  24823685.338   130449357.867                                  
  23359688.804   124695544.299                                  
  20104724.552   107509063.970                                  
  20365553.792   107021720.210                                  
  23471675.778   125645781.030                                  
  23094061.602   121360207.287                                  
  19743609.165   105726141.578                                  
  19504831.718   104337740.553                                  
  22161589.289   116460063.710                                  
  20540711.609   107942207.616                                  
  21408846.331   112504262.269                                  
  25753928.247   135337798.821                                  
  24414229.171                                                  
 16  9 24 14  5  6.0000000  0 22R16G11R17G23G27R 1R 2G28G 8G17R22R24
                                G 1R 7G32R 8R23G14G22G 3G10R15
  24393149.563   130303811.750                                  
  20049624.894   105361543.697                                  
  24358982.193   130349885.579                                  
  25319794.051   133056459.579                                  
  24863906.834   130660642.083                                  
  19831963.247   106013306.809                                  
  24057724.922   128376514.454                                  
  23358586.870   122750235.680                                  
  21825522.804   114693902.199                                  
  24823109.202   130446329.198                                  
  23360462.267   124699673.696                                  
  20104336.284   107506988.285                                  
  20365522.207   107021553.299                                  
  23472514.226   125650267.220                                  
  23094476.254   121362386.871                                  
  19744026.260   105728374.350                                  
  19505121.148   104339287.567                                  
  22161634.869   116460303.254                                  
  20540612.283   107941686.799                                  
  21408504.446   112502464.883                                  
  25754645.032   135341563.107                                  
  24414703.050                                                  
 16  9 24 14  5  7.0000000  0 22R16G11R17G23G27R 1R 2G28G 8G17R22R24
                                G 1R 7G32R 8R23G14G22G 3G10R15
  24393075.225   130303415.153                                  
  20049772.384   105362319.835                                  
  24358296.260   130346214.983                                  
  25319195.055   133053313.050                                  
  24864692.233   130664770.089                                  
  19831632.111   106011536.437                                  
  24057002.379   128372658.020                                  
  23358746.225   122751073.130                                  
  21826133.388   114697110.511                                  
  24822532.926   130443300.537                                  
  23361235.905   124703803.216                                  
  20103947.773   107504912.966                                  
  20365490.553   107021386.623                                  
  23473352.534   125654753.375                                  
  23094891.290   121364566.909                                  
  19744442.866   105730607.657                                  
  19505410.507   104340835.156                                  
  22161680.623   116460543.308                                  
  20540513.305   107941166.316                                  
  21408162.701   112500667.794                                  
  25755361.503   135345327.248                                  
  24415178.359                                                  
 16  9 24 14  5  8.0000000  0 22R16G11R17G23G27R 1R 2G28G 8G17R22R24
                                G 1R 7G32R 8R23G14G22G 3G10R15
  24393001.062   130303019.340                                  
  20049920.292   105363096.555                                  
  24357610.082   130342544.269                                  
  25318596.443   133050166.436                                  
  24865478.191   130668898.202                                  
  19831300.976   106009766.799                                  
  24056279.870   128368801.734                                  
  23358905.476   122751911.185                                  
  21826744.006   114700319.241                                  
  24821956.755   130440272.016                                  
  23362009.508   124707933.033                                  
  20103559.401   107502838.145                                  
  20365459.107   107021220.331                                  
  23474190.738   125659239.646                                  
  23095306.500   121366747.550                                  
  19744860.171   105732841.655                                  
  19505699.553   104342383.461                                  
  22161726.238   116460784.025                                  
  20540414.781   107940646.295                                  
  21407820.781   112498871.134                                  
  25756077.939   135349091.360                                  
  24415653.668                                                  
 16  9 24 14  5  9.0000000  0 22R16G11R17G23G27R 1R 2G28G 8G17R22R24
                                G 1R 7G32R 8R23G14G22G 3G10R15
  24392927.178   130302624.277                                  
  20050068.479   105363873.814                                  
  24356924.114   130338873.521                                  
  25317997.796   133047019.784                                  
  24866263.974   130673026.378                                  
  19830969.806   106007997.867                                  
  24055556.977   128364945.574                                  
  23359064.657   122752749.800                                  
  21827354.624   114703528.388                                  
  24821380.304   130437243.622                                  
  23362783.356   124712063.091                                  
  20103171.133   107500763.807                                  
  20365427.174   107021054.388                                  
  23475029.151   125663726.002                                  
  23095721.746   121368928.742                                  
  19745277.231   105735076.325                                  
  19505989.191   104343932.439                                  
  22161771.923   116461025.366                                  
  20540315.664   107940126.713                                  
  21407478.687   112497074.881                                  
  25756794.026   135352855.403                                  
  24416127.406                                                  
 16  9 24 14  5 10.0000000  0 22R16G11R17G23G27R 1R 2G28G 8G17R22R24
                                G 1R 7G32R 8R23G14G22G 3G10R15
  24392853.259   130302230.124                                  
  20050216.596   105364651.768                                  
  24356238.042   130335202.809                                  
  25317399.009   133043873.213                                  
  24867049.234   130677154.765                                  
  19830639.019   106006229.793                                  
  24054833.910   128361089.653                                  
  23359224.431   122753589.100                                  
  21827965.521   114706738.075                                  
  24820803.854   130434215.498                                  
  23363557.133   124716193.528                                  
  20102783.494   107498690.067                                  
  20365395.414   107020888.940                                  
  23475867.879   125668212.633                                  
  23096137.026   121371110.649                                  
  19745694.884   105737311.820                                  
  19506278.551   104345482.249                                  
  22161818.201   116461267.471                                  
  20540216.861   107939607.715                                  
  21407137.117   112495279.185                                  
  25757510.392   135356619.577                                  
  24416599.400                                                  
 16  9 24 14  5 11.0000000  0 22R16G11R17G23G27R 1R 2G28G 8G17R22R24
                                G 1R 7G32R 8R23G14G22G 3G10R15
  24392779.444   130301836.691                                  
  20050364.749   105365430.185                                  
  24355552.074   130331531.968                                  
  25316800.118   133040726.506                                  
  24867834.843   130681283.176                                  
  19830308.059   106004462.356                                  
  24054111.157   128357233.806                                  
  23359384.135   122754428.922                                  
  21828576.662   114709948.115                                  
  24820227.543   130431187.426                                  
  23364330.911   124720324.148                                  
  20102396.274   107496616.734                                  
  20365363.655   107020723.773                                  
  23476706.711   125672699.326                                  
  23096552.236   121373293.065                                  
  19746112.154   105739547.898                                  
  19506567.771   104347032.686                                  
  22161864.234   116461510.146                                  
  20540118.302   107939089.102                                  
  21406795.197   112493483.833                                  
  25758226.514   135360383.574                                  
  24417073.627                                                  
 16  9 24 14  5 12.0000000  0 22R16G11R17G23G27R 1R 2G28G 8G17R22R24
                                G 1R 7G32R 8R23G14G22G 3G10R15
  24392705.665   130301443.895                                  
  20050512.796   105366208.973                                  
  24354865.966   130327860.951                                  
  25316200.982   133037579.561                                  
  24868620.696   130685411.438                                  
  19829977.377   106002695.427                                  
  24053388.334   128353377.898                                  
  23359544.503   122755269.112                                  
  21829187.664   114713158.373                                  
  24819651.337   130428159.285                                  
  23365104.409   124724454.797                                  
  20102008.914   107494543.697                                  
  20365332.628   107020558.778                                  
  23477545.543   125677185.901                                  
  23096967.831   121375475.856                                  
  19746529.598   105741784.447                                  
  19506857.724   104348583.613                                  
  22161910.722   116461753.277                                  
  20540019.708   107938570.737                                  
  21406453.731   112491688.688                                  
  25758943.125   135364147.444                                  
  24417545.201                                                  
 16  9 24 14  5 13.0000000  0 22R16G11R17G23G27R 1R 2G28G 8G17R22R24
                                G 1R 7G32R 8R23G14G22G 3G10R15
  24392631.990   130301051.898                                  
  20050661.333   105366988.354                                  
  24354179.823   130324189.843                                  
  25315602.474   133034432.617                                  
  24869406.444   130689539.846                                  
  19829647.358   106000929.255                                  
  24052665.511   128349522.225                                  
  23359704.661   122756109.905                                  
  21829798.387   114716369.101                                  
  24819075.514   130425131.333                                  
  23365878.117   124728585.746                                  
  20101621.170   107492471.179                                  
  20365301.078   107020394.199                                  
  23478384.025   125681672.652                                  
  23097383.565   121377659.265                                  
  19746947.356   105744021.706                                  
  19507147.746   104350135.265                                  
  22161957.244   116461997.070                                  
  20539921.394   107938052.874                                  
  21406112.161   112489893.998                                  
  25759659.177   135367911.247                                  
  24418018.242                                                  
 16  9 24 14  5 14.0000000  0 22R16G11R17G23G27R 1R 2G28G 8G17R22R24
                                G 1R 7G32R 8R23G14G22G 3G10R15
  24392558.804   130300660.865                                  
  20050809.555   105367768.426                                  
  24353493.611   130320518.823                                  
  25315003.862   133031285.773                                  
  24870192.193   130693668.457                                  
  19829317.165   105999163.936                                  
  24051942.514   128345666.873                                  
  23359864.470   122756951.415                                  
  21830409.843   114719580.395                                  
  24818499.901   130422103.648                                  
  23366651.580   124732717.093                                  
  20101233.601   107490399.296                                  
  20365269.912   107020230.107                                  
  23479222.334   125686159.636                                  
  23097799.089   121379843.389                                  
  19747365.568   105746259.780                                  
  19507437.873   104351687.754                                  
  22162003.696   116462241.649                                  
  20539823.254   107937535.616                                  
  21405770.800   112488099.876                                  
  25760375.055   135371675.233                                  
  24418491.631                                                  
 16  9 24 14  5 15.0000000  0 22R16G11R17G23G27R 1R 2G28G 8G17R22R24
                                G 1R 7G32R 8R23G14G22G 3G10R15
  24392485.897   130300270.589                                  
  20050957.951   105368549.039                                  
  24352807.294   130316847.769                                  
  25314405.075   133028138.827                                  
  24870978.255   130697797.162                                  
  19828987.042   105997399.304                                  
  24051219.865   128341811.652                                  
  23360024.698   122757793.484                                  
  21831020.914   114722792.095                                  
  24817923.765   130419076.072                                  
  23367424.695   124736848.693                                  
  20100846.415   107488327.881                                  
  20365238.781   107020066.382                                  
  23480060.503   125690646.690                                  
  23098214.998   121382028.081                                  
  19747783.675   105748498.539                                  
  19507728.420   104353240.922                                  
  22162049.730   116462486.847                                  
  20539724.834   107937018.776                                  
  21405429.787   112486306.153                                  
  25761091.247   135375439.111                                  
  24418962.054                                                  
 16  9 24 14  5 16.0000000  0 22R16G11R17G23G27R 1R 2G28G 8G17R22R24
                                G 1R 7G32R 8R23G14G22G 3G10R15
  24392413.339   130299881.113                                  
  20051106.488   105369330.217                                  
  24352120.942   130313176.671                                  
  25313806.254   133024991.877                                  
  24871763.934   130701925.926                                  
  19828656.814   105995635.396                                  
  24050497.322   128337956.594                                  
  23360185.135   122758636.137                                  
  21831632.126   114726004.234                                  
  24817347.908   130416048.667                                  
  23368198.752   124740980.547                                  
  20100459.509   107486256.959                                  
  20365207.824   107019903.034                                  
  23480898.776   125695133.867                                  
  23098630.453   121384213.363                                  
  19748201.713   105750738.013                                  
  19508018.826   104354794.802                                  
  22162096.357   116462732.713                                  
  20539626.485   107936502.411                                  
  21405088.601   112484512.863                                  
  25761807.299   135379203.005                                  
  24419434.886                                                  
 16  9 24 14  5 17.0000000  0 22R16G11R17G23G27R 1R 2G28G 8G17R22R24
                                G 1R 7G32R 8R23G14G22G 3G10R15
  24392341.095   130299492.367                                  
  20051255.059   105370111.917                                  
  24351434.765   130309505.486                                  
  25313207.327   133021844.813                                  
  24872549.927   130706054.761                                  
  19828326.796   105993872.167                                  
  24049775.092   128334101.683                                  
  23360345.642   122759479.321                                  
  21832243.162   114729216.766                                  
  24816771.737   130413021.366                                  
  23368972.983   124745112.626                                  
  20100071.940   107484186.500                                  
  20365176.693   107019740.018                                  
  23481737.294   125699621.132                                  
  23099046.187   121386399.190                                  
  19748619.890   105752978.145                                  
  19508309.721   104356349.346                                  
  22162143.368   116462979.183                                  
  20539528.519   107935986.471                                  
  21404747.554   112482719.959                                  
  25762523.421   135382966.856                                  
  24419906.286                                                  
 16  9 24 14  5 18.0000000  0 22R16G11R17G23G27R 1R 2G28G 8G17R22R24
                                G 1R 7G32R 8R23G14G22G 3G10R15
  24392268.537   130299104.432                                  
  20051404.014   105370894.193                                  
  24350748.343   130305834.266                                  
  25312608.296   133018697.756                                  
  24873335.919   130710183.699                                  
  19827997.021   105992109.695                                  
  24049052.234   128330246.876                                  
  23360506.184   122760323.113                                  
  21832854.897   114732429.751                                  
  24816195.496   130409994.207                                  
  23369747.563   124749244.981                                  
  20099684.824   107482116.564                                  
  20365145.527   107019577.372                                  
  23482575.882   125704108.521                                  
  23099462.549   121388585.612                                  
  19749038.451   105755218.935                                  
  19508600.826   104357904.599                                  
  22162190.693   116463226.307                                  
  20539430.275   107935471.002                                  
  21404406.437   112480927.497                                  
  25763239.892   135386730.669                                  
  24420378.209                                                  
 16  9 24 14  5 19.0000000  0 22R16G11R17G23G27R 1R 2G28G 8G17R22R24
                                G 1R 7G32R 8R23G14G22G 3G10R15
  24392196.188   130298717.162                                  
  20051552.899   105371676.873                                  
  24350061.537   130302162.894                                  
  25312009.335   133015550.500                                  
  24874122.121   130714312.584                                  
  19827667.422   105990347.794                                  
  24048330.074   128326392.090                                  
  23360666.901   122761167.310                                  
  21833466.527   114735642.994                                  
  24815619.429   130406967.039                                  
  23370521.620   124753377.446                                  
  20099297.569   107480046.983                                  
  20365114.884   107019414.963                                  
  23483414.330   125708595.849                                  
  23099878.806   121390772.484                                  
  19749456.802   105757460.234                                  
  19508891.930   104359460.409                                  
  22162237.529   116463473.932                                  
  20539332.379   107934955.845                                  
  21404065.180   112479135.318                                  
  25763956.154   135390494.308                                  
  24420852.018                                                  
 16  9 24 14  5 20.0000000  0 22R16G11R17G23G27R 1R 2G28G 8G17R22R24
                                G 1R 7G32R 8R23G14G22G 3G10R15
  24392123.909   130298330.597                                  
  20051701.715   105372460.045                                  
  24349375.429   130298491.286                                  
  25311410.269   133012403.135                                  
  24874907.940   130718441.480                                  
  19827337.822   105988586.550                                  
  24047608.089   128322537.391                                  
  23360827.652   122762012.030                                  
  21834077.913   114738856.605                                  
  24815043.223   130403939.938                                  
  23371295.712   124757510.109                                  
  20098910.558   107477977.822                                  
  20365083.928   107019252.852                                  
  23484252.534   125713083.211                                  
  23100295.273   121392959.841                                  
  19749875.259   105759702.151                                  
  19509183.035   104361016.829                                  
  22162284.959   116463722.127                                  
  20539234.553   107934441.067                                  
  21403724.413   112477343.477                                  
  25764672.136   135394257.843                                  
  24421323.941                                                  
 16  9 24 14  5 21.0000000  0 22R16G11R17G23G27R 1R 2G28G 8G17R22R24
                                G 1R 7G32R 8R23G14G22G 3G10R15
  24392052.015   130297944.874                                  
  20051850.495   105373243.794                                  
  24348689.322   130294819.643                                  
  25310811.517   133009255.752                                  
  24875693.863   130722570.471                                  
  19827008.606   105986826.058                                  
  24046885.790   128318682.910                                  
  23360988.473   122762857.331                                  
  21834689.543   114742070.653                                  
  24814466.877   130400912.988                                  
  23372069.664   124761643.053                                  
  20098523.861   107475909.152                                  
  20365053.215   107019091.100                                  
  23485090.633   125717570.711                                  
  23100711.845   121395147.800                                  
  19750293.540   105761944.802                                  
  19509474.384   104362573.947                                  
  22162332.807   116463970.988                                  
  20539136.797   107933926.768                                  
  21403383.854   112475552.072                                  
  25765387.979   135398021.352                                  
  24421796.389                                                  
 16  9 24 14  5 22.0000000  0 22R16G11R17G23G27R 1R 2G28G 8G17R22R24
                                G 1R 7G32R 8R23G14G22G 3G10R15
  24391979.910   130297559.917                                  
  20051999.764   105374028.070                                  
  24348003.109   130291148.022                                  
  25310212.626   133006108.237                                  
  24876479.681   130726699.500                                  
  19826679.460   105985066.267                                  
  24046163.316   128314828.506                                  
  23361149.120   122763703.195                                  
  21835301.453   114745285.104                                  
  24813890.741   130397886.152                                  
  23372844.104   124765776.236                                  
  20098137.094   107473840.920                                  
  20365022.329   107018929.710                                  
  23485928.522   125722058.302                                  
  23101128.102   121397336.303                                  
  19750712.206   105764188.135                                  
  19509765.767   104364131.718                                  
  22162380.132   116464220.463                                  
  20539039.076   107933412.892                                  
  21403043.121   112473761.064                                  
  25766104.136   135401784.815                                  
  24422269.045                                                  
 16  9 24 14  5 23.0000000  0 22R16G11R17G23G27R 1R 2G28G 8G17R22R24
                                G 1R 7G32R 8R23G14G22G 3G10R15
  24391908.295   130297175.813                                  
  20052149.138   105374812.964                                  
  24347316.792   130287476.413                                  
  25309613.525   133002960.750                                  
  24877265.290   130730828.639                                  
  19826350.349   105983307.251                                  
  24045440.946   128310974.363                                  
  23361309.732   122764549.676                                  
  21835913.013   114748500.023                                  
  24813314.779   130394859.497                                  
  23373618.719   124769909.727                                  
  20097750.293   107471773.210                                  
  20364991.442   107018768.727                                  
  23486766.761   125726546.077                                  
  23101544.883   121399525.451                                  
  19751130.941   105766432.190                                  
  19510057.081   104365690.247                                  
  22162427.911   116464470.632                                  
  20538941.494   107932899.530                                  
  21402702.318   112471970.528                                  
  25766820.118   135405548.338                                  
  24422744.668                                                  
 16  9 24 14  5 24.0000000  0 22R16G11R17G23G27R 1R 2G28G 8G17R22R24
                                G 1R 7G32R 8R23G14G22G 3G10R15
  24391837.237   130296792.503                                  
  20052298.477   105375598.441                                  
  24346630.545   130283804.653                                  
  25309014.528   132999813.242                                  
  24878051.073   130734957.918                                  
  19826021.517   105981548.962                                  
  24044718.787   128307120.398                                  
  23361471.251   122765396.754                                  
  21836525.236   114751715.378                                  
  24812738.747   130391833.019                                  
  23374393.230   124774043.476                                  
  20097364.085   107469706.030                                  
  20364960.834   107018608.148                                  
  23487605.244   125731033.977                                  
  23101961.210   121401715.209                                  
  19751549.991   105768676.931                                  
  19510348.360   104367249.492                                  
  22162475.550   116464721.452                                  
  20538844.052   107932386.636                                  
  21402361.655   112470180.442                                  
  25767536.485   135409311.764                                  
  24423218.826                                                  
 16  9 24 14  5 25.0000000  0 22R16G11R17G23G27R 1R 2G28G 8G17R22R24
                                G 1R 7G32R 8R23G14G22G 3G10R15
  24391765.587   130296410.085                                  
  20052448.165   105376384.544                                  
  24345944.228   130280132.975                                  
  25308415.846   132996665.773                                  
  24878836.856   130739087.358                                  
  19825693.034   105979791.475                                  
  24043996.417   128303266.685                                  
  23361632.561   122766244.494                                  
  21837137.390   114754931.258                                  
  24812162.645   130388806.770                                  
  23375167.112   124778177.558                                  
  20096977.562   107467639.425                                  
  20364930.575   107018448.000                                  
  23488443.692   125735522.096                                  
  23102378.166   121403905.611                                  
  19751969.389   105770922.430                                  
  19510640.128   104368809.528                                  
  22162523.783   116464973.008                                  
  20538746.436   107931874.276                                  
  21402021.341   112468390.850                                  
  25768252.153   135413075.311                                  
  24423694.135                                                  
 16  9 24 14  5 26.0000000  0 22R16G11R17G23G27R 1R 2G28G 8G17R22R24
                                G 1R 7G32R 8R23G14G22G 3G10R15
  24391694.355   130296028.363                                  
  20052598.237   105377171.130                                  
  24345258.016   130276461.143                                  
  25307816.815   132993518.174                                  
  24879622.640   130743216.795                                  
  19825364.621   105978034.631                                  
  24043274.048   128299413.029                                  
  23361793.906   122767092.722                                  
  21837749.683   114758147.443                                  
  24811586.544   130385780.543                                  
  23375941.274   124782311.852                                  
  20096591.354   107465573.251                                  
  20364900.177   107018288.147                                  
  23489282.280   125740010.227                                  
  23102795.087   121406096.509                                  
  19752388.823   105773168.516                                  
  19510931.512   104370370.161                                  
  22162572.259   116465225.131                                  
  20538649.168   107931362.299                                  
  21401680.992   112466601.609                                  
  25768968.170   135416838.732                                  
  24424167.699                                                  
 16  9 24 14  5 27.0000000  0 22R16G11R17G23G27R 1R 2G28G 8G17R22R24
                                G 1R 7G32R 8R23G14G22G 3G10R15
  24391623.263   130295647.599                                  
  20052748.099   105377958.418                                  
  24344572.082   130272789.494                                  
  25307218.203   132990370.692                                  
  24880408.283   130747346.463                                  
  19825036.662   105976278.644                                  
  24042552.098   128295559.654                                  
  23361955.355   122767941.662                                  
  21838361.662   114761364.215                                  
  24811010.443   130382754.640                                  
  23376715.819   124786446.546                                  
  20096205.111   107463507.741                                  
  20364869.395   107018128.808                                  
  23490120.728   125744498.599                                  
  23103212.077   121408288.149                                  
  19752808.884   105775415.442                                  
  19511223.454   104371931.645                                  
  22162620.422   116465478.056                                  
  20538551.970   107930850.922                                  
  21401340.887   112464812.921                                  
  25769684.432   135420602.267                                  
  24424643.078                                                  
 16  9 24 14  5 28.0000000  0 22R16G11R17G23G27R 1R 2G28G 8G17R22R24
                                G 1R 7G32R 8R23G14G22G 3G10R15
  24391552.275   130295267.619                                  
  20052897.857   105378746.265                                  
  24343886.184   130269117.709                                  
  25306619.312   132987223.110                                  
  24881194.450   130751476.220                                  
  19824708.423   105974523.380                                  
  24041830.147   128291706.397                                  
  23362116.770   122768791.197                                  
  21838973.816   114764581.427                                  
  24810434.550   130379728.871                                  
  23377490.329   124790581.499                                  
  20095818.938   107461442.735                                  
  20364839.171   107017969.865                                  
  23490959.106   125748987.052                                  
  23103629.172   121410480.373                                  
  19753228.946   105777663.067                                  
  19511515.291   104373493.836                                  
  22162668.340   116465731.613                                  
  20538454.633   107930340.005                                  
  21401000.503   112463024.672                                  
  25770400.380   135424365.830                                  
  24425119.852                                                  
 16  9 24 14  5 29.0000000  0 22R16G11R17G23G27R 1R 2G28G 8G17R22R24
                                G 1R 7G32R 8R23G14G22G 3G10R15
  24391481.288   130294888.229                                  
  20053047.650   105379534.491                                  
  24343200.356   130265445.760                                  
  25306020.560   132984075.355                                  
  24881980.618   130755605.869                                  
  19824380.150   105972768.646                                  
  24041107.743   128287853.157                                  
  23362278.847   122769641.092                                  
  21839586.109   114767798.872                                  
  24809858.623   130376703.032                                  
  23378264.840   124794716.509                                  
  20095432.974   107459378.028                                  
  20364808.738   107017811.073                                  
  23491797.310   125753475.400                                  
  23104047.035   121412672.977                                  
  19753648.938   105779911.187                                  
  19511807.268   104375056.538                                  
  22162716.852   116465985.642                                  
  20538357.680   107929829.363                                  
  21400660.573   112461236.633                                  
  25771116.781   135428129.116                                  
  24425593.486                                                  
 16  9 24 14  5 30.0000000  0 22R16G11R17G23G27R 1R 2G28G 8G17R22R24
                                G 1R 7G32R 8R23G14G22G 3G10R15
  24391410.405   130294509.629                                  
  20053197.652   105380323.229                                  
  24342515.749   130261773.574                                  
  25305421.389   132980927.499                                  
  24882766.541   130759735.556                                  
  19824051.981   105971014.595                                  
  24040385.828   128284000.069                                  
  23362440.436   122770491.544                                  
  21840198.263   114771016.664                                  
  24809282.941   130373677.320                                  
  23379039.769   124798851.752                                  
  20095046.731   107457313.770                                  
  20364778.444   107017652.609                                  
  23492636.037   125757963.863                                  
  23104464.409   121414866.116                                  
  19754069.000   105782159.926                                  
  19512099.594   104376619.877                                  
  22162765.119   116466240.271                                  
  20538260.482   107929319.130                                  
  21400320.329   112459449.001                                  
  25771832.833   135431892.348                                  
  24426070.331                                                  
 16  9 24 14  5 31.0000000  0 22R16G11R17G23G27R 1R 2G28G 8G17R22R24
                                G 1R 7G32R 8R23G14G22G 3G10R15
  24391339.732   130294131.872                                  
  20053347.829   105381112.558                                  
  24341826.919   130258101.579                                  
  25304822.323   132977779.631                                  
  24883551.800   130763865.397                                  
  19823724.475   105969261.304                                  
  24039663.703   128280147.205                                  
  23362602.479   122771342.598                                  
  21840810.626   114774234.943                                  
  24808707.223   130370651.748                                  
  23379814.245   124802987.284                                  
  20094660.627   107455250.023                                  
  20364747.871   107017494.559                                  
  23493474.415   125762452.468                                  
  23104881.819   121417059.896                                  
  19754489.061   105784409.377                                  
  19512391.886   104378183.956                                  
  22162813.735   116466495.569                                  
  20538163.633   107928809.400                                  
  21399980.468   112457661.832                                  
  25772548.920   135435655.612                                  
  24426548.188                                                  
 16  9 24 14  5 32.0000000  0 22R16G11R17G23G27R 1R 2G28G 8G17R22R24
                                G 1R 7G32R 8R23G14G22G 3G10R15
  24391269.128   130293754.761                                  
  20053498.389   105381902.329                                  
  24341135.262   130254429.310                                  
  25304223.397   132974631.622                                  
  24884337.758   130767995.169                                  
  19823396.900   105967508.618                                  
  24038941.787   128276294.355                                  
  23362764.522   122772194.101                                  
  21841423.164   114777453.535                                  
  24808131.750   130367626.230                                  
  23380588.651   124807122.965                                  
  20094274.838   107453186.652                                  
  20364717.787   107017336.751                                  
  23494313.282   125766941.098                                  
  23105299.367   121419254.118                                  
  19754909.262   105786659.365                                  
  19512684.491   104379748.602                                  
  22162862.526   116466751.389                                  
  20538066.575   107928300.004                                  
  21399640.887   112455874.949                                  
  25773265.007   135439418.698                                  
  24427025.521                                                  
 16  9 24 14  5 33.0000000  0 22R16G11R17G23G27R 1R 2G28G 8G17R22R24
                                G 1R 7G32R 8R23G14G22G 3G10R15
  24391198.175   130293378.438                                  
  20053648.705   105382692.642                                  
  24340446.572   130250756.900                                  
  25303624.191   132971483.514                                  
  24885123.995   130772125.035                                  
  19823069.359   105965756.623                                  
  24038219.732   128272441.602                                  
  23362926.844   122773046.181                                  
  21842035.876   114780672.527                                  
  24807556.067   130364600.815                                  
  23381363.475   124811258.860                                  
  20093888.979   107451123.725                                  
  20364687.843   107017179.307                                  
  23495152.289   125771429.848                                  
  23105716.672   121421448.912                                  
  19755329.394   105788910.022                                  
  19512977.410   104381313.918                                  
  22162911.596   116467007.843                                  
  20537969.866   107927791.041                                  
  21399300.957   112454088.473                                  
  25773980.815   135443181.760                                  
  24427501.667                                                  
 16  9 24 14  5 34.0000000  0 22R16G11R17G23G27R 1R 2G28G 8G17R22R24
                                G 1R 7G32R 8R23G14G22G 3G10R15
  24391128.025   130293002.896                                  
  20053799.196   105383483.497                                  
  24339763.221   130247084.545                                  
  25303024.916   132968335.402                                  
  24885909.569   130776254.951                                  
  19822742.133   105964005.344                                  
  24037497.817   128268588.994                                  
  23363088.991   122773898.795                                  
  21842648.623   114783891.921                                  
  24806980.629   130361575.515                                  
  23382139.067   124815394.995                                  
  20093503.189   107449061.280                                  
  20364658.003   107017022.192                                  
  23495991.330   125775918.653                                  
  23106134.605   121423644.262                                  
  19755749.944   105791161.366                                  
  19513269.841   104382879.933                                  
  22162959.968   116467264.927                                  
  20537873.017   107927282.524                                  
  21398960.887   112452302.410                                  
  25774696.623   135446944.770                                  
  24427977.186                                                  
 16  9 24 14  5 35.0000000  0 22R16G11R17G23G27R 1R 2G28G 8G17R22R24
                                G 1R 7G32R 8R23G14G22G 3G10R15
  24391057.980   130292628.103                                  
  20053949.756   105384274.865                                  
  24339075.473   130243412.001                                  
  25302425.780   132965187.168                                  
  24886695.248   130780384.893                                  
  19822414.802   105962254.727                                  
  24036775.936   128264736.493                                  
  23363251.313   122774751.958                                  
  21843261.544   114787111.685                                  
  24806404.772   130358550.320                                  
  23382914.311   124819531.319                                  
  20093117.749   107446999.267                                  
  20364628.093   107016865.420                                  
  23496830.371   125780407.445                                  
  23106552.502   121425840.143                                  
  19756170.878   105793413.331                                  
  19513562.516   104384446.575                                  
  22163009.143   116467522.613                                  
  20537776.343   107926774.405                                  
  21398621.306   112450516.712                                  
  25775413.059   135450707.700                                  
  24428454.729                                                  
 16  9 24 14  5 36.0000000  0 22R16G11R17G23G27R 1R 2G28G 8G17R22R24
                                G 1R 7G32R 8R23G14G22G 3G10R15
  24390987.761   130292254.017                                  
  20054100.352   105385066.714                                  
  24338391.180   130239739.295                                  
  25301826.784   132962038.813                                  
  24887480.996   130784514.837                                  
  19822087.435   105960504.768                                  
  24036054.055   128260884.088                                  
  23363413.530   122775605.614                                  
  21843874.116   114790331.817                                  
  24805828.984   130355525.172                                  
  23383689.345   124823667.873                                  
  20092732.308   107444937.693                                  
  20364598.114   107016708.933                                  
  23497668.785   125784896.287                                  
  23106970.435   121428036.516                                  
  19756591.603   105795665.898                                  
  19513855.261   104386013.828                                  
  22163057.864   116467780.855                                  
  20537679.983   107926266.681                                  
  21398281.410   112448731.365                                  
  25776128.832   135454470.521                                  
  24428930.177                                                  
 16  9 24 14  5 37.0000000  0 22R16G11R17G23G27R 1R 2G28G 8G17R22R24
                                G 1R 7G32R 8R23G14G22G 3G10R15
  24390917.925   130291880.726                                  
  20054251.436   105385859.149                                  
  24337704.445   130236066.654                                  
  25301227.857   132958890.435                                  
  24888267.024   130788644.903                                  
  19821760.488   105958755.549                                  
  24035332.524   128257031.905                                  
  23363575.887   122776459.854                                  
  21844486.968   114793552.388                                  
  24805252.778   130352500.218                                  
  23384464.518   124827804.684                                  
  20092346.973   107442876.667                                  
  20364568.379   107016552.841                                  
  23498507.477   125789385.313                                  
  23107388.193   121430233.512                                  
  19757012.398   105797919.158                                  
  19514148.843   104387581.798                                  
  22163107.074   116468039.779                                  
  20537583.169   107925759.429                                  
  21397941.934   112446946.458                                  
  25776845.059   135458233.384                                  
  24429408.104                                                  
 16  9 24 14  5 38.0000000  0 22R16G11R17G23G27R 1R 2G28G 8G17R22R24
                                G 1R 7G32R 8R23G14G22G 3G10R15
  24390848.124   130291508.162                                  
  20054402.206   105386652.069                                  
  24337018.093   130232393.847                                  
  25300628.791   132955741.952                                  
  24889053.086   130792774.997                                  
  19821433.715   105957006.990                                  
  24034610.818   128253179.773                                  
  23363738.348   122777314.611                                  
  21845099.750   114796773.311                                  
  24804677.270   130349475.302                                  
  23385239.866   124831941.700                                  
  20091961.462   107440816.050                                  
  20364538.713   107016397.025                                  
  23499346.065   125793874.389                                  
  23107806.301   121432431.012                                  
  19757433.436   105800173.053                                  
  19514442.007   104389150.402                                  
  22163156.423   116468299.254                                  
  20537486.669   107925252.561                                  
  21397602.527   112445161.907                                  
  25777561.111   135461996.057                                  
  24429884.809                                                  
 16  9 24 14  5 39.0000000  0 22R16G11R17G23G27R 1R 2G28G 8G17R22R24
                                G 1R 7G32R 8R23G14G22G 3G10R15
  24390778.393   130291136.388                                  
  20054553.324   105387445.500                                  
  24336331.706   130228720.977                                  
  25300030.005   132952593.393                                  
  24889838.555   130796905.104                                  
  19821106.803   105955259.110                                  
  24033889.216   128249327.763                                  
  23363901.194   122778169.889                                  
  21845712.881   114799994.619                                  
  24804101.762   130346450.502                                  
  23386014.900   124836078.911                                  
  20091576.127   107438755.881                                  
  20364509.397   107016241.542                                  
  23500184.338   125798363.522                                  
  23108224.338   121434629.052                                  
  19757854.196   105802427.583                                  
  19514735.136   104390719.693                                  
  22163205.981   116468559.329                                  
  20537390.414   107924746.095                                  
  21397262.946   112443377.727                                  
  25778277.198   135465758.749                                  
  24430360.292                                                  
 16  9 24 14  5 40.0000000  0 22R16G11R17G23G27R 1R 2G28G 8G17R22R24
                                G 1R 7G32R 8R23G14G22G 3G10R15
  24390709.360   130290765.556                                  
  20054704.583   105388239.644                                  
  24335645.284   130225048.158                                  
  25299431.078   132949444.905                                  
  24890624.129   130801035.448                                  
  19820779.995   105953512.106                                  
  24033167.371   128245476.063                                  
  23364064.284   122779025.908                                  
  21846325.907   114803216.525                                  
  24803526.393   130343425.967                                  
  23386789.306   124840216.552                                  
  20091191.000   107436696.341                                  
  20364479.941   107016086.591                                  
  23501022.751   125802852.882                                  
  23108642.620   121436827.793                                  
  19758275.514   105804682.940                                  
  19515028.334   104392289.851                                  
  22163255.575   116468820.208                                  
  20537294.333   107924240.245                                  
  21396923.609   112441594.135                                  
  25778993.425   135469521.510                                  
  24430834.624                                                  
 16  9 24 14  5 41.0000000  0 22R16G11R17G23G27R 1R 2G28G 8G17R22R24
                                G 1R 7G32R 8R23G14G22G 3G10R15
  24390640.292   130290395.343                                  
  20054855.841   105389034.141                                  
  24334960.991   130221375.142                                  
  25298831.977   132946296.176                                  
  24891410.017   130805165.656                                  
  19820453.711   105951765.607                                  
  24032445.281   128241624.318                                  
  23364227.164   122779882.274                                  
  21846939.282   114806438.606                                  
  24802950.676   130340401.373                                  
  23387564.654   124844354.246                                  
  20090805.734   107434637.086                                  
  20364450.450   107015931.784                                  
  23501860.955   125807342.112                                  
  23109061.181   121439026.931                                  
  19758697.146   105806938.740                                  
  19515321.882   104393860.484                                  
  22163305.134   116469081.515                                  
  20537198.182   107923734.641                                  
  21396584.063   112439810.750                                  
  25779709.373   135473284.036                                  
  24431311.469                                                  
 16  9 24 14  5 42.0000000  0 22R16G11R17G23G27R 1R 2G28G 8G17R22R24
                                G 1R 7G32R 8R23G14G22G 3G10R15
  24390571.189   130290026.061                                  
  20055007.240   105389829.324                                  
  24334276.594   130217702.232                                  
  25298232.842   132943147.480                                  
  24892196.464   130809296.094                                  
  19820127.183   105950019.960                                  
  24031723.260   128237772.835                                  
  23364390.533   122780739.342                                  
  21847552.832   114809661.266                                  
  24802375.098   130337377.068                                  
  23388340.142   124848492.327                                  
  20090420.818   107432578.465                                  
  20364420.785   107015777.489                                  
  23502699.298   125811831.578                                  
  23109479.358   121441226.791                                  
  19759118.639   105809195.332                                  
  19515615.848   104395431.945                                  
  22163355.425   116469343.613                                  
  20537101.648   107923229.624                                  
  21396244.935   112438027.910                                  
  25780425.006   135477046.677                                  
  24431786.813                                                  
 16  9 24 14  5 43.0000000  0 22R16G11R17G23G27R 1R 2G28G 8G17R22R24
                                G 1R 7G32R 8R23G14G22G 3G10R15
  24390502.365   130289657.414                                  
  20055158.707   105390624.966                                  
  24333596.977   130214029.114                                  
  25297633.392   132939998.727                                  
  24892982.666   130813426.491                                  
  19819800.201   105948274.925                                  
  24031001.729   128233921.389                                  
  23364553.867   122781596.881                                  
  21848166.102   114812884.238                                  
  24801799.275   130334352.778                                  
  23389116.153   124852630.548                                  
  20090035.796   107430520.214                                  
  20364391.643   107015623.442                                  
  23503537.712   125816321.056                                  
  23109897.849   121443427.097                                  
  19759540.201   105811452.496                                  
  19515910.094   104397003.978                                  
  22163405.228   116469606.223                                  
  20537005.741   107922724.942                                  
  21395905.563   112436245.395                                  
  25781140.989   135480809.207                                  
  24432262.785                                                  
 16  9 24 14  5 44.0000000  0 22R16G11R17G23G27R 1R 2G28G 8G17R22R24
                                G 1R 7G32R 8R23G14G22G 3G10R15
  24390433.437   130289289.576                                  
  20055310.420   105391421.184                                  
  24332912.789   130210355.949                                  
  25297034.396   132936849.920                                  
  24893768.554   130817556.977                                  
  19819473.881   105946530.645                                  
  24030279.709   128230070.191                                  
  23364717.061   122782455.037                                  
  21848779.512   114816107.658                                  
  24801223.697   130331328.663                                  
  23389891.990   124856769.053                                  
  20089651.228   107428462.497                                  
  20364362.536   107015469.797                                  
  23504376.648   125820810.690                                  
  23110316.759   121445628.025                                  
  19759961.868   105813710.389                                  
  19516204.095   104398576.724                                  
  22163455.415   116469869.522                                  
  20536909.486   107922220.763                                  
  21395566.471   112434463.323                                  
  25781856.901   135484571.718                                  
  24432739.944                                                  
 16  9 24 14  5 45.0000000  0 22R16G11R17G23G27R 1R 2G28G 8G17R22R24
                                G 1R 7G32R 8R23G14G22G 3G10R15
  24390364.753   130288922.610                                  
  20055461.957   105392218.026                                  
  24332224.937   130206682.859                                  
  25296435.644   132933701.119                                  
  24894554.686   130821687.644                                  
  19819147.562   105944787.158                                  
  24029558.072   128226219.184                                  
  23364880.849   122783313.818                                  
  21849392.853   114819331.559                                  
  24800648.154   130328304.757                                  
  23390667.512   124860907.859                                  
  20089266.521   107426405.339                                  
  20364333.499   107015316.594                                  
  23505215.166   125825300.467                                  
  23110735.703   121447829.581                                  
  19760383.535   105815969.019                                  
  19516497.992   104400150.223                                  
  22163505.637   116470133.511                                  
  20536813.964   107921717.100                                  
  21395227.448   112432681.740                                  
  25782573.093   135488334.265                                  
  24433216.474                                                  
 16  9 24 14  5 46.0000000  0 22R16G11R17G23G27R 1R 2G28G 8G17R22R24
                                G 1R 7G32R 8R23G14G22G 3G10R15
  24390295.964   130288556.339                                  
  20055613.844   105393015.378                                  
  24331539.003   130203009.589                                  
  25295836.682   132930552.258                                  
  24895340.714   130825818.334                                  
  19818821.767   105943044.339                                  
  24028836.541   128222368.301                                  
  23365044.358   122784173.129                                  
  21850006.647   114822555.844                                  
  24800072.646   130325280.916                                  
  23391443.000   124865046.863                                  
  20088881.569   107424348.626                                  
  20364304.636   107015163.700                                  
  23506053.928   125829790.332                                  
  23111154.613   121450031.658                                  
  19760805.447   105818228.274                                  
  19516792.412   104401724.370                                  
  22163555.893   116470398.100                                  
  20536718.092   107921213.834                                  
  21394888.285   112430900.538                                  
  25783289.285   135492096.725                                  
  24433693.877                                                  
 16  9 24 14  5 47.0000000  0 22R16G11R17G23G27R 1R 2G28G 8G17R22R24
                                G 1R 7G32R 8R23G14G22G 3G10R15
  24390227.420   130288190.819                                  
  20055765.521   105393813.197                                  
  24330850.418   130199336.211                                  
  25295237.407   132927403.239                                  
  24896126.323   130829949.016                                  
  19818495.762   105941302.141                                  
  24028114.765   128218517.467                                  
  23365207.936   122785032.898                                  
  21850620.301   114825780.412                                  
  24799496.824   130322257.146                                  
  23392218.592   124869186.024                                  
  20088497.489   107422292.312                                  
  20364275.529   107015011.083                                  
  23506892.656   125834280.210                                  
  23111573.768   121452234.248                                  
  19761227.184   105820488.091                                  
  19517086.518   104403299.099                                  
  22163606.394   116470663.225                                  
  20536622.290   107920710.932                                  
  21394549.402   112429119.653                                  
  25784005.442   135495859.056                                  
  24434173.025   130568799.2622                                 
 16  9 24 14  5 48.0000000  0 22R16G11R17G23G27R 1R 2G28G 8G17R22R24
                                G 1R 7G32R 8R23G14G22G 3G10R15
  24390159.120   130287826.076                                  
  20055917.513   105394611.565                                  
  24330162.460   130195662.749                                  
  25294638.062   132924254.125                                  
  24896912.106   130834079.764                                  
  19818169.757   105939560.671                                  
  24027392.989   128214666.809                                  
  23365371.410   122785893.243                                  
  21851234.165   114829005.430                                  
  24798921.176   130319233.519                                  
  23392993.382   124873325.455                                  
  20088112.677   107420236.488                                  
  20364246.422   107014858.829                                  
  23507731.278   125838770.217                                  
  23111992.957   121454437.400                                  
  19761649.374   105822748.589                                  
  19517380.728   104404874.534                                  
  22163657.174   116470929.001                                  
  20536526.628   107920208.484                                  
  21394210.693   112427339.179                                  
  25784721.634   135499621.385                                  
  24434648.963   130571347.4192                                 
 16  9 24 14  5 49.0000000  0 22R16G11R17G23G27R 1R 2G28G 8G17R22R24
                                G 1R 7G32R 8R23G14G22G 3G10R15
  24390091.029   130287462.179                                  
  20056069.539   105395410.486                                  
  24329475.550   130191989.226                                  
  25294038.717   132921105.063                                  
  24897697.924   130838210.607                                  
  19817843.717   105937819.930                                  
  24026671.388   128210816.332                                  
  23365535.232   122786754.176                                  
  21851847.784   114832230.855                                  
  24798345.912   130316210.002                                  
  23393768.311   124877465.143                                  
  20087727.795   107418181.167                                  
  20364217.664   107014706.957                                  
  23508569.971   125843260.305                                  
  23112412.216   121456641.121                                  
  19762071.704   105825009.779                                  
  19517675.114   104406450.675                                  
  22163707.885   116471195.423                                  
  20536431.245   107919706.496                                  
  21393872.124   112425559.151                                  
  25785437.930   135503383.667                                  
  24435118.827   130573896.1082                                 
 16  9 24 14  5 50.0000000  0 22R16G11R17G23G27R 1R 2G28G 8G17R22R24
                                G 1R 7G32R 8R23G14G22G 3G10R15
  24390022.589   130287099.137                                  
  20056221.565   105396210.033                                  
  24328789.198   130188315.775                                  
  25293439.511   132917955.954                                  
  24898483.952   130842341.574                                  
  19817518.340   105936079.952                                  
  24025949.891   128206966.011                                  
  23365698.880   122787615.744                                  
  21852461.508   114835456.756                                  
  24797770.648   130313186.714                                  
  23394543.485   124881605.149                                  
  20087343.472   107416126.394                                  
  20364189.081   107014555.486                                  
  23509408.977   125847750.517                                  
  23112831.579   121458845.484                                  
  19762493.895   105827271.697                                  
  19517969.603   104408027.566                                  
  22163758.630   116471462.527                                  
  20536335.583   107919205.016                                  
  21393533.625   112423779.570                                  
  25786153.424   135507146.003                                  
  24435600.069   130576445.5222                                 
 16  9 24 14  5 51.0000000  0 22R16G11R17G23G27R 1R 2G28G 8G17R22R24
                                G 1R 7G32R 8R23G14G22G 3G10R15
  24389954.498   130286736.845                                  
  20056373.592   105397010.098                                  
  24328102.951   130184642.256                                  
  25292839.852   132914806.777                                  
  24899270.084   130846472.615                                  
  19817192.789   105934340.659                                  
  24025228.289   128203115.830                                  
  23365863.122   122788477.821                                  
  21853075.442   114838683.062                                  
  24797194.861   130310163.512                                  
  23395318.938   124885745.363                                  
  20086959.183   107414072.067                                  
  20364160.637   107014404.358                                  
  23510247.669   125852240.775                                  
  23113251.292   121461050.392                                  
  19762916.016   105829534.237                                  
  19518264.198   104409605.120                                  
  22163809.584   116471730.255                                  
  20536240.340   107918703.963                                  
  21393194.812   112422000.391                                  
  25786869.546   135510908.199                                  
  24436077.402   130578995.4622                                 
 16  9 24 14  5 52.0000000  0 22R16G11R17G23G27R 1R 2G28G 8G17R22R24
                                G 1R 7G32R 8R23G14G22G 3G10R15
  24389886.687   130286375.350                                  
  20056525.757   105397810.746                                  
  24327416.529   130180968.641                                  
  25292240.646   132911657.586                                  
  24900056.181   130850603.740                                  
  19816867.273   105932602.104                                  
  24024506.723   128199265.849                                  
  23366026.910   122789340.534                                  
  21853689.340   114841909.808                                  
  24796619.876   130307140.481                                  
  23396094.007   124889885.863                                  
  20086574.999   107412018.269                                  
  20364132.263   107014253.628                                  
  23511086.222   125856731.167                                  
  23113671.284   121463255.895                                  
  19763338.416   105831797.473                                  
  19518558.862   104411183.382                                  
  22163860.818   116471998.635                                  
  20536145.062   107918203.380                                  
  21392856.277   112420221.664                                  
  25787585.843   135514670.489                                  
  24436551.036   130581546.1192                                 
 16  9 24 14  5 53.0000000  0 22R16G11R17G23G27R 1R 2G28G 8G17R22R24
                                G 1R 7G32R 8R23G14G22G 3G10R15
  24389818.771   130286014.520                                  
  20056678.133   105398611.839                                  
  24326730.003   130177294.987                                  
  25291641.196   132908508.247                                  
  24900842.314   130854734.824                                  
  19816542.454   105930864.159                                  
  24023784.982   128195415.946                                  
  23366190.942   122790203.663                                  
  21854303.658   114845136.846                                  
  24796044.996   130304117.483                                  
  23396869.215   124894026.489                                  
  20086190.920   107409964.822                                  
  20364103.714   107014103.145                                  
  23511924.670   125861221.532                                  
  23114091.450   121465461.860                                  
  19763761.199   105834061.286                                  
  19518853.597   104412762.203                                  
  22163912.087   116472267.556                                  
  20536049.784   107917703.148                                  
  21392517.918   112418443.239                                  
  25788301.267   135518432.554                                  
  24437027.741   130584097.1532                                 
 16  9 24 14  5 54.0000000  0 22R16G11R17G23G27R 1R 2G28G 8G17R22R24
                                G 1R 7G32R 8R23G14G22G 3G10R15
  24389751.203   130285654.320                                  
  20056830.578   105399413.329                                  
  24326041.592   130173620.886                                  
  25291041.886   132905358.688                                  
  24901628.481   130858865.823                                  
  19816217.287   105929126.759                                  
  24023063.171   128191566.019                                  
  23366355.497   122791067.223                                  
  21854917.417   114848364.161                                  
  24795469.942   130301094.428                                  
  23397644.563   124898167.210                                  
  20085807.294   107407911.691                                  
  20364075.654   107013952.861                                  
  23512763.432   125865711.874                                  
  23114511.233   121467668.246                                  
  19764184.263   105836325.633                                  
  19519148.470   104414341.546                                  
  22163963.146   116472536.945                                  
  20535954.156   107917203.196                                  
  21392179.558   112416665.040                                  
  25789017.319   135522194.457                                  
  24437503.748   130586648.746                                  
 16  9 24 14  5 55.0000000  0 22R16G11R17G23G27R 1R 2G28G 8G17R22R24
                                G 1R 7G32R 8R23G14G22G 3G10R15
  24389683.741   130285295.040                                  
  20056983.197   105400215.518                                  
  24325355.903   130169946.971                                  
  25290442.506   132902209.247                                  
  24902414.439   130862997.076                                  
  19815892.538   105927390.234                                  
  24022341.639   128187716.389                                  
  23366519.425   122791931.505                                  
  21855531.455   114851592.042                                  
  24794894.992   130298071.714                                  
  23398421.028   124902308.331                                  
  20085423.773   107405859.213                                  
  20364047.769   107013803.100                                  
  23513602.334   125870202.524                                  
  23114931.504   121469875.355                                  
  19764607.326   105838590.830                                  
  19519443.519   104415921.760                                  
  22164014.694   116472807.129                                  
  20535859.157   107916703.853                                  
  21391841.547   112414887.476                                  
  25789733.511   135525956.458                                  
  24437981.919   130589201.073                                  
 16  9 24 14  5 56.0000000  0 22R16G11R17G23G27R 1R 2G28G 8G17R22R24
                                G 1R 7G32R 8R23G14G22G 3G10R15
  24389616.837   130284936.493                                  
  20057135.817   105401018.168                                  
  24324666.340   130166273.056                                  
  25289843.405   132899059.649                                  
  24903200.955   130867128.283                                  
  19815567.860   105925654.331                                  
  24021620.247   128183866.873                                  
  23366684.015   122792796.260                                  
  21856145.877   114854820.259                                  
  24794319.798   130295048.982                                  
  23399197.667   124906449.602                                  
  20085040.217   107403807.150                                  
  20364019.604   107013653.603                                  
  23514441.480   125874693.163                                  
  23115351.775   121472082.944                                  
  19765030.703   105840856.565                                  
  19519738.706   104417502.561                                  
  22164066.172   116473077.871                                  
  20535764.158   107916204.867                                  
  21391503.257   112413110.199                                  
  25790449.249   135529718.319                                  
  24438461.381   130591753.903                                  
 16  9 24 14  5 57.0000000  0 22R16G11R17G23G27R 1R 2G28G 8G17R22R24
                                G 1R 7G32R 8R23G14G22G 3G10R15
  24389549.688   130284578.754                                  
  20057289.030   105401821.371                                  
  24323983.548   130162598.999                                  
  25289243.571   132895910.023                                  
  24903987.087   130871259.572                                  
  19815243.181   105923919.148                                  
  24020898.821   128180017.489                                  
  23366848.675   122793661.580                                  
  21856760.404   114858048.880                                  
  24793744.639   130292026.446                                  
  23399973.923   124910591.114                                  
  20084656.697   107401755.573                                  
  20363991.649   107013504.479                                  
  23515280.556   125879183.858                                  
  23115771.906   121474291.119                                  
  19765453.836   105843122.962                                  
  19520034.453   104419084.089                                  
  22164117.860   116473349.247                                  
  20535669.334   107915706.327                                  
  21391165.281   112411333.348                                  
  25791164.917   135533480.184                                  
  24438941.123   130594307.315                                  
 16  9 24 14  5 58.0000000  0 22R16G11R17G23G27R 1R 2G28G 8G17R22R24
                                G 1R 7G32R 8R23G14G22G 3G10R15
  24389482.819   130284221.882                                  
  20057442.208   105402625.252                                  
  24323295.974                                                  
  25288644.087   132892760.441                                  
  24904773.045   130875391.054                                  
  19814918.956   105922184.802                                  
  24020177.673   128176168.389                                  
  23367013.510   122794527.603                                  
  21857375.455   114861278.043                                  
  24793169.200   130289004.130                                  
  23400750.388   124914732.997                                  
  20084273.280   107399704.612                                  
  20363963.624   107013355.839                                  
  23516119.633   125883674.740                                  
  23116192.387   121476499.971                                  
  19765877.038   105845390.150                                  
  19520330.129   104420666.442                                  
  22164170.106   116473621.387                                  
  20535574.475   107915208.371                                  
  21390827.341   112409557.027                                  
  25791880.900   135537242.148                                  
  24439419.992   130596861.554                                  
 16  9 24 14  5 59.0000000  0 22R16G11R17G23G27R 1R 2G28G 8G17R22R24
                                G 1R 7G32R 8R23G14G22G 3G10R15
  24389416.787   130283865.729                                  
  20057595.177   105403429.600                                  
  24322607.284   130155227.3323                                 
  25288044.532   132889610.736                                  
  24905559.073   130879522.533                                  
  19814594.696   105920451.091                                  
  24019456.525   128172319.336                                  
  23367178.554   122795394.110                                  
  21857990.086   114864507.523                                  
  24792594.181   130285981.863                                  
  23401525.945   124918875.066                                  
  20083890.143   107397654.049                                  
  20363935.424   107013207.461                                  
  23516958.639   125888165.646                                  
  23116612.937   121478709.302                                  
  19766300.730   105847657.936                                  
  19520625.806   104422249.369                                  
  22164222.003   116473894.050                                  
  20535479.755   107914710.760                                  
  21390489.120   112407781.031                                  
  25792596.812   135541003.981                                  
  24439898.581                                                  
 16  9 24 14  6  0.0000000  0 22R16G11R17G23G27R 1R 2G28G 8G17R22R24
                                G 1R 7G32R 8R23G14G22G 3G10R15
  24389350.267   130283510.258                                  
  20057748.459   105404234.341                                  
  24321914.964   130151521.8722                                 
  25287445.047   132886460.861                                  
  24906345.589   130883653.915                                  
  19814270.471   105918717.931                                  
  24018735.587   128168470.284                                  
  23367343.703   122796260.999                                  
  21858604.578   114867737.269                                  
  24792019.789   130282959.589                                  
  23402301.782   124923017.248                                  
  20083506.657   107395603.829                                  
  20363907.120   107013059.300                                  
  23517797.541   125892656.516                                  
  23117033.243   121480919.064                                  
  19766724.177   105849926.264                                  
  19520922.145   104423832.823                                  
  22164273.760   116474167.215                                  
  20535385.349   107914213.457                                  
  21390151.284   112406005.307                                  
  25793312.725   135544765.582                                  
  24440376.299                                                  
 16  9 24 14  6  1.0000000  0 22R16G11R17G23G27R 1R 2G28G 8G17R22R24
                                G 1R 7G32R 8R23G14G22G 3G10R15
  24389283.537   130283155.537                                  
  20057901.358   105405039.594                                  
  24321232.416   130147847.4652                                 
  25286845.388   132883310.873                                  
  24907131.965   130887785.365                                  
  19813946.455   105916985.445                                  
  24018014.683   128164621.394                                  
  23367508.573   122797128.425                                  
  21859219.489   114870967.406                                  
  24791445.049   130279937.432                                  
  23403077.339   124927159.645                                  
  20083123.206   107393554.077                                  
  20363879.269   107012911.478                                  
  23518636.513   125897147.474                                  
  23117453.898   121483129.364                                  
  19767147.833   105852195.222                                  
  19521218.869   104425416.939                                  
  22164325.552   116474440.980                                  
  20535290.978   107913716.574                                  
  21389813.239   112404229.954                                  
  25794028.917   135548527.185                                  
  24440855.551                                                  
 16  9 24 14  6  2.0000000  0 22R16G11R17G23G27R 1R 2G28G 8G17R22R24
                                G 1R 7G32R 8R23G14G22G 3G10R15
  24389217.157   130282801.545                                  
  20058054.641   105405845.347                                  
  24320544.564   130144172.8102                                 
  25286245.624   132880160.783                                  
  24907918.517   130891916.828                                  
  19813622.544   105915253.621                                  
  24017293.955   128160772.556                                  
  23367673.268   122797996.374                                  
  21859834.225   114874197.889                                  
  24790870.029   130276915.364                                  
  23403852.967   124931302.218                                  
  20082740.034   107391504.758                                  
  20363851.070   107012763.950                                  
  23519475.170   125901638.519                                  
  23117874.692   121485340.181                                  
  19767571.873   105854464.769                                  
  19521515.243   104427001.673                                  
  22164377.694   116474715.324                                  
  20535196.468   107913220.093                                  
  21389475.612   112402454.983                                  
  25794744.829   135552288.701                                  
  24441332.780                                                  
 16  9 24 14  6  3.0000000  0 22R16G11R17G23G27R 1R 2G28G 8G17R22R24
                                G 1R 7G32R 8R23G14G22G 3G10R15
  24389151.021   130282448.274                                  
  20058208.098   105406651.615                                  
  24319860.166   130140498.2052                                 
  25285646.139   132877010.614                                  
  24908704.789   130896048.305                                  
  19813298.459   105913522.455                                  
  24016572.947   128156923.825                                  
  23367838.382   122798864.844                                  
  21860449.485   114877428.747                                  
  24790294.975   130273893.350                                  
  23404628.734   124935444.976                                  
  20082357.037   107389455.873                                  
  20363822.801   107012616.741                                  
  23520313.967   125906129.588                                  
  23118295.487   121487551.501                                  
  19767995.565   105856734.905                                  
  19521812.700   104428587.051                                  
  22164430.324   116474990.245                                  
  20535102.062   107912723.997                                  
  21389137.706   112400680.351                                  
  25795460.707   135556050.060                                  
  24441812.382                                                  
 16  9 24 14  6  4.0000000  0 22R16G11R17G23G27R 1R 2G28G 8G17R22R24
                                G 1R 7G32R 8R23G14G22G 3G10R15
  24389085.268   130282095.863                                  
  20058361.381   105407458.494                                  
  24319177.060   130136823.5612                                 
  25285046.864   132873860.479                                  
  24909491.060   130900179.933                                  
  19812974.862   105911792.074                                  
  24015852.113   128153075.321                                  
  23368003.496   122799733.961                                  
  21861064.186   114880660.084                                  
  24789720.235   130270871.545                                  
  23405404.221   124939588.057                                  
  20081973.726   107387407.538                                  
  20363794.531   107012469.960                                  
  23521153.113   125910620.801                                  
  23118716.281   121489763.484                                  
  19768419.291   105859005.801                                  
  19522109.668   104430173.192                                  
  22164483.268   116475265.885                                  
  20535007.552   107912228.430                                  
  21388800.079   112398906.236                                  
  25796176.445   135559811.512                                  
  24442289.296                                                  
 16  9 24 14  6  5.0000000  0 22R16G11R17G23G27R 1R 2G28G 8G17R22R24
                                G 1R 7G32R 8R23G14G22G 3G10R15
  24389019.202   130281744.146                                  
  20058515.117   105408265.863                                  
  24318491.406   130133148.8122                                 
  25284447.205   132870710.221                                  
  24910277.402   130904311.582                                  
  19812650.951   105910062.340                                  
  24015130.965   128149226.896                                  
  23368168.959   122800603.592                                  
  21861679.062   114883891.781                                  
  24789145.145   130267849.836                                  
  23406180.477   124943731.331                                  
  20081590.868   107385359.621                                  
  20363766.332   107012323.472                                  
  23521992.259   125915112.011                                  
  23119137.181   121491975.975                                  
  19768843.087   105861277.309                                  
  19522407.019   104431759.961                                  
  22164536.246   116475542.093                                  
  20534913.425   107911733.259                                  
  21388462.592   112397132.458                                  
  25796892.358   135563572.836                                  
  24442766.141                                                  
 16  9 24 14  6  6.0000000  0 22R16G11R17G23G27R 1R 2G28G 8G17R22R24
                                G 1R 7G32R 8R23G14G22G 3G10R15
  24388953.449   130281393.319                                  
  20058668.679   105409073.810                                  
  24317804.251   130129474.0582                                 
  25283847.580   132867559.914                                  
  24911063.116   130908443.277                                  
  19812327.284   105908333.341                                  
  24014409.957   128145378.705                                  
  23368334.422   122801473.762                                  
  21862293.799   114887123.922                                  
  24788569.951   130264828.254                                  
  23406957.465   124947874.861                                  
  20081207.801   107383312.189                                  
  20363738.132   107012177.383                                  
  23522831.719   125919603.376                                  
  23119558.045   121494189.027                                  
  19769267.092   105863549.518                                  
  19522703.917   104433347.433                                  
  22164589.016   116475818.957                                  
  20534819.020   107911238.549                                  
  21388125.035   112395359.113                                  
  25797607.991   135567334.176                                  
  24443243.998                                                  
 16  9 24 14  6  7.0000000  0 22R16G11R17G23G27R 1R 2G28G 8G17R22R24
                                G 1R 7G32R 8R23G14G22G 3G10R15
  24388888.046   130281043.227                                  
  20058822.241   105409882.302                                  
  24317117.236   130125799.1242                                 
  25283248.200   132864409.588                                  
  24911849.702   130912575.100                                  
  19812003.583   105906605.057                                  
  24013689.089   128141530.656                                  
  23368500.164   122802344.521                                  
  21862908.954   114890356.474                                  
  24787995.211   130261806.821                                  
  23407734.384   124952018.652                                  
  20080824.838   107381265.258                                  
  20363710.351   107012031.659                                  
  23523670.761   125924094.815                                  
  23119979.363   121496402.677                                  
  19769691.621   105865822.421                                  
  19523001.129   104434935.603                                  
  22164642.099   116476096.469                                  
  20534725.138   107910744.291                                  
  21387787.652   112393586.205                                  
  25798323.590   135571095.475                                  
  24443724.472                                                  
 16  9 24 14  6  8.0000000  0 22R16G11R17G23G27R 1R 2G28G 8G17R22R24
                                G 1R 7G32R 8R23G14G22G 3G10R15
  24388822.224   130280693.873                                  
  20058976.501   105410691.300                                  
  24316430.256   130122123.6051                                 
  25282649.099   132861259.101                                  
  24912635.764   130916706.913                                  
  19811680.684   105904877.421                                  
  24012968.011   128137682.646                                  
  23368665.941   122803215.801                                  
  21863523.864   114893589.374                                  
  24787420.366   130258785.460                                  
  23408510.709   124956162.617                                  
  20080442.364   107379218.752                                  
  20363682.501   107011886.216                                  
  23524509.593   125928586.339                                  
  23120400.646   121498616.821                                  
  19770116.045   105868095.904                                  
  19523298.446   104436524.395                                  
  22164695.113   116476374.556                                  
  20534631.325   107910250.412                                  
  21387450.305   112391813.621                                  
  25799039.677   135574856.660                                  
  24444203.341                                                  
 16  9 24 14  6  9.0000000  0 22R16G11R17G23G27R 1R 2G28G 8G17R22R24
                                G 1R 7G32R 8R23G14G22G 3G10R15
  24388756.855   130280345.241                                  
  20059130.482   105411500.850                                  
  24315743.415   130118448.639                                  
  25282049.998   132858108.599                                  
  24913422.420   130920838.783                                  
  19811357.960   105903150.511                                  
  24012246.793   128133834.797                                  
  23368831.858   122804087.644                                  
  21864139.438   114896822.714                                  
  24786845.486   130255764.237                                  
  23409286.441   124960306.855                                  
  20080059.995   107377172.788                                  
  20363654.964   107011741.157                                  
  23525347.796   125933077.961                                  
  23120822.348   121500831.545                                  
  19770540.679   105870370.065                                  
  19523595.728   104438113.901                                  
  22164747.848   116476653.276                                  
  20534537.618   107909756.990                                  
  21387113.062   112390041.470                                  
  25799755.973   135578617.795                                  
  24444680.918                                                  
 16  9 24 14  6 10.0000000  0 22R16G11R17G23G27R 1R 2G28G 8G17R22R24
                                G 1R 7G32R 8R23G14G22G 3G10R15
  24388691.940   130279997.530                                  
  20059284.707   105412311.013                                  
  24315056.610   130114773.637                                  
  25281450.723   132854958.154                                  
  24914208.657   130924970.840                                  
  19811034.712   105901424.396                                  
  24011525.750   128129987.160                                  
  23368997.879   122804960.123                                  
  21864755.012   114900056.519                                  
  24786270.466   130252743.204                                  
  23410062.906   124964451.429                                  
  20079677.207   107375127.395                                  
  20363627.149   107011596.508                                  
  23526186.698   125937569.746                                  
  23121243.945   121503046.917                                  
  19770965.382   105872644.966                                  
  19523892.870   104439704.174                                  
  22164800.862   116476932.715                                  
  20534443.910   107909264.091                                  
  21386775.749   112388269.812                                  
  25800471.712   135582379.030                                  
  24445159.229                                                  
 16  9 24 14  6 11.0000000  0 22R16G11R17G23G27R 1R 2G28G 8G17R22R24
                                G 1R 7G32R 8R23G14G22G 3G10R15
  24388626.956   130279650.606                                  
  20059439.106   105413121.715                                  
  24314369.804   130111098.519                                  
  25280851.413   132851807.601                                  
  24914995.348   130929102.940                                  
  19810712.092   105899698.994                                  
  24010804.603   128126139.736                                  
  23369164.075   122805833.155                                  
  21865370.481   114903290.742                                  
  24785695.796   130249722.324                                  
  23410838.987   124968596.252                                  
  20079295.047   107373082.495                                  
  20363599.612   107011452.226                                  
  23527025.705   125942061.594                                  
  23121665.508   121505262.846                                  
  19771390.400   105874920.517                                  
  19524190.606   104441295.127                                  
  22164854.469   116477212.778                                  
  20534350.272   107908771.623                                  
  21386438.960   112386498.547                                  
  25801187.345   135586140.146                                  
  24445637.504                                                  
 16  9 24 14  6 12.0000000  0 22R16G11R17G23G27R 1R 2G28G 8G17R22R24
                                G 1R 7G32R 8R23G14G22G 3G10R15
  24388562.076   130279304.488                                  
  20059593.680   105413932.991                                  
  24313683.033   130107423.465                                  
  25280252.451   132848657.027                                  
  24915781.724   130933235.121                                  
  19810389.473   105897974.330                                  
  24010083.455   128122292.530                                  
  23369330.061   122806706.785                                  
  21865985.881   114906525.396                                  
  24785120.985   130246701.597                                  
  23411615.591   124972741.303                                  
  20078912.818   107371038.084                                  
  20363571.832   107011308.311                                  
  23527864.851   125946553.529                                  
  23122086.896   121507479.351                                  
  19771815.313   105877196.738                                  
  19524487.469   104442886.786                                  
  22164907.901   116477493.487                                  
  20534256.460   107908279.621                                  
  21386101.857   112384727.722                                  
  25801902.909   135589901.281                                  
  24446116.513                                                  
 16  9 24 14  6 13.0000000  0 22R16G11R17G23G27R 1R 2G28G 8G17R22R24
                                G 1R 7G32R 8R23G14G22G 3G10R15
  24388497.475   130278958.989                                  
  20059748.150   105414744.678                                  
  24312996.123   130103748.120                                  
  25279652.932   132845506.292                                  
  24916568.066   130937367.216                                  
  19810066.748   105896250.248                                  
  24009362.621   128118445.353                                  
  23369496.327   122807580.817                                  
  21866601.315   114909760.318                                  
  24784546.280   130243680.852                                  
  23412392.335   124976886.455                                  
  20078530.379   107368994.013                                  
  20363544.504   107011164.636                                  
  23528703.962   125951045.464                                  
  23122508.737   121509696.298                                  
  19772240.330   105879473.475                                  
  19524785.449   104444478.978                                  
  22164961.578   116477774.698                                  
  20534163.276   107907787.930                                  
  21385765.381   112382957.175                                  
  25802618.786   135593662.288                                  
  24446592.520                                                  
 16  9 24 14  6 14.0000000  0 22R16G11R17G23G27R 1R 2G28G 8G17R22R24
                                G 1R 7G32R 8R23G14G22G 3G10R15
  24388433.084   130278614.211                                  
  20059902.479   105415556.842                                  
  24312309.317   130100072.652                                  
  25279053.656   132842355.401                                  
  24917354.198   130941499.344                                  
  19809743.815   105894526.799                                  
  24008641.613   128114598.159                                  
  23369662.628   122808455.321                                  
  21867217.168   114912995.556                                  
  24783971.400   130240660.155                                  
  23413169.359   124981031.737                                  
  20078148.184   107366950.294                                  
  20363517.247   107011021.227                                  
  23529542.585   125955537.393                                  
  23122931.032   121511913.733                                  
  19772665.522   105881750.810                                  
  19525083.638   104446071.774                                  
  22165015.080   116478056.471                                  
  20534069.673   107907296.602                                  
  21385428.488   112381186.965                                  
  25803334.594   135597423.120                                  
  24447071.528                                                  
 16  9 24 14  6 15.0000000  0 22R16G11R17G23G27R 1R 2G28G 8G17R22R24
                                G 1R 7G32R 8R23G14G22G 3G10R15
  24388368.832   130278270.139                                  
  20060057.437   105416369.454                                  
  24311622.197   130096397.043                                  
  25278453.927   132839204.392                                  
  24918140.261   130945631.459                                  
  19809421.125   105892803.960                                  
  24007921.059   128110751.028                                  
  23369829.242   122809330.346                                  
  21867832.916   114916231.134                                  
  24783396.345   130237639.511                                  
  23413945.544   124985177.207                                  
  20077766.059   107364906.976                                  
  20363489.990   107010878.090                                  
  23530381.382   125960029.376                                  
  23123353.432   121514131.643                                  
  19773090.889   105884028.754                                  
  19525381.514   104447665.175                                  
  22165068.932   116478338.783                                  
  20533976.314   107906805.640                                  
  21385091.524   112379417.074                                  
  25804050.507   135601183.803                                  
  24447550.781                                                  
 16  9 24 14  6 16.0000000  0 22R16G11R17G23G27R 1R 2G28G 8G17R22R24
                                G 1R 7G32R 8R23G14G22G 3G10R15
  24388304.371   130277926.954                                  
  20060212.186   105417182.706                                  
  24310935.392   130092721.460                                  
  25277853.919   132836053.408                                  
  24918926.952   130949763.700                                  
  19809099.029   105891081.912                                  
  24007200.295   128106904.100                                  
  23369995.822   122810205.983                                  
  21868448.316   114919467.193                                  
  24782821.396   130234619.078                                  
  23414722.463   124989322.989                                  
  20077384.318   107362864.237                                  
  20363462.872   107010735.396                                  
  23531220.458   125964521.515                                  
  23123775.379   121516350.193                                  
  19773516.220   105886307.444                                  
  19525679.633   104449259.339                                  
  22165122.818   116478621.813                                  
  20533882.851   107906315.191                                  
  21384754.874   112377647.678                                  
  25804766.350   135604944.547                                  
  24448030.173                                                  
 16  9 24 14  6 17.0000000  0 22R16G11R17G23G27R 1R 2G28G 8G17R22R24
                                G 1R 7G32R 8R23G14G22G 3G10R15
  24388240.189   130277584.467                                  
  20060367.144   105417996.475                                  
  24310248.761   130089045.792                                  
  25277254.329   132832902.328                                  
  24919713.154   130953895.972                                  
  19808776.968   105889360.562                                  
  24006479.671   128103057.346                                  
  23370162.681   122811082.159                                  
  21869064.099   114922703.630                                  
  24782246.516   130231598.761                                  
  23415499.835   124993468.986                                  
  20077002.368   107360821.979                                  
  20363435.685   107010593.029                                  
  23532059.674   125969013.704                                  
  23124197.639   121518569.296                                  
  19773941.657   105888586.757                                  
  19525977.369   104450854.147                                  
  22165176.844   116478905.457                                  
  20533789.631   107905825.173                                  
  21384418.294   112375878.678                                  
  25805481.844   135608705.257                                  
  24448511.485                                                  
 16  9 24 14  6 18.0000000  0 22R16G11R17G23G27R 1R 2G28G 8G17R22R24
                                G 1R 7G32R 8R23G14G22G 3G10R15
  24388176.391   130277242.781                                  
  20060522.067   105418810.764                                  
  24309562.025   130085370.029                                  
  25276654.740   132829751.189                                  
  24920499.007   130958028.284                                  
  19808454.592   105887639.890                                  
  24005759.186   128099210.711                                  
  23370329.645   122811958.870                                  
  21869680.162   114925940.437                                  
  24781671.706   130228578.530                                  
  23416276.998   124997615.204                                  
  20076620.348   107358780.188                                  
  20363408.812   107010450.993                                  
  23532899.134   125973505.946                                  
  23124620.004   121520788.919                                  
  19774367.198   105890866.664                                  
  19526275.488   104452449.583                                  
  22165230.940   116479189.685                                  
  20533696.587   107905335.559                                  
  21384081.435   112374110.034                                  
  25806197.442   135612465.890                                  
  24448991.541   130647997.4623                                 
 16  9 24 14  6 19.0000000  0 22R16G11R17G23G27R 1R 2G28G 8G17R22R24
                                G 1R 7G32R 8R23G14G22G 3G10R15
  24388112.523   130276901.749                                  
  20060677.199   105419625.479                                  
  24308875.045   130081694.135                                  
  25276055.116   132826599.869                                  
  24921285.279   130962160.564                                  
  19808132.915   105885919.843                                  
  24005038.562   128095364.109                                  
  23370496.434   122812836.010                                  
  21870296.119   114929177.548                                  
  24781096.895   130225558.328                                  
  23417054.022   125001761.570                                  
  20076238.991   107356738.777                                  
  20363382.113   107010309.204                                  
  23533738.489   125977998.166                                  
  23125042.544   121523009.003                                  
  19774793.192   105893147.141                                  
  19526573.608   104454045.597                                  
  22165285.070   116479474.443                                  
  20533603.542   107904846.287                                  
  21383744.751   112372341.709                                  
  25806913.076   135616226.397                                  
  24449472.783   130650563.4932                                 
 16  9 24 14  6 20.0000000  0 22R16G11R17G23G27R 1R 2G28G 8G17R22R24
                                G 1R 7G32R 8R23G14G22G 3G10R15
  24388048.865   130276561.606                                  
  20060832.227   105420440.834                                  
  24308188.309   130078018.253                                  
  25275455.666   132823448.594                                  
  24922071.481   130966292.985                                  
  19807811.238   105884200.577                                  
  24004317.833   128091517.743                                  
  23370663.502   122813713.794                                  
  21870912.601   114932415.137                                  
  24780522.085   130222538.306                                  
  23417831.429   125005908.239                                  
  20075857.494   107354697.918                                  
  20363355.344   107010167.830                                  
  23534577.601   125982490.537                                  
  23125464.734   121525229.724                                  
  19775219.292   105895428.362                                  
  19526872.216   104455642.372                                  
  22165338.852   116479759.911                                  
  20533510.288   107904357.525                                  
  21383408.590   112370573.865                                  
  25807628.639   135619986.897                                  
  24449951.722   130653130.2312                                 
 16  9 24 14  6 21.0000000  0 22R16G11R17G23G27R 1R 2G28G 8G17R22R24
                                G 1R 7G32R 8R23G14G22G 3G10R15
  24387985.137   130276222.203                                  
  20060987.464   105421256.711                                  
  24307501.678   130074342.257                                  
  25274856.111   132820297.193                                  
  24922857.927   130970425.435                                  
  19807489.421   105882481.977                                  
  24003597.314   128087671.469                                  
  23370830.815   122814592.097                                  
  21871528.873   114935653.097                                  
  24779947.799   130219518.403                                  
  23418608.173   125010055.130                                  
  20075475.962   107352657.492                                  
  20363328.366   107010026.801                                  
  23535416.537   125986982.991                                  
  23125887.274   121527450.975                                  
  19775645.461   105897710.212                                  
  19527170.580   104457239.800                                  
  22165393.052   116480045.968                                  
  20533417.174   107903869.176                                  
  21383071.975   112368806.393                                  
  25808344.168   135623747.370                                  
  24450432.964   130655697.4292                                 
 16  9 24 14  6 22.0000000  0 22R16G11R17G23G27R 1R 2G28G 8G17R22R24
                                G 1R 7G32R 8R23G14G22G 3G10R15
  24387921.269   130275883.516                                  
  20061142.701   105422073.084                                  
  24306814.732   130070666.114                                  
  25274256.487   132817145.717                                  
  24923644.025   130974557.887                                  
  19807168.058   105880764.024                                  
  24002876.829   128083825.235                                  
  23370997.988   122815470.937                                  
  21872144.830   114938891.415                                  
  24779373.023   130216498.565                                  
  23419384.917   125014202.202                                  
  20075094.466   107350617.504                                  
  20363301.458   107009886.071                                  
  23536255.509   125991475.443                                  
  23126310.128   121529672.743                                  
  19776071.909   105899992.637                                  
  19527469.048   104458837.873                                  
  22165447.427   116480332.606                                  
  20533324.374   107903381.215                                  
  21382735.675   112367039.261                                  
  25809059.766   135627507.670                                  
  24450910.053   130658265.2212                                 
 16  9 24 14  6 23.0000000  0 22R16G11R17G23G27R 1R 2G28G 8G17R22R24
                                G 1R 7G32R 8R23G14G22G 3G10R15
  24387857.750   130275545.469                                  
  20061298.287   105422889.878                                  
  24306127.857   130066989.796                                  
  25273656.932   132813994.071                                  
  24924430.541   130978690.286                                  
  19806846.415   105879046.669                                  
  24002156.344   128079979.095                                  
  23371165.231   122816350.187                                  
  21872760.928   114942130.024                                  
  24778798.248   130213478.758                                  
  23420162.464   125018349.389                                  
  20074713.179   107348577.879                                  
  20363274.724   107009745.573                                  
  23537094.655   125995967.895                                  
  23126732.946   121531894.929                                  
  19776498.393   105902275.595                                  
  19527767.656   104460436.498                                  
  22165501.662   116480619.750                                  
  20533231.713   107902893.577                                  
  21382399.514   112365272.441                                  
  25809774.981   135631267.853                                  
  24451395.553   130660833.4852                                 
 16  9 24 14  6 24.0000000  0 22R16G11R17G23G27R 1R 2G28G 8G17R22R24
                                G 1R 7G32R 8R23G14G22G 3G10R15
  24387794.755   130275208.220                                  
  20061453.455   105423707.216                                  
  24305440.877   130063313.422                                  
  25273057.029   132810842.336                                  
  24925216.673   130982822.776                                  
  19806525.122   105877330.032                                  
  24001435.825   128076133.118                                  
  23371332.823   122817230.006                                  
  21873377.200   114945369.030                                  
  24778223.752   130210459.056                                  
  23420939.766   125022496.813                                  
  20074332.136   107346538.735                                  
  20363247.641   107009605.422                                  
  23537933.382   126000460.414                                  
  23127156.079   121534117.706                                  
  19776925.155   105904559.206                                  
  19528066.544   104462035.807                                  
  22165556.316   116480907.531                                  
  20533139.122   107902406.369                                  
  21382063.388   112363506.031                                  
  25810490.300   135635028.020                                  
  24451878.784   130663401.8111                                 
 16  9 24 14  6 25.0000000  0 22R16G11R17G23G27R 1R 2G28G 8G17R22R24
                                G 1R 7G32R 8R23G14G22G 3G10R15
  24387731.759   130274871.705                                  
  20061609.111   105424525.026                                  
  24304753.617   130059636.918                                  
  25272457.439   132807690.514                                  
  24926002.456   130986955.250                                  
  19806203.968   105875614.023                                  
  24000715.271   128072287.248                                  
  23371500.136   122818110.314                                  
  21873993.506   114948608.403                                  
  24777648.977   130207439.426                                  
  23421716.859   125026644.415                                  
  20073951.058   107344500.002                                  
  20363220.943   107009465.576                                  
  23538772.703   126004952.953                                  
  23127579.072   121536340.962                                  
  19777351.918   105906843.445                                  
  19528365.745   104463635.725                                  
  22165611.180   116481195.863                                  
  20533046.287   107901919.549                                  
  21381727.576   112361739.959                                  
  25811205.934   135638788.058                                  
  24452365.401   130665971.145                                  
 16  9 24 14  6 26.0000000  0 22R16G11R17G23G27R 1R 2G28G 8G17R22R24
                                G 1R 7G32R 8R23G14G22G 3G10R15
  24387668.904   130274536.028                                  
  20061764.592   105425343.448                                  
  24304066.463   130055960.421                                  
  25271857.885   132804538.709                                  
  24926788.798   130991087.866                                  
  19805882.884   105873898.792                                  
  23999994.751   128068441.594                                  
  23371667.658   122818991.239                                  
  21874610.337   114951848.236                                  
  24777074.620   130204420.006                                  
  23422493.673   125030792.316                                  
  20073570.294   107342461.823                                  
  20363194.348   107009326.137                                  
  23539611.988   126009445.661                                  
  23128002.066   121538564.853                                  
  19777778.645   105909128.423                                  
  19528664.493   104465236.403                                  
  22165666.323   116481484.903                                  
  20532953.801   107901433.236                                  
  21381391.066   112359974.361                                  
  25811921.288   135642548.107                                  
  24452846.608   130668541.239                                  
 16  9 24 14  6 27.0000000  0 22R16G11R17G23G27R 1R 2G28G 8G17R22R24
                                G 1R 7G32R 8R23G14G22G 3G10R15
  24387606.153   130274201.093                                  
  20061920.318   105426162.365                                  
  24303379.273   130052283.810                                  
  25271258.016   132801386.769                                  
  24927575.000   130995220.461                                  
  19805561.905   105872184.198                                  
  23999273.952   128064595.996                                  
  23371835.529   122819872.683                                  
  21875226.958   114955088.448                                  
  24776499.950   130201400.648                                  
  23423270.627   125034940.394                                  
  20073189.286   107340424.060                                  
  20363167.824   107009187.001                                  
  23540450.925   126013938.373                                  
  23128425.652   121540789.243                                  
  19778205.617   105911413.971                                  
  19528963.869   104466837.693                                  
  22165721.151   116481774.508                                  
  20532861.489   107900947.315                                  
  21381055.044   112358209.108                                  
  25812637.026   135646308.073                                  
  24453329.107   130671111.795                                  
 16  9 24 14  6 28.0000000  0 22R16G11R17G23G27R 1R 2G28G 8G17R22R24
                                G 1R 7G32R 8R23G14G22G 3G10R15
  24387543.541   130273867.216                                  
  20062076.567   105426982.027                                  
  24302692.223   130048607.337                                  
  25270658.182   132798234.988                                  
  24928361.063   130999353.352                                  
  19805241.240   105870470.545                                  
  23998553.223   128060750.757                                  
  23372003.225   122820754.887                                  
  21875843.299   114958329.268                                  
  24775925.523   130198381.628                                  
  23424047.615   125039088.951                                  
  20072808.348   107338387.021                                  
  20363141.404   107009048.441                                  
  23541290.455   126018431.431                                  
  23128849.239   121543014.406                                  
  19778632.764   105913700.382                                  
  19529263.454   104468439.904                                  
  22165776.399   116482064.960                                  
  20532769.108   107900462.037                                  
  21380718.988   112356444.497                                  
  25813352.660   135650068.218                                  
  24453813.106   130673683.139                                  
 16  9 24 14  6 29.0000000  0 22R16G11R17G23G27R 1R 2G28G 8G17R22R24
                                G 1R 7G32R 8R23G14G22G 3G10R15
  24387481.349   130273533.947                                  
  20062232.537   105427802.109                                  
  24302005.208   130044930.738                                  
  25270058.558   132795083.032                                  
  24929147.160   131003486.187                                  
  19804921.307   105868757.467                                  
  23997832.390   128056905.543                                  
  23372170.782   122821637.531                                  
  21876459.990   114961570.360                                  
  24775351.062   130195362.605                                  
  23424824.394   125043237.601                                  
  20072427.270   107336350.336                                  
  20363114.880   107008910.095                                  
  23542130.229   126022924.436                                  
  23129273.000   121545240.009                                  
  19779059.840   105915987.311                                  
  19529562.656   104470042.646                                  
  22165831.716   116482355.911                                  
  20532676.936   107899977.065                                  
  21380383.141   112354680.147                                  
  25814068.223   135653828.204                                  
  24454287.996   130676254.917                                  
 16  9 24 14  6 30.0000000  0 22R16G11R17G23G27R 1R 2G28G 8G17R22R24
                                G 1R 7G32R 8R23G14G22G 3G10R15
  24387419.470   130273201.468                                  
  20062388.891   105428622.785                                  
  24301317.809   130041254.051                                  
  25269458.794   132791931.070                                  
  24929933.327   131007619.120                                  
  19804601.340   105867045.157                                  
  23997111.766   128053060.511                                  
  23372339.072   122822520.782                                  
  21877076.855   114964811.881                                  
  24774776.496   130192343.772                                  
  23425601.278   125047386.538                                  
  20072046.611   107334314.191                                  
  20363088.635   107008772.155                                  
  23542969.689   126027417.573                                  
  23129697.180   121547466.223                                  
  19779486.882   105918274.971                                  
  19529862.346   104471646.109                                  
  22165887.033   116482647.531                                  
  20532584.554   107899492.600                                  
  21380047.224   112352916.271                                  
  25814783.961   135657588.116                                  
  24454764.806   130678827.424                                  
 16  9 24 14  6 31.0000000  0 22R16G11R17G23G27R 1R 2G28G 8G17R22R24
                                G 1R 7G32R 8R23G14G22G 3G10R15
  24387357.627   130272869.760                                  
  20062545.350   105429443.958                                  
  24300630.864   130037577.300                                  
  25268859.169   132788779.039                                  
  24930719.739   131011752.102                                  
  19804281.443   105865333.529                                  
  23996390.967   128049215.633                                  
  23372507.083   122823404.532                                  
  21877693.616   114968053.808                                  
  24774202.279   130189325.054                                  
  23426378.161   125051535.676                                  
  20071665.847   107332278.509                                  
  20363062.809   107008634.543                                  
  23543808.905   126031910.757                                  
  23130121.255   121549692.974                                  
  19779914.133   105920563.276                                  
  19530162.210   104473250.233                                  
  22165942.769   116482939.767                                  
  20532492.347   107899008.541                                  
  21379711.552   112351152.745                                  
  25815499.350   135661347.996                                  
  24455241.895   130681400.453                                  
 16  9 24 14  6 32.0000000  0 22R16G11R17G23G27R 1R 2G28G 8G17R22R24
                                G 1R 7G32R 8R23G14G22G 3G10R15
  24387295.958   130272538.792                                  
  20062702.088   105430265.661                                  
  24299943.535   130033900.464                                  
  25268259.405   132785626.913                                  
  24931506.465   131015885.110                                  
  19803961.161   105863622.588                                  
  23995670.552   128045370.886                                  
  23372675.024   122824288.832                                  
  21878310.586   114971296.097                                  
  24773627.574   130186306.419                                  
  23427155.324   125055685.037                                  
  20071284.734   107330243.263                                  
  20363036.913   107008497.263                                  
  23544648.261   126036403.993                                  
  23130545.575   121551920.241                                  
  19780341.629   105922852.209                                  
  19530462.179   104474855.004                                  
  22165998.714   116483232.588                                  
  20532400.210   107898524.888                                  
  21379375.705   112349389.636                                  
  25816214.426   135665107.839                                  
  24455726.173                                                  
 16  9 24 14  6 33.0000000  0 22R16G11R17G23G27R 1R 2G28G 8G17R22R24
                                G 1R 7G32R 8R23G14G22G 3G10R15
  24387234.324   130272208.578                                  
  20062858.686   105431087.863                                  
  24299256.275   130030223.538                                  
  25267659.816   132782474.716                                  
  24932293.295   131020018.150                                  
  19803641.334   105861912.327                                  
  23994950.137   128041526.257                                  
  23372843.174   122825173.648                                  
  21878927.625   114974538.765                                  
  24773053.287   130183287.885                                  
  23427932.313   125059834.600                                  
  20070903.622   107328208.471                                  
  20363010.912   107008360.302                                  
  23545487.686   126040897.274                                  
  23130969.650   121554148.063                                  
  19780769.089   105925141.761                                  
  19530762.149   104476460.442                                  
  22166054.520   116483526.017                                  
  20532308.108   107898041.661                                  
  21379040.382   112347626.876                                  
  25816929.570   135668867.543                                  
  24456210.207                                                  
 16  9 24 14  6 34.0000000  0 22R16G11R17G23G27R 1R 2G28G 8G17R22R24
                                G 1R 7G32R 8R23G14G22G 3G10R15
  24387172.515   130271879.127                                  
  20063015.075   105431910.619                                  
  24298568.562   130026546.526                                  
  25267060.017   132779322.462                                  
  24933080.090   131024151.253                                  
  19803321.576   105860202.767                                  
  23994229.967   128037681.760                                  
  23373011.778   122826059.020                                  
  21879544.770   114977781.812                                  
  24772478.896   130180269.468                                  
  23428709.441   125063984.416                                  
  20070522.718   107326174.172                                  
  20362985.330   107008223.689                                  
  23546327.286   126045390.601                                  
  23131393.934   121556376.411                                  
  19781196.410   105927431.960                                  
  19531062.467   104478066.535                                  
  22166110.500   116483820.063                                  
  20532216.180   107897558.857                                  
  21378705.128   112345864.540                                  
  25817644.855   135672627.238                                  
  24456695.114                                                  
 16  9 24 14  6 35.0000000  0 22R16G11R17G23G27R 1R 2G28G 8G17R22R24
                                G 1R 7G32R 8R23G14G22G 3G10R15
  24387111.509   130271550.520                                  
  20063171.743   105432733.949                                  
  24297881.303   130022869.471                                  
  25266459.974   132776170.163                                  
  24933866.641   131028284.435                                  
  19803002.132   105858493.951                                  
  23993509.762   128033837.436                                  
  23373180.452   122826944.979                                  
  21880161.914   114981025.285                                  
  24771904.400   130177251.216                                  
  23429486.290   125068134.470                                  
  20070142.548   107324140.394                                  
  20362959.434   107008087.460                                  
  23547166.990   126049884.073                                  
  23131817.940   121558605.357                                  
  19781624.603   105929722.848                                  
  19531362.785   104479673.340                                  
  22166166.865   116484114.780                                  
  20532124.218   107897076.523                                  
  21378369.421   112344102.633                                  
  25818359.755   135676386.865                                  
  24457177.787                                                  
 16  9 24 14  6 36.0000000  0 22R16G11R17G23G27R 1R 2G28G 8G17R22R24
                                G 1R 7G32R 8R23G14G22G 3G10R15
  24387050.677   130271222.671                                  
  20063328.515   105433557.852                                  
  24297194.008   130019192.375                                  
  25265859.826   132773017.841                                  
  24934652.774   131032417.736                                  
  19802682.933   105856785.852                                  
  23992789.312   128029993.268                                  
  23373349.021   122827831.529                                  
  21880779.268   114984269.212                                  
  24771329.939   130174233.122                                  
  23430263.592   125072284.785                                  
  20069762.342   107322107.148                                  
  20362933.817   107007951.614                                  
  23548006.555   126054377.708                                  
  23132242.259   121560834.900                                  
  19782052.727   105932014.431                                  
  19531663.103   104481280.858                                  
  22166222.950   116484410.145                                  
  20532032.569   107896594.663                                  
  21378033.679   112342341.156                                  
  25819075.319   135680146.534                                  
  24457661.786                                                  
 16  9 24 14  6 37.0000000  0 22R16G11R17G23G27R 1R 2G28G 8G17R22R24
                                G 1R 7G32R 8R23G14G22G 3G10R15
  24386989.846   130270895.654                                  
  20063485.637   105434382.308                                  
  24296506.958   130015515.225                                  
  25265259.608   132769865.499                                  
  24935438.906   131036551.073                                  
  19802363.559   105855078.477                                  
  23992069.141   128026149.258                                  
  23373517.765   122828718.636                                  
  21881396.691   114987513.543                                  
  24770755.722   130171215.170                                  
  23431040.476   125076435.384                                  
  20069382.172   107320074.387                                  
  20362907.921   107007816.139                                  
  23548845.981   126058871.459                                  
  23132666.963   121563065.007                                  
  19782480.955   105934306.690                                  
  19531963.177   104482889.069                                  
  22166279.453   116484706.147                                  
  20531940.781   107896113.243                                  
  21377698.739   112340580.098                                  
  25819790.429   135683906.151                                  
  24458143.691                                                  
 16  9 24 14  6 38.0000000  0 22R16G11R17G23G27R 1R 2G28G 8G17R22R24
                                G 1R 7G32R 8R23G14G22G 3G10R15
  24386929.154   130270569.233                                  
  20063642.584   105435207.122                                  
  24295819.734   130011837.823                                  
  25264659.740   132766712.907                                  
  24936225.387   131040684.306                                  
  19802044.046   105853371.608                                  
  23991348.866   128022305.211                                  
  23373686.508   122829606.145                                  
  21882014.115   114990758.085                                  
  24770181.051   130168197.172                                  
  23431817.883   125080586.029                                  
  20069001.792   107318041.920                                  
  20362882.373   107007680.833                                  
  23549685.476   126063365.101                                  
  23133091.457   121565295.499                                  
  19782909.219   105936599.409                                  
  19532263.705   104484497.782                                  
  22166335.922   116485002.599                                  
  20531849.237   107895632.095                                  
  21377363.730   112338819.273                                  
  25820505.399   135687665.512                                  
  24458626.050                                                  
 16  9 24 14  6 39.0000000  0 22R16G11R17G23G27R 1R 2G28G 8G17R22R24
                                G 1R 7G32R 8R23G14G22G 3G10R15
  24386868.532   130270243.725                                  
  20063799.427   105436032.578                                  
  24295132.754   130008160.476                                  
  25264059.696   132763560.356                                  
  24937012.008   131044817.709                                  
  19801725.125   105851665.531                                  
  23990628.172   128018461.432                                  
  23373855.147   122830494.267                                  
  21882631.329   114994003.132                                  
  24769606.695   130165179.373                                  
  23432595.639   125084736.982                                  
  20068621.517   107316010.011                                  
  20362856.966   107007545.963                                  
  23550524.971   126067858.904                                  
  23133515.986   121567526.624                                  
  19783337.656   105938892.867                                  
  19532564.093   104486107.279                                  
  22166392.426   116485299.761                                  
  20531758.042   107895151.475                                  
  21377028.476   112337058.956                                  
  25821220.369   135691424.985                                  
  24459110.922                                                  
 16  9 24 14  6 40.0000000  0 22R16G11R17G23G27R 1R 2G28G 8G17R22R24
                                G 1R 7G32R 8R23G14G22G 3G10R15
  24386807.491   130269918.971                                  
  20063956.688   105436858.543                                  
  24294445.425   130004483.037                                  
  25263459.618   132760407.707                                  
  24937798.943   131048951.125                                  
  19801406.380   105849960.135                                  
  23989907.792   128014617.832                                  
  23374024.100   122831382.931                                  
  21883249.311   114997248.541                                  
  24769032.269   130162161.685                                  
  23433373.395   125088888.160                                  
  20068241.626   107313978.536                                  
  20362831.593   107007411.421                                  
  23551364.536   126072352.727                                  
  23133940.619   121569758.290                                  
  19783766.408   105941186.935                                  
  19532864.830   104487717.427                                  
  22166449.244   116485597.542                                  
  20531666.498   107894671.264                                  
  21376693.502   112335299.005                                  
  25821934.781   135695184.358                                  
  24459591.536                                                  
 16  9 24 14  6 41.0000000  0 22R16G11R17G23G27R 1R 2G28G 8G17R22R24
                                G 1R 7G32R 8R23G14G22G 3G10R15
  24386747.183   130269594.975                                  
  20064113.950   105437685.087                                  
  24293758.305   130000805.589                                  
  25262859.331   132757255.049                                  
  24938585.564   131053084.641                                  
  19801087.634   105848255.491                                  
  23989187.133   128010774.382                                  
  23374192.914   122832272.196                                  
  21883867.014   115000494.413                                  
  24768457.982   130159144.164                                  
  23434151.047   125093039.608                                  
  20067861.734   107311947.573                                  
  20362805.627   107007277.265                                  
  23552204.624   126076846.697                                  
  23134365.392   121571990.556                                  
  19784195.300   105943481.696                                  
  19533165.846   104489328.285                                  
  22166506.341   116485895.977                                  
  20531575.024   107894191.530                                  
  21376358.842   112333539.500                                  
  25822650.799   135698943.748                                  
  24460073.406                                                  
 16  9 24 14  6 42.0000000  0 22R16G11R17G23G27R 1R 2G28G 8G17R22R24
                                G 1R 7G32R 8R23G14G22G 3G10R15
  24386686.561   130269271.871                                  
  20064271.351   105438512.277                                  
  24293071.429   129997128.199                                  
  25262259.113   132754102.439                                  
  24939372.604   131057218.308                                  
  19800768.295   105846551.647                                  
  23988466.753   128006931.204                                  
  23374362.181   122833162.100                                  
  21884484.752   115003740.777                                  
  24767884.079   130156126.870                                  
  23434929.117   125097191.404                                  
  20067481.913   107309917.213                                  
  20362780.220   107007143.566                                  
  23553045.061   126081340.868                                  
  23134790.375   121574223.468                                  
  19784624.191   105945777.236                                  
  19533467.107   104490939.914                                  
  22166563.194   116486195.148                                  
  20531483.760   107893712.336                                  
  21376023.693   112331780.512                                  
  25823361.546   135702703.136                                  
  24460556.742                                                  
 16  9 24 14  6 43.0000000  0 22R16G11R17G23G27R 1R 2G28G 8G17R22R24
                                G 1R 7G32R 8R23G14G22G 3G10R15
  24386626.218   130268949.640                                  
  20064428.821   105439340.036                                  
  24292383.926   129993450.754                                  
  25261659.175   132750949.789                                  
  24940159.190   131061352.087                                  
  19800449.445   105844848.551                                  
  23987746.722   128003088.189                                  
  23374531.552   122834052.598                                  
  21885102.210   115006987.579                                  
  24767309.478   130153109.742                                  
  23435707.118   125101343.460                                  
  20067102.371   107307887.394                                  
  20362754.987   107007010.264                                  
  23553884.836   126085835.152                                  
  23135214.974   121576456.993                                  
  19785053.083   105948073.496                                  
  19533768.821   104492552.244                                  
  22166619.837   116486494.974                                  
  20531392.704   107893233.610                                  
  21375689.102   112330021.963                                  
  25824078.122   135706462.522                                  
  24461041.893                                                  
 16  9 24 14  6 44.0000000  0 22R16G11R17G23G27R 1R 2G28G 8G17R22R24
                                G 1R 7G32R 8R23G14G22G 3G10R15
  24386565.771   130268628.114                                  
  20064586.327   105440168.306                                  
  24291696.492   129989773.194                                  
  25261059.376   132747797.064                                  
  24940945.601   131065485.897                                  
  19800130.804   105843146.123                                  
  23987026.377   127999245.249                                  
  23374701.203   122834943.635                                  
  21885719.739   115010234.745                                  
  24766735.331   130150092.727                                  
  23436484.979   125105495.712                                  
  20066722.968   107305858.036                                  
  20362729.614   107006877.274                                  
  23554724.784   126090329.467                                  
  23135640.096   121578691.028                                  
  19785482.149   105950370.370                                  
  19534070.989   104494165.204                                  
  22166677.388   116486795.397                                  
  20531301.719   107892755.297                                  
  21375354.756   112328263.787                                  
  25824790.789   135710221.806                                  
  24461526.975                                                  
 16  9 24 14  6 45.0000000  0 22R16G11R17G23G27R 1R 2G28G 8G17R22R24
                                G 1R 7G32R 8R23G14G22G 3G10R15
  24386505.672   130268307.339                                  
  20064744.217   105440997.079                                  
  24291009.267   129986095.553                                  
  25260459.018   132744644.260                                  
  24941732.432   131069619.718                                  
  19799812.791   105841444.367                                  
  23986306.032   127995402.428                                  
  23374870.820   122835835.172                                  
  21886337.441   115013482.283                                  
  24766161.114   130147075.762                                  
  23437262.874   125109648.164                                  
  20066343.321   107303829.123                                  
  20362704.207   107006744.586                                  
  23555564.943   126094823.826                                  
  23136065.288   121580925.582                                  
  19785911.145   105952667.836                                  
  19534373.157   104495778.801                                  
  22166734.625   116487096.391                                  
  20531211.048   107892277.380                                  
  21375020.480   112326505.953                                  
  25825507.399   135713981.038                                  
  24462009.229                                                  
 16  9 24 14  6 46.0000000  0 22R16G11R17G23G27R 1R 2G28G 8G17R22R24
                                G 1R 7G32R 8R23G14G22G 3G10R15
  24386445.853   130267987.275                                  
  20064901.862   105441826.353                                  
  24290322.252   129982417.811                                  
  25259858.905   132741491.318                                  
  24942519.053   131073753.571                                  
  19799494.848   105839743.292                                  
  23985585.548   127991559.762                                  
  23375040.610   122836727.243                                  
  21886955.389   115016730.175                                  
  24765587.002   130144058.913                                  
  23438040.526   125113800.811                                  
  20065963.849   107301800.673                                  
  20362678.939   107006612.233                                  
  23556405.031   126099318.215                                  
  23136490.619   121583160.657                                  
  19786340.525   105954965.905                                  
  19534675.430   104497393.063                                  
  22166792.176   116487397.992                                  
  20531120.132   107891799.867                                  
  21374686.238   112324748.519                                  
  25826228.128   135717740.150                                  
  24462490.471                                                  
 16  9 24 14  6 47.0000000  0 22R16G11R17G23G27R 1R 2G28G 8G17R22R24
                                G 1R 7G32R 8R23G14G22G 3G10R15
  24386385.999   130267668.057                                  
  20065059.961   105442656.183                                  
  24289634.853   129978740.007                                  
  25259258.618   132738338.394                                  
  24943305.569   131077887.475                                  
  19799176.870   105838042.928                                  
  23984865.412   127987717.241                                  
  23375210.785   122837619.855                                  
  21887573.301   115019978.480                                  
  24765012.995   130141042.185                                  
  23438818.910   125117953.695                                  
  20065584.341   107299772.701                                  
  20362653.252   107006480.219                                  
  23557245.015   126103812.705                                  
  23136916.440   121585396.305                                  
  19786769.905   105957264.621                                  
  19534977.668   104499008.008                                  
  22166849.622   116487700.224                                  
  20531029.147   107891322.798                                  
  21374351.997   112322991.478                                  
  25826940.341   135721499.257                                  
  24462971.992                                                  
 16  9 24 14  6 48.0000000  0 22R16G11R17G23G27R 1R 2G28G 8G17R22R24
                                G 1R 7G32R 8R23G14G22G 3G10R15
  24386326.284   130267349.568                                  
  20065217.816   105443486.530                                  
  24288947.385   129975062.106                                  
  25258658.505   132735185.351                                  
  24944092.469   131082021.420                                  
  19798858.857   105836343.250                                  
  23984145.416   127983874.871                                  
  23375380.575   122838513.017                                  
  21888191.806   115023227.169                                  
  24764439.022   130138025.584                                  
  23439597.330   125122106.798                                  
  20065205.288   107297745.169                                  
  20362627.810   107006348.539                                  
  23558084.998   126108307.274                                  
  23137341.527   121587632.476                                  
  19787199.459   105959564.017                                  
  19535279.731   104500623.608                                  
  22166907.277   116488003.055                                  
  20530938.440   107890846.146                                  
  21374017.581   112321234.833                                  
  25827659.954   135725258.319                                  
  24463454.770                                                  
 16  9 24 14  6 49.0000000  0 22R16G11R17G23G27R 1R 2G28G 8G17R22R24
                                G 1R 7G32R 8R23G14G22G 3G10R15
  24386267.232   130267031.928                                  
  20065375.845   105444317.476                                  
  24288260.055   129971384.222                                  
  25258058.706   132732032.354                                  
  24944879.229   131086155.503                                  
  19798541.159   105834644.342                                  
  23983425.211   127980032.667                                  
  23375550.820   122839406.762                                  
  21888810.242   115026476.309                                  
  24763865.364   130135009.138                                  
  23440375.505   125126260.186                                  
  20064825.746   107295718.171                                  
  20362602.681   107006217.288                                  
  23558924.842   126112801.941                                  
  23137766.719   121589869.262                                  
  19787629.223   105961864.141                                  
  19535581.899   104502239.932                                  
  22166965.072   116488306.579                                  
  20530847.909   107890369.995                                  
  21373683.200   112319478.654                                  
  25828376.459   135729017.409                                  
  24463935.384                                                  
 16  9 24 14  6 50.0000000  0 22R16G11R17G23G27R 1R 2G28G 8G17R22R24
                                G 1R 7G32R 8R23G14G22G 3G10R15
  24386207.588   130266715.061                                  
  20065533.944   105445148.961                                  
  24287572.621   129967706.321                                  
  25257458.384   132728879.250                                  
  24945666.583   131090289.607                                  
  19798223.809   105832946.148                                  
  23982705.285   127976190.564                                  
  23375721.378   122840301.056                                  
  21889428.643   115029725.861                                  
  24763291.461   130131992.827                                  
  23441153.819   125130413.821                                  
  20064446.797   107293691.643                                  
  20362577.728   107006086.383                                  
  23559764.582   126117296.751                                  
  23138192.085   121592106.598                                  
  19788058.883   105964164.888                                  
  19535883.927   104503856.941                                  
  22167023.321   116488610.720                                  
  20530757.621   107889894.266                                  
  21373349.133   112317722.865                                  
  25829089.824   135732776.471                                  
  24464419.243                                                  
 16  9 24 14  6 51.0000000  0 22R16G11R17G23G27R 1R 2G28G 8G17R22R24
                                G 1R 7G32R 8R23G14G22G 3G10R15
  24386148.292   130266399.183                                  
  20065692.357   105445981.199                                  
  24286885.327   129964028.489                                  
  25256858.166   132725726.322                                  
  24946453.867   131094424.007                                  
  19797906.006   105831248.881                                  
  23981985.219   127972348.829                                  
  23375892.006   122841196.147                                  
  21890047.148   115032975.983                                  
  24762717.628   130128976.865                                  
  23441931.959   125134567.903                                  
  20064067.918   107291665.817                                  
  20362552.634   107005956.026                                  
  23560604.496   126121791.820                                  
  23138617.731   121594344.715                                  
  19788489.031   105966466.467                                  
  19536186.654   104505474.863                                  
  22167081.396   116488915.709                                  
  20530667.159   107889419.200                                  
  21373015.310   112315967.716                                  
  25829804.655   135736535.644                                  
  24464902.126                                                  
 16  9 24 14  6 52.0000000  0 22R16G11R17G23G27R 1R 2G28G 8G17R22R24
                                G 1R 7G32R 8R23G14G22G 3G10R15
  24386089.415   130266084.081                                  
  20065851.189   105446813.992                                  
  24286197.649   129960350.566                                  
  25256258.228   132722573.345                                  
  24947240.767   131098558.451                                  
  19797588.272   105829552.337                                  
  23981265.502   127968507.293                                  
  23376062.390   122842091.779                                  
  21890665.514   115036226.557                                  
  24762143.516   130125961.044                                  
  23442710.448   125138722.245                                  
  20063689.492   107289640.509                                  
  20362527.890   107005826.043                                  
  23561444.235   126126286.977                                  
  23139043.796   121596583.395                                  
  19788918.725   105968768.699                                  
  19536489.066   104507093.467                                  
  22167139.644   116489221.339                                  
  20530577.151   107888944.582                                  
  21372681.243   112314212.959                                  
  25830519.625   135740294.767                                  
  24465383.961                                                  
 16  9 24 14  6 53.0000000  0 22R16G11R17G23G27R 1R 2G28G 8G17R22R24
                                G 1R 7G32R 8R23G14G22G 3G10R15
  24386030.189   130265769.658                                  
  20066009.497   105447647.192                                  
  24285509.936   129956672.577                                  
  25255658.568   132719420.212                                  
  24948027.458   131102692.851                                  
  19797271.097   105827856.372                                  
  23980545.646   127964665.807                                  
  23376232.844   122842987.866                                  
  21891283.950   115039477.405                                  
  24761569.578   130122945.230                                  
  23443488.833   125142876.689                                  
  20063311.102   107287615.536                                  
  20362503.180   107005696.282                                  
  23562283.870   126130782.093                                  
  23139470.558   121598822.504                                  
  19789348.768   105971071.470                                  
  19536791.513   104508712.622                                  
  22167197.544   116489527.460                                  
  20530486.933   107888470.272                                  
  21372347.211   112312458.502                                  
  25831233.130   135744053.788                                  
  24465866.076                                                  
 16  9 24 14  6 54.0000000  0 22R16G11R17G23G27R 1R 2G28G 8G17R22R24
                                G 1R 7G32R 8R23G14G22G 3G10R15
  24385971.137   130265456.050                                  
  20066168.189   105448480.963                                  
  24284822.607   129952994.483                                  
  25255058.281   132716267.017                                  
  24948813.939   131106827.305                                  
  19796954.096   105826161.106                                  
  23979825.859   127960824.475                                  
  23376403.751   122843884.521                                  
  21891902.630   115042728.653                                  
  24760995.606   130119929.547                                  
  23444266.973   125147031.369                                  
  20062932.432   107285591.095                                  
  20362478.191   107005566.877                                  
  23563123.784   126135277.321                                  
  23139896.553   121601062.178                                  
  19789778.916   105973374.918                                  
  19537094.553   104510332.455                                  
  22167255.828   116489834.211                                  
  20530396.995   107887996.408                                  
  21372013.284   112310704.448                                  
  25831947.018   135747812.713                                  
  24466347.946                                                  
 16  9 24 14  6 55.0000000  0 22R16G11R17G23G27R 1R 2G28G 8G17R22R24
                                G 1R 7G32R 8R23G14G22G 3G10R15
  24385912.470   130265143.310                                  
  20066326.812   105449315.349                                  
  24284135.208   129949316.418                                  
  25254458.063   132713113.877                                  
  24949601.189   131110961.938                                  
  19796636.886   105824466.647                                  
  23979106.003   127956983.396                                  
  23376574.554   122844781.814                                  
  21892521.554   115045980.409                                  
  24760421.738   130116914.121                                  
  23445045.253   125151186.382                                  
  20062553.692   107283567.255                                  
  20362453.796   107005437.940                                  
  23563963.663   126139772.746                                  
  23140322.617   121603302.516                                  
  19790209.098   105975679.134                                  
  19537397.419   104511953.069                                  
  22167314.705   116490141.687                                  
  20530307.196   107887523.077                                  
  21371680.089   112308950.911                                  
  25832662.652   135751571.686                                  
  24466832.818                                                  
 16  9 24 14  6 56.0000000  0 21R16G11R17G23G27R 1R 2G28G 8G17R22R24
                                G 1R 7G32R 8R23G14G22G 3G10
  24385854.186   130264831.327                                  
  20066485.644   105450150.261                                  
  24283447.948   129945638.289                                  
  25253858.020   132709960.609                                  
  24950388.403   131115096.589                                  
  19796319.851   105822772.831                                  
  23978386.495   127953142.387                                  
  23376745.741   122845679.618                                  
  21893140.479   115049232.504                                  
  24759847.835   130113898.727                                  
  23445823.428   125155341.602                                  
  20062175.372   107281543.872                                  
  20362429.226   107005309.299                                  
  23564803.507   126144268.175                                  
  23140748.752   121605543.366                                  
  19790639.142   105977983.953                                  
  19537700.076   104513574.319                                  
  22167373.093   116490449.756                                  
  20530217.188   107887050.145                                  
  21371346.790   112307197.742                                  
  25833377.203   135755330.537                                  
 16  9 24 14  6 57.0000000  0 21R16G11R17G23G27R 1R 2G28G 8G17R22R24
                                G 1R 7G32R 8R23G14G22G 3G10
  24385795.623   130264519.969                                  
  20066644.511   105450985.580                                  
  24282760.794   129941959.863                                  
  25253258.012   132706807.191                                  
  24951175.094   131119231.178                                  
  19796003.513   105821079.611                                  
  23977666.639   127949301.402                                  
  23376917.032   122846577.866                                  
  21893759.508   115052484.889                                  
  24759273.828   130110883.379                                  
  23446601.638   125159496.912                                  
  20061796.841   107279520.850                                  
  20362404.726   107005180.893                                  
  23565643.141   126148763.565                                  
  23141174.921   121607784.656                                  
  19791069.499   105980289.299                                  
  19538003.186   104515196.129                                  
  22167431.726   116490758.327                                  
  20530127.110   107886577.529                                  
  21371013.002   112305444.847                                  
  25834092.208   135759089.258                                  
 16  9 24 14  6 58.0000000  0 21R16G11R17G23G27R 1R 2G28G 8G17R22R24
                                G 1R 7G32R 8R23G14G22G 3G10
  24385737.479   130264209.354                                  
  20066803.657   105451821.423                                  
  24282073.255   129938281.486                                  
  25252657.654   132703653.662                                  
  24951961.470   131123365.782                                  
  19795687.455   105819387.083                                  
  23976946.748   127945460.526                                  
  23377087.974   122847476.660                                  
  21894378.711   115055737.662                                  
  24758700.134   130107868.140                                  
  23447380.546   125163652.425                                  
  20061418.381   107277498.285                                  
  20362380.226   107005052.838                                  
  23566482.846   126153259.009                                  
  23141601.614   121610026.481                                  
  19791500.031   105982595.266                                  
  19538306.122   104516818.609                                  
  22167491.127   116491067.521                                  
  20530037.416   107886105.340                                  
  21370679.319   112303692.367                                  
  25834810.529   135762847.906                                  
 16  9 24 14  6 59.0000000  0 21R16G11R17G23G27R 1R 2G28G 8G17R22R24
                                G 1R 7G32R 8R23G14G22G 3G10
  24385679.195   130263899.588                                  
  20066962.663   105452657.867                                  
  24281385.821   129934603.008                                  
  25252057.646   132700500.211                                  
  24952748.021   131127500.507                                  
  19795371.187   105817695.320                                  
  23976226.822   127941619.890                                  
  23377259.091   122848376.045                                  
  21894997.845   115058990.886                                  
  24758126.406   130104853.084                                  
  23448159.174   125167808.222                                  
  20061040.200   107275476.249                                  
  20362355.831   107004925.172                                  
  23567322.376   126157754.602                                  
  23142028.621   121612268.922                                  
  19791930.562   105984901.956                                  
  19538609.581   104518441.828                                  
  22167550.039   116491377.387                                  
  20529947.617   107885633.640                                  
  21370346.160   112301940.319                                  
  25835527.384   135766606.540                                  
 16  9 24 14  7  0.0000000  0 21R16G11R17G23G27R 1R 2G28G 8G17R22R24
                                G 1R 7G32R 8R23G14G22G 3G10
  24385621.225   130263590.569                                  
  20067121.809   105453494.792                                  
  24280698.597   129930924.484                                  
  25251457.812   132697346.601                                  
  24953534.747   131131635.244                                  
  19795054.675   105816004.199                                  
  23975507.279   127937779.403                                  
  23377430.278   122849275.929                                  
  21895616.909   115062244.491                                  
  24757552.538   130101838.090                                  
  23448937.384   125171964.196                                  
  20060661.949   107273454.624                                  
  20362331.540   107004797.809                                  
  23568162.325   126162250.246                                  
  23142455.488   121614511.852                                  
  19792361.059   105987209.228                                  
  19538913.145   104520065.668                                  
  22167609.020   116491687.830                                  
  20529858.097   107885162.322                                  
  21370012.826   112300188.615                                  
  25836243.053   135770365.114                                  
 16  9 24 14  7  1.0000000  0 21R16G11R17G23G27R 1R 2G28G 8G17R22R24
                                G 1R 7G32R 8R23G14G22G 3G10
  24385563.395   130263282.159                                  
  20067280.920   105454332.123                                  
  24280011.128   129927245.718                                  
  25250857.944   132694192.822                                  
  24954321.333   131135769.919                                  
  19794738.477   105814313.668                                  
  23974787.597   127933938.918                                  
  23377601.814   122850176.225                                  
  21896236.043   115065498.337                                  
  24756978.705   130098823.109                                  
  23449715.664   125176120.282                                  
  20060283.768   107271433.338                                  
  20362307.493   107004670.676                                  
  23569002.204   126166745.826                                  
  23142882.146   121616755.211                                  
  19792791.801   105989517.029                                  
  19539216.640   104521690.061                                  
  22167668.421   116491998.761                                  
  20529768.229   107884691.300                                  
  21369679.491   112298437.201                                  
  25836957.569   135774123.469                                  
 16  9 24 14  7  2.0000000  0 22R16G11R17G23G27R 1R 2G28G 8G17R22R24
                                G 1R 7G32R 8R23G14G22G 3G10R15
  24385505.426   130262974.597                                  
  20067440.066   105455170.078                                  
  24279323.938   129923566.952                                  
  25250258.040   132691039.071                                  
  24955108.303   131139904.728                                  
  19794422.070   105812623.923                                  
  23974068.404   127930098.652                                  
  23377773.349   122851077.154                                  
  21896855.281   115068752.660                                  
  24756404.942   130095808.330                                  
  23450494.293   125180276.676                                  
  20059905.936   107269412.610                                  
  20362283.342   107004543.955                                  
  23569842.257   126171241.550                                  
  23143309.048   121618999.203                                  
  19793222.507   105991825.561                                  
  19539520.622   104523315.208                                  
  22167727.647   116492310.397                                  
  20529678.744   107884220.805                                  
  21369345.913   112296686.265                                  
  25837671.388   135777881.882                                  
  24470239.240                                                  
 16  9 24 14  7  3.0000000  0 22R16G11R17G23G27R 1R 2G28G 8G17R22R24
                                G 1R 7G32R 8R23G14G22G 3G10R15
  24385448.049   130262667.829                                  
  20067599.770   105456008.560                                  
  24278636.435   129919888.136                                  
  25249657.683   132687885.225                                  
  24955895.203   131144039.587                                  
  19794106.151   105810934.869                                  
  23973348.722   127926258.483                                  
  23377944.885   122851978.632                                  
  21897474.624   115072007.373                                  
  24755831.353   130092793.661                                  
  23451273.131   125184433.297                                  
  20059528.034   107267392.386                                  
  20362259.331   107004417.586                                  
  23570682.101   126175737.370                                  
  23143736.648   121621243.753                                  
  19793653.388   105994134.715                                  
  19539824.640   104524941.034                                  
  22167787.013   116492622.654                                  
  20529589.434   107883750.737                                  
  21369012.893   112294935.736                                  
  25838387.091   135781640.223                                  
  24470725.089                                                  
 16  9 24 14  7  4.0000000  0 22R16G11R17G23G27R 1R 2G28G 8G17R22R24
                                G 1R 7G32R 8R23G14G22G 3G10R15
  24385391.162   130262361.904                                  
  20067759.230   105456847.655                                  
  24277949.071   129916209.282                                  
  25249057.919   132684731.406                                  
  24956681.405   131148174.554                                  
  19793790.337   105809246.588                                  
  23972629.075   127922418.541                                  
  23378116.246   122852880.757                                  
  21898094.177   115075262.540                                  
  24755257.904   130089779.205                                  
  23452051.759   125188590.239                                  
  20059150.307   107265372.719                                  
  20362235.564   107004291.638                                  
  23571522.294   126180233.298                                  
  23144163.829   121623488.897                                  
  19794084.827   105996444.583                                  
  19540128.553   104526567.613                                  
  22167846.692   116492935.602                                  
  20529500.019   107883281.179                                  
  21368679.629   112293185.683                                  
  25839102.689   135785398.576                                  
  24471209.158                                                  
 16  9 24 14  7  5.0000000  0 22R16G11R17G23G27R 1R 2G28G 8G17R22R24
                                G 1R 7G32R 8R23G14G22G 3G10R15
  24385334.030   130262056.694                                  
  20067919.214   105457687.221                                  
  24277261.567   129912530.377                                  
  25248457.910   132681577.457                                  
  24957468.166   131152309.515                                  
  19793474.767   105807558.939                                  
  23971909.359   127918578.706                                  
  23378287.886   122853783.341                                  
  21898713.973   115078518.054                                  
  24754684.560   130086764.797                                  
  23452830.214   125192747.330                                  
  20058772.474   107263353.473                                  
  20362211.413   107004165.961                                  
  23572362.452   126184729.233                                  
  23144591.220   121625734.538                                  
  19794516.231   105998755.026                                  
  19540433.129   104528194.776                                  
  22167906.442   116493249.109                                  
  20529410.639   107882811.985                                  
  21368346.818   112291435.955                                  
  25839817.904   135789156.804                                  
  24471695.914                                                  
 16  9 24 14  7  6.0000000  0 22R16G11R17G23G27R 1R 2G28G 8G17R22R24
                                G 1R 7G32R 8R23G14G22G 3G10R15
  24385277.247   130261752.403                                  
  20068079.302   105458527.434                                  
  24276574.133   129908851.499                                  
  25247857.902   132678423.573                                  
  24958254.507   131156444.625                                  
  19793159.616   105805872.116                                  
  23971189.502   127914739.117                                  
  23378459.806   122854686.598                                  
  21899333.735   115081774.054                                  
  24754111.006   130083750.606                                  
  23453609.052   125196904.772                                  
  20058395.131   107261334.801                                  
  20362187.506   107004040.754                                  
  23573202.506   126189225.337                                  
  23145018.506   121627980.846                                  
  19794947.600   106001066.242                                  
  19540737.775   104529822.699                                  
  22167966.087   116493563.337                                  
  20529321.224   107882343.347                                  
  21368013.868   112289686.738                                  
  25840533.258   135792915.084                                  
  24472181.589                                                  
 16  9 24 14  7  7.0000000  0 22R16G11R17G23G27R 1R 2G28G 8G17R22R24
                                G 1R 7G32R 8R23G14G22G 3G10R15
  24385220.533   130261448.818                                  
  20068239.391   105459368.157                                  
  24275886.525   129905172.551                                  
  25247257.824   132675269.600                                  
  24959040.954   131160579.800                                  
  19792844.535   105804185.992                                  
  23970470.030   127910899.687                                  
  23378631.935   122855590.352                                  
  21899953.532   115085030.433                                  
  24753537.417   130080736.556                                  
  23454387.401   125201062.436                                  
  20058017.508   107259316.577                                  
  20362163.704   107003915.880                                  
  23574042.734   126193721.528                                  
  23145445.862   121630227.691                                  
  19795379.249   106003378.118                                  
  19541042.491   104531451.283                                  
  22168026.185   116493878.182                                  
  20529231.635   107881875.112                                  
  21367681.267   112287937.924                                  
  25841248.508   135796673.291                                  
  24472666.775                                                  
 16  9 24 14  7  8.0000000  0 22R16G11R17G23G27R 1R 2G28G 8G17R22R24
                                G 1R 7G32R 8R23G14G22G 3G10R15
  24385163.855   130261145.953                                  
  20068399.235   105460209.372                                  
  24275198.986   129901493.498                                  
  25246657.816   132672115.514                                  
  24959827.610   131164714.983                                  
  19792529.454   105802500.510                                  
  23969750.522   127907060.324                                  
  23378803.994   122856494.619                                  
  21900573.469   115088287.152                                  
  24752963.724   130077722.569                                  
  23455165.821   125205220.267                                  
  20057640.514   107257298.790                                  
  20362140.320   107003791.289                                  
  23574882.683   126198217.788                                  
  23145873.148   121632475.023                                  
  19795810.967   106005690.573                                  
  19541347.276   104533080.492                                  
  22168086.074   116494193.587                                  
  20529142.778   107881407.265                                  
  21367348.526   112286189.423                                  
  25841963.722   135800431.336                                  
  24473149.657                                                  
 16  9 24 14  7  9.0000000  0 22R16G11R17G23G27R 1R 2G28G 8G17R22R24
                                G 1R 7G32R 8R23G14G22G 3G10R15
  24385107.282   130260843.833                                  
  20068559.253   105461051.053                                  
  24274511.378   129897814.191                                  
  25246057.633   132668961.325                                  
  24960614.230   131168850.098                                  
  19792214.059   105800815.666                                  
  23969030.980   127903221.051                                  
  23378976.018   122857399.389                                  
  21901193.196   115091544.184                                  
  24752389.786   130074708.621                                  
  23455944.868   125209378.264                                  
  20057263.519   107255281.403                                  
  20362116.728   107003666.982                                  
  23575723.225   126202714.036                                  
  23146300.888   121634722.836                                  
  19796242.930   106008003.599                                  
  19541652.341   104534710.311                                  
  22168145.824   116494509.541                                  
  20529053.607   107880939.784                                  
  21367015.751   112284441.296                                  
  25842678.623   135804189.277                                  
  24473636.379                                                  
 16  9 24 14  7 10.0000000  0 22R16G11R17G23G27R 1R 2G28G 8G17R22R24
                                G 1R 7G32R 8R23G14G22G 3G10R15
  24385051.127   130260542.466                                  
  20068719.411   105461893.287                                  
  24273823.700   129894134.857                                  
  25245457.555   132665807.065                                  
  24961401.340   131172985.309                                  
  19791898.943   105799131.534                                  
  23968311.508   127899381.915                                  
  23379148.601   122858304.683                                  
  21901813.411   115094801.639                                  
  24751816.512   130071694.817                                  
  23456724.230   125213536.495                                  
  20056886.350   107253264.509                                  
  20362093.344   107003543.039                                  
  23576563.592   126207210.360                                  
  23146728.557   121636971.223                                  
  19796675.242   106010317.270                                  
  19541957.161   104536340.821                                  
  22168205.783   116494826.155                                  
  20528965.135   107880472.741                                  
  21366683.115   112282693.558                                  
  25843392.965   135807947.155                                  
  24474120.517                                                  
 16  9 24 14  7 11.0000000  0 22R16G11R17G23G27R 1R 2G28G 8G17R22R24
                                G 1R 7G32R 8R23G14G22G 3G10R15
  24384995.042   130260241.916                                  
  20068879.674   105462736.077                                  
  24273136.021   129890455.536                                  
  25244857.163   132662652.764                                  
  24962187.961   131177120.586                                  
  19791583.757   105797448.107                                  
  23967592.175   127895542.886                                  
  23379321.079   122859210.555                                  
  21902433.383   115098059.486                                  
  24751243.377   130068681.158                                  
  23457503.871   125217694.952                                  
  20056509.635   107251248.124                                  
  20362069.682   107003419.449                                  
  23577403.401   126211706.724                                  
  23147156.472   121639220.191                                  
  19797107.344   106012631.607                                  
  19542262.819   104537972.011                                  
  22168266.230   116495143.392                                  
  20528876.278   107880006.144                                  
  21366350.862   112280946.242                                  
  25844109.960   135811705.052                                  
  24474603.749                                                  
 16  9 24 14  7 12.0000000  0 22R16G11R17G23G27R 1R 2G28G 8G17R22R24
                                G 1R 7G32R 8R23G14G22G 3G10R15
  24384939.271   130259942.250                                  
  20069040.146   105463579.474                                  
  24272445.935   129886776.188                                  
  25244256.945   132659498.500                                  
  24962974.966   131181256.004                                  
  19791269.478   105795765.459                                  
  23966872.877   127891704.143                                  
  23379494.150   122860117.061                                  
  21903053.110   115101317.822                                  
  24750669.893   130065667.708                                  
  23458283.197   125221853.715                                  
  20056132.989   107249232.315                                  
  20362046.613   107003296.291                                  
  23578243.455   126216203.238                                  
  23147584.735   121641469.736                                  
  19797539.760   106014946.662                                  
  19542567.640   104539603.959                                  
  22168326.120   116495461.331                                  
  20528787.178   107879540.063                                  
  21366018.610   112279199.412                                  
  25844824.162   135815463.012                                  
  24475088.516                                                  
 16  9 24 14  7 13.0000000  0 22R16G11R17G23G27R 1R 2G28G 8G17R22R24
                                G 1R 7G32R 8R23G14G22G 3G10R15
  24384883.605   130259643.325                                  
  20069200.828   105464423.438                                  
  24271757.524   129883096.893                                  
  25243656.448   132656344.164                                  
  24963761.726   131185391.512                                  
  19790954.956   105794083.532                                  
  23966153.474   127887865.573                                  
  23379666.488   122861024.127                                  
  21903672.767   115104576.585                                  
  24750096.758   130062654.389                                  
  23459062.175   125226012.738                                  
  20055756.274   107247217.018                                  
  20362023.299   107003173.522                                  
  23579083.404   126220699.875                                  
  23148013.033   121643719.909                                  
  19797972.177   106017262.389                                  
  19542872.390   104541236.592                                  
  22168386.532   116495779.924                                  
  20528698.775   107879074.443                                  
  21365686.253   112277453.013                                  
  25845537.527   135819220.912                                  
  24475573.632                                                  
 16  9 24 14  7 14.0000000  0 22R16G11R17G23G27R 1R 2G28G 8G17R22R24
                                G 1R 7G32R 8R23G14G22G 3G10R15
  24384828.043   130259345.130                                  
  20069361.719   105465267.848                                  
  24271066.181   129879417.335                                  
  25243056.300   132653189.722                                  
  24964548.661   131189526.971                                  
  19790640.747   105792402.234                                  
  23965434.036   127884027.068                                  
  23379839.420   122861931.675                                  
  21904293.506   115107835.659                                  
  24749523.379   130059641.120                                  
  23459841.223   125230171.906                                  
  20055379.664   107245202.111                                  
  20362000.056   107003051.003                                  
  23579922.864   126225196.548                                  
  23148441.261   121645970.514                                  
  19798405.012   106019578.662                                  
  19543177.595   104542869.817                                  
  22168447.050   116496099.048                                  
  20528610.337   107878609.165                                  
  21365353.932   112275706.921                                  
  25846259.477   135822978.712                                  
  24476059.446                                                  
 16  9 24 14  7 15.0000000  0 22R16G11R17G23G27R 1R 2G28G 8G17R22R24
                                G 1R 7G32R 8R23G14G22G 3G10R15
  24384772.133   130259047.727                                  
  20069522.366   105466112.834                                  
  24270373.547   129875737.751                                  
  25242456.048   132650035.257                                  
  24965335.736   131193662.508                                  
  19790326.399   105790721.671                                  
  23964714.878   127880188.713                                  
  23380012.631   122862839.812                                  
  21904913.792   115111095.148                                  
  24748950.174   130056628.016                                  
  23460620.096   125234331.344                                  
  20055003.367   107243187.729                                  
  20361976.847   107002928.866                                  
  23580762.568   126229693.330                                  
  23148869.315   121648221.728                                  
  19798837.743   106021895.621                                  
  19543482.904   104544503.743                                  
  22168507.602   116496418.839                                  
  20528521.934   107878144.359                                  
  21365021.610   112273961.268                                  
  25846973.122   135826736.504                                  
  24476545.679                                                  
 16  9 24 14  7 16.0000000  0 22R16G11R17G23G27R 1R 2G28G 8G17R22R24
                                G 1R 7G32R 8R23G14G22G 3G10R15
  24384716.536   130258751.195                                  
  20069683.257   105466958.443                                  
  24269687.056   129872058.236                                  
  25241855.516   132646880.791                                  
  24966122.776   131197798.215                                  
  19790011.911   105789041.891                                  
  23963995.406   127876350.607                                  
  23380185.842   122863748.562                                  
  21905534.286   115114355.108                                  
  24748376.760   130053615.130                                  
  23461399.492   125238491.086                                  
  20054626.861   107241173.907                                  
  20361953.638   107002807.161                                  
  23581602.587   126234190.224                                  
  23149298.032   121650473.567                                  
  19799270.194   106024213.331                                  
  19543788.003   104546138.440                                  
  22168568.224   116496739.317                                  
  20528433.427   107877680.073                                  
  21364689.567   112272216.092                                  
  25847687.917   135830494.260                                  
  24477030.620                                                  
 16  9 24 14  7 17.0000000  0 22R16G11R17G23G27R 1R 2G28G 8G17R22R24
                                G 1R 7G32R 8R23G14G22G 3G10R15
  24384661.463   130258455.406                                  
  20069844.741   105467804.555                                  
  24269004.194   129868378.569                                  
  25241255.019   132643726.231                                  
  24966910.199   131201933.900                                  
  19789697.702   105787362.773                                  
  23963275.793   127872512.599                                  
  23380358.599   122864657.814                                  
  21906154.677   115117615.431                                  
  24747803.346   130050602.302                                  
  23462179.272   125242651.036                                  
  20054250.565   107239160.515                                  
  20361930.569   107002685.759                                  
  23582442.536   126238687.171                                  
  23149726.470   121652725.898                                  
  19799702.994   106026531.640                                  
  19544093.382   104547773.766                                  
  22168629.544   116497060.388                                  
  20528345.338   107877216.172                                  
  21364357.559   112270471.282                                  
  25848404.144   135834251.953                                  
  24477518.249                                                  
 16  9 24 14  7 18.0000000  0 22R16G11R17G23G27R 1R 2G28G 8G17R22R24
                                G 1R 7G32R 8R23G14G22G 3G10R15
  24384606.495   130258160.521                                  
  20070006.086   105468651.278                                  
  24268317.109   129864698.953                                  
  25240654.766   132640571.736                                  
  24967697.379   131206069.744                                  
  19789383.773   105785684.448                                  
  23962555.972   127868674.828                                  
  23380532.089   122865567.720                                  
  21906775.171   115120876.220                                  
  24747229.827   130047589.708                                  
  23462958.495   125246811.276                                  
  20053874.268   107237147.718                                  
  20361907.395   107002564.783                                  
  23583282.310   126243184.250                                  
  23150155.257   121654978.880                                  
  19800135.969   106028850.676                                  
  19544398.691   104549409.867                                  
  22168690.794   116497382.168                                  
  20528256.865   107876752.788                                  
  21364025.761   112268726.965                                  
  25849117.788   135838009.636                                  
  24478004.447                                                  
 16  9 24 14  7 19.0000000  0 22R16G11R17G23G27R 1R 2G28G 8G17R22R24
                                G 1R 7G32R 8R23G14G22G 3G10R15
  24384551.527   130257866.274                                  
  20070167.186   105469498.447                                  
  24267629.640   129861019.172                                  
  25240054.130   132637417.058                                  
  24968484.663   131210205.550                                  
  19789069.774   105784006.729                                  
  23961836.011   127864837.080                                  
  23380704.986   122866478.062                                  
  21907395.876   115124137.320                                  
  24746656.657   130044577.137                                  
  23463737.437   125250971.666                                  
  20053497.972   107235135.306                                  
  20361884.500   107002444.091                                  
  23584122.084   126247681.334                                  
  23150583.520   121657232.333                                  
  19800569.188   106031170.275                                  
  19544704.524   104551046.541                                  
  22168751.975   116497704.478                                  
  20528168.532   107876289.760                                  
  21363693.962   112266982.964                                  
  25849835.097   135841767.253                                  
  24478494.240                                                  
 16  9 24 14  7 20.0000000  0 22R16G11R17G23G27R 1R 2G28G 8G17R22R24
                                G 1R 7G32R 8R23G14G22G 3G10R15
  24384496.629   130257572.758                                  
  20070328.426   105470346.184                                  
  24266941.822   129857339.356                                  
  25239453.424   132634262.354                                  
  24969272.016   131214341.414                                  
  19788755.949   105782329.727                                  
  23961116.853   127860999.548                                  
  23380878.092   122867388.980                                  
  21908016.231   115127398.830                                  
  24746083.068   130041564.713                                  
  23464516.101   125255132.292                                  
  20053121.570   107233123.387                                  
  20361861.815   107002323.740                                  
  23584961.859   126252178.493                                  
  23151012.062   121659486.336                                  
  19801002.372   106033490.526                                  
  19545010.356   104552683.900                                  
  22168813.539   116498027.429                                  
  20528080.932   107875827.168                                  
  21363362.268   112265239.381                                  
  25850546.682   135845524.785                                  
  24478982.392                                                  
 16  9 24 14  7 21.0000000  0 22R16G11R17G23G27R 1R 2G28G 8G17R22R24
                                G 1R 7G32R 8R23G14G22G 3G10R15
  24384441.905   130257280.203                                  
  20070489.980   105471194.553                                  
  24266254.179   129853659.561                                  
  25238852.962   132631107.671                                  
  24970059.161   131218477.435                                  
  19788442.194   105780653.540                                  
  23960397.659   127857162.263                                  
  23381051.617   122868300.546                                  
  21908637.249   115130660.862                                  
  24745509.899   130038552.520                                  
  23465295.358   125259293.253                                  
  20052745.344   107231112.050                                  
  20361839.199   107002203.868                                  
  23585801.668   126256675.828                                  
  23151441.059   121661741.004                                  
  19801435.487   106035811.533                                  
  19545316.363   104554322.044                                  
  22168874.859   116498351.099                                  
  20527993.088   107875365.122                                  
  21363030.749   112263496.280                                  
  25851261.966   135849282.352                                  
  24479468.660                                                  
 16  9 24 14  7 22.0000000  0 22R16G11R17G23G27R 1R 2G28G 8G17R22R24
                                G 1R 7G32R 8R23G14G22G 3G10R15
  24384387.006   130256988.531                                  
  20070651.709   105472043.573                                  
  24265566.501   129849979.851                                  
  25238252.604   132627953.076                                  
  24970846.200   131222613.638                                  
  19788128.718   105778978.180                                  
  23959678.606   127853325.251                                  
  23381224.793   122869212.793                                  
  21909257.953   115133923.384                                  
  24744936.798   130035540.583                                  
  23466074.824   125263454.558                                  
  20052369.047   107229101.301                                  
  20361816.340   107002084.456                                  
  23586641.128   126261173.335                                  
  23151870.404   121663996.330                                  
  19801869.159   106038133.296                                  
  19545622.929   104555960.995                                  
  22168936.528   116498675.527                                  
  20527905.209   107874903.630                                  
  21362698.776   112261753.750                                  
  25851978.158   135853040.060                                  
  24479956.882                                                  
 16  9 24 14  7 23.0000000  0 22R16G11R17G23G27R 1R 2G28G 8G17R22R24
                                G 1R 7G32R 8R23G14G22G 3G10R15
  24384332.282   130256697.602                                  
  20070813.123   105472893.142                                  
  24264878.962   129846300.005                                  
  25237652.387   132624798.391                                  
  24971633.380   131226749.885                                  
  19787815.138   105777303.505                                  
  23958959.517   127849488.364                                  
  23381398.457   122870125.569                                  
  21909878.658   115137186.296                                  
  24744363.664   130032528.743                                  
  23466854.989   125267616.056                                  
  20051992.925   107227091.049                                  
  20361793.550   107001965.375                                  
  23587481.042   126265670.909                                  
  23152299.749   121666252.190                                  
  19802302.728   106040455.683                                  
  19545929.599   104557600.603                                  
  22168998.232   116499000.542                                  
  20527817.678   107874442.563                                  
  21362367.362   112260011.579                                  
  25852693.966   135856797.657                                  
  24480445.314                                                  
 16  9 24 14  7 24.0000000  0 22R16G11R17G23G27R 1R 2G28G 8G17R22R24
                                G 1R 7G32R 8R23G14G22G 3G10R15
  24384277.663   130256407.551                                  
  20070975.061   105473743.253                                  
  24264191.389   129842620.167                                  
  25237052.134   132621643.704                                  
  24972420.594   131230886.182                                  
  19787501.697   105775629.584                                  
  23958240.324   127845651.638                                  
  23381572.331   122871038.925                                  
  21910499.955   115140449.640                                  
  24743790.354   130029517.077                                  
  23467635.153   125271777.816                                  
  20051616.699   107225081.296                                  
  20361771.493   107001846.663                                  
  23588321.235   126270168.630                                  
  23152728.815   121668508.645                                  
  19802736.470   106042778.742                                  
  19546235.920   104559240.889                                  
  22169060.215   116499326.223                                  
  20527729.659   107873981.944                                  
  21362035.947   112258269.837                                  
  25853410.472   135860555.223                                  
  24480934.060                                                  
 16  9 24 14  7 25.0000000  0 22R16G11R17G23G27R 1R 2G28G 8G17R22R24
                                G 1R 7G32R 8R23G14G22G 3G10R15
  24384223.393   130256118.143                                  
  20071136.650   105474593.800                                  
  24263503.466   129838940.105                                  
  25236451.288   132618488.856                                  
  24973207.355   131235022.422                                  
  19787188.605   105773956.274                                  
  23957521.549   127841814.965                                  
  23381746.310   122871952.719                                  
  21911120.485   115143713.247                                  
  24743217.708   130026505.396                                  
  23468415.596   125275939.692                                  
  20051240.960   107223071.934                                  
  20361749.086   107001728.193                                  
  23589161.463   126274666.358                                  
  23153157.846   121670765.543                                  
  19803169.864   106045102.345                                  
  19546542.311   104560881.757                                  
  22169122.129   116499652.414                                  
  20527642.059   107873521.656                                  
  21361704.184   112256528.397                                  
  25854124.919   135864312.625                                  
  24481422.247                                                  
 16  9 24 14  7 26.0000000  0 22R16G11R17G23G27R 1R 2G28G 8G17R22R24
                                G 1R 7G32R 8R23G14G22G 3G10R15
  24384169.193   130255829.726                                  
  20071298.833   105475445.108                                  
  24262815.753   129835260.310                                  
  25235850.791   132615334.152                                  
  24973994.324   131239158.965                                  
  19786875.548   105772283.904                                  
  23956802.705   127837978.703                                  
  23381920.114   122872867.288                                  
  21911741.678   115146977.527                                  
  24742644.782   130023494.086                                  
  23469195.133   125280102.052                                  
  20050865.397   107221063.296                                  
  20361726.715   107001610.297                                  
  23590001.830   126279164.407                                  
  23153587.575   121673023.206                                  
  19803603.921   106047426.825                                  
  19546849.190   104562523.514                                  
  22169184.217   116499979.436                                  
  20527554.180   107873062.030                                  
  21361373.118   112254787.559                                  
  25854838.877   135868070.203                                  
  24481909.946                                                  
 16  9 24 14  7 27.0000000  0 22R16G11R17G23G27R 1R 2G28G 8G17R22R24
                                G 1R 7G32R 8R23G14G22G 3G10R15
  24384115.272   130255542.045                                  
  20071460.875   105476296.948                                  
  24262128.250   129831580.377                                  
  25235250.364   132612179.407                                  
  24974781.958   131243295.553                                  
  19786562.980   105770612.225                                  
  23956083.547   127834142.574                                  
  23382094.267   122873782.384                                  
  21912362.557   115150242.171                                  
  24742071.961   130020482.884                                  
  23469974.669   125284264.620                                  
  20050489.868   107219055.133                                  
  20361704.135   107001492.735                                  
  23590842.373   126283662.456                                  
  23154017.618   121675281.414                                  
  19804037.733   106049751.934                                  
  19547156.489   104564165.939                                  
  22169246.619   116500307.091                                  
  20527466.824   107872602.818                                  
  21361041.808   112253047.158                                  
  25855550.637   135871827.697                                  
  24482397.470                                                  
 16  9 24 14  7 28.0000000  0 22R16G11R17G23G27R 1R 2G28G 8G17R22R24
                                G 1R 7G32R 8R23G14G22G 3G10R15
  24384061.281   130255255.208                                  
  20071623.232   105477149.326                                  
  24261440.153   129827900.410                                  
  25234649.658   132609024.590                                  
  24975569.172   131247432.173                                  
  19786250.866   105768941.271                                  
  23955364.737   127830306.552                                  
  23382268.595   122874698.046                                  
  21912983.645   115153507.214                                  
  24741499.140   130017471.818                                  
  23470754.693   125288427.434                                  
  20050114.514   107217047.474                                  
  20361681.833   107001375.536                                  
  23591682.915   126288160.566                                  
  23154448.115   121677540.182                                  
  19804471.964   106052077.719                                  
  19547463.054   104565809.055                                  
  22169308.986   116500635.378                                  
  20527379.434   107872144.060                                  
  21360710.708   112251307.125                                  
  25856265.781   135875585.174                                  
  24482884.436                                                  
 16  9 24 14  7 29.0000000  0 22R16G11R17G23G27R 1R 2G28G 8G17R22R24
                                G 1R 7G32R 8R23G14G22G 3G10R15
  24384007.778   130254969.038                                  
  20071785.414   105478002.241                                  
  24260752.056   129824220.337                                  
  25234049.021   132605869.729                                  
  24976356.246   131251568.879                                  
  19785938.472   105767271.015                                  
  23954645.544   127826470.679                                  
  23382443.062   122875614.240                                  
  21913604.942   115156772.647                                  
  24740926.634   130014460.896                                  
  23471534.020   125292590.510                                  
  20049738.846   107215040.275                                  
  20361659.323   107001258.685                                  
  23592522.898   126292658.708                                  
  23154878.019   121679799.491                                  
  19804906.370   106054404.138                                  
  19547770.178   104567452.837                                  
  22169371.423   116500964.279                                  
  20527292.462   107871685.723                                  
  21360379.852   112249567.519                                  
  25856981.275   135879342.595                                  
  24483373.007                                                  
 16  9 24 14  7 30.0000000  0 22R16G11R17G23G27R 1R 2G28G 8G17R22R24
                                G 1R 7G32R 8R23G14G22G 3G10R15
  24383954.101   130254683.701                                  
  20071948.085   105478855.695                                  
  24260064.517   129820540.187                                  
  25233448.594   132602714.786                                  
  24977143.391   131255705.599                                  
  19785626.322   105765601.439                                  
  23953926.386   127822634.944                                  
  23382617.565   122876530.989                                  
  21914226.624   115160038.472                                  
  24740353.464   130011450.080                                  
  23472313.242   125296753.804                                  
  20049363.422   107213033.528                                  
  20361637.056   107001142.171                                  
  23593362.742   126297156.926                                  
  23155308.515   121682059.336                                  
  19805340.915   106056731.162                                  
  19548077.546   104569097.288                                  
  22169434.139   116501293.807                                  
  20527205.455   107871227.817                                  
  21360048.751   112247828.317                                  
  25857696.455   135883099.937                                  
  24483860.287                                                  
 16  9 24 14  7 31.0000000  0 22R16G11R17G23G27R 1R 2G28G 8G17R22R24
                                G 1R 7G32R 8R23G14G22G 3G10R15
  24383900.564   130254399.152                                  
  20072110.338   105479709.710                                  
  24259376.909   129816860.144                                  
  25232848.272   132599559.854                                  
  24977930.605   131259842.410                                  
  19785314.557   105763932.603                                  
  23953207.157   127818799.445                                  
  23382791.718   122877448.320                                  
  21914848.061   115163304.686                                  
  24739780.608   130008439.427                                  
  23473092.848   125300917.357                                  
  20048988.486   107211027.323                                  
  20361614.790   107001026.061                                  
  23594202.726   126301655.279                                  
  23155738.873   121684319.791                                  
  19805775.565   106059058.871                                  
  19548385.507   104570742.449                                  
  22169497.413   116501623.995                                  
  20527118.658   107870770.392                                  
  21359718.104   112246089.549                                  
  25858411.286   135886857.297                                  
  24484348.439                                                  
 16  9 24 14  7 32.0000000  0 22R16G11R17G23G27R 1R 2G28G 8G17R22R24
                                G 1R 7G32R 8R23G14G22G 3G10R15
  24383847.201   130254115.480                                  
  20072272.869   105480564.317                                  
  24258689.265   129813179.932                                  
  25232247.984   132596404.889                                  
  24978717.854   131263979.333                                  
  19785002.477   105762264.509                                  
  23952488.418   127814964.161                                  
  23382966.429   122878366.253                                  
  21915469.603   115166571.367                                  
  24739207.752   130005428.949                                  
  23473873.012   125305081.157                                  
  20048613.342   107209021.651                                  
  20361592.698   107000910.338                                  
  23595042.954   126306153.771                                  
  23156169.614   121686580.816                                  
  19806210.180   106061387.289                                  
  19548693.434   104572388.334                                  
  22169560.513   116501954.844                                  
  20527031.511   107870313.427                                  
  21359386.969   112244351.218                                  
  25859126.291   135890614.621                                  
  24484833.660                                                  
 16  9 24 14  7 33.0000000  0 22R16G11R17G23G27R 1R 2G28G 8G17R22R24
                                G 1R 7G32R 8R23G14G22G 3G10R15
  24383794.013   130253832.585                                  
  20072435.784   105481419.496                                  
  24257999.109   129809499.729                                  
  25231647.592   132593249.882                                  
  24979505.313   131268116.324                                  
  19784690.956   105760597.148                                  
  23951769.085   127811128.996                                  
  23383141.280   122879284.731                                  
  21916091.668   115169838.467                                  
  24738635.211   130002418.633                                  
  23474653.351   125309245.197                                  
  20048238.476   107207016.505                                  
  20361570.675   107000794.981                                  
  23595882.973   126310652.403                                  
  23156600.390   121688842.430                                  
  19806645.493   106063716.378                                  
  19549001.884   104574034.952                                  
  22169624.067   116502286.353                                  
  20526944.818   107869856.943                                  
  21359056.008   112242613.325                                  
  25859841.087   135894371.937                                  
  24485320.346                                                  
 16  9 24 14  7 34.0000000  0 22R16G11R17G23G27R 1R 2G28G 8G17R22R24
                                G 1R 7G32R 8R23G14G22G 3G10R15
  24383740.685   130253550.411                                  
  20072598.281   105482275.088                                  
  24257306.371   129805819.311                                  
  25231047.479   132590094.735                                  
  24980292.701   131272253.284                                  
  19784379.888   105758930.375                                  
  23951050.380   127807293.896                                  
  23383316.271   122880203.664                                  
  21916713.175   115173105.828                                  
  24738061.901   129999408.327                                  
  23475434.074   125313409.343                                  
  20047863.192   107205011.722                                  
  20361549.177   107000679.864                                  
  23596723.236   126315150.954                                  
  23157030.887   121691104.459                                  
  19807080.632   106066046.001                                  
  19549309.880   104575682.134                                  
  22169687.446   116502618.353                                  
  20526858.161   107869400.767                                  
  21358725.048   112240875.707                                  
  25860555.987   135898129.039                                  
  24485810.349                                                  
 16  9 24 14  7 35.0000000  0 22R16G11R17G23G27R 1R 2G28G 8G17R22R24
                                G 1R 7G32R 8R23G14G22G 3G10R15
  24383687.602   130253268.923                                  
  20072761.021   105483131.179                                  
  24256612.585   129802138.866                                  
  25230446.878   132586939.485                                  
  24981079.671   131276390.220                                  
  19784068.786   105757264.280                                  
  23950331.780   127803458.844                                  
  23383491.227   122881123.100                                  
  21917334.857   115176373.553                                  
  24737489.255   129996398.107                                  
  23476214.273   125317573.674                                  
  20047488.047   107203007.377                                  
  20361527.190   107000565.051                                  
  23597563.149   126319649.522                                  
  23157461.663   121693367.015                                  
  19807515.526   106068376.259                                  
  19549618.261   104577329.956                                  
  22169750.790   116502950.952                                  
  20526771.049   107868944.990                                  
  21358394.820   112239138.474                                  
  25861270.678   135901886.145                                  
  24486298.710                                                  
 16  9 24 14  7 36.0000000  0 22R16G11R17G23G27R 1R 2G28G 8G17R22R24
                                G 1R 7G32R 8R23G14G22G 3G10R15
  24383635.007   130252988.301                                  
  20072923.971   105483987.916                                  
  24255929.828   129798458.358                                  
  25229846.555   132583784.275                                  
  24981867.130   131280527.302                                  
  19783757.264   105755598.989                                  
  23949613.006   127799624.055                                  
  23383666.043   122882043.203                                  
  21917956.608   115179641.755                                  
  24736916.399   129993388.086                                  
  23476994.333   125321738.353                                  
  20047112.867   107201003.616                                  
  20361505.342   107000450.677                                  
  23598402.993   126324148.260                                  
  23157892.544   121695630.231                                  
  19807950.525   106070707.248                                  
  19549926.641   104578978.541                                  
  22169814.274   116503284.276                                  
  20526684.217   107868489.743                                  
  21358064.138   112237401.738                                  
  25861985.684   135905643.320                                  
  24486788.433                                                  
 16  9 24 14  7 37.0000000  0 22R16G11R17G23G27R 1R 2G28G 8G17R22R24
                                G 1R 7G32R 8R23G14G22G 3G10R15
  24383582.621   130252708.552                                  
  20073086.991   105484845.288                                  
  24255240.893   129794777.974                                  
  25229246.372   132580629.112                                  
  24982654.658   131284664.565                                  
  19783445.848   105753934.520                                  
  23948893.987   127795789.489                                  
  23383841.244   122882963.952                                  
  21918578.708   115182910.463                                  
  24736343.474   129990378.336                                  
  23477774.846   125325903.385                                  
  20046738.002   107199000.443                                  
  20361483.564   107000336.765                                  
  23599242.942   126328647.182                                  
  23158323.424   121697894.084                                  
  19808386.188   106073038.962                                  
  19550234.672   104580627.901                                  
  22169877.967   116503618.313                                  
  20526597.734   107868035.039                                  
  21357733.980   112235665.504                                  
  25862700.724   135909400.485                                  
  24487276.586                                                  
 16  9 24 14  7 38.0000000  0 22R16G11R17G23G27R 1R 2G28G 8G17R22R24
                                G 1R 7G32R 8R23G14G22G 3G10R15
  24383530.550   130252429.499                                  
  20073250.116   105485703.076                                  
  24254548.294   129791097.382                                  
  25228646.294   132577473.767                                  
  24983441.803   131288801.749                                  
  19783134.780   105752270.631                                  
  23948175.387   127791955.011                                  
  23384016.618   122883885.108                                  
  21919200.878   115186179.451                                  
  24735770.897   129987368.600                                  
  23478554.976   125330068.501                                  
  20046363.380   107196997.610                                  
  20361461.926   107000223.089                                  
  23600082.786   126333146.047                                  
  23158754.584   121700158.387                                  
  19808821.675   106075371.166                                  
  19550543.017   104582277.801                                  
  22169941.731   116503952.852                                  
  20526511.530   107867580.644                                  
  21357403.508   112233929.548                                  
  25863415.310   135913157.428                                  
  24487763.900                                                  
 16  9 24 14  7 39.0000000  0 22R16G11R17G23G27R 1R 2G28G 8G17R22R24
                                G 1R 7G32R 8R23G14G22G 3G10R15
  24383478.443   130252151.145                                  
  20073413.799   105486561.349                                  
  24253858.068   129787416.642                                  
  25228045.867   132574318.325                                  
  24984228.912   131292938.943                                  
  19782823.608   105750607.376                                  
  23947456.752   127788120.623                                  
  23384192.237   122884806.782                                  
  21919822.629   115189448.793                                  
  24735198.041   129984358.911                                  
  23479335.175   125334233.787                                  
  20045988.654   107194995.220                                  
  20361440.497   107000109.705                                  
  23600922.735   126337644.943                                  
  23159185.884   121702423.160                                  
  19809257.861   106077703.959                                  
  19550851.328   104583928.273                                  
  22170005.459   116504287.973                                  
  20526424.802   107867126.627                                  
  21357073.245   112232193.952                                  
  25864128.117   135916914.357                                  
  24488249.854                                                  
 16  9 24 14  7 40.0000000  0 22R16G11R17G23G27R 1R 2G28G 8G17R22R24
                                G 1R 7G32R 8R23G14G22G 3G10R15
  24383426.546   130251873.631                                  
  20073576.924   105487420.228                                  
  24253172.344   129783736.003                                  
  25227445.719   132571162.888                                  
  24985016.266   131297076.241                                  
  19782512.820   105748944.900                                  
  23946737.838   127784286.508                                  
  23384367.821   122885729.059                                  
  21920444.730   115192718.567                                  
  24734625.535   129981349.416                                  
  23480115.549   125338399.359                                  
  20045614.068   107192993.374                                  
  20361419.242   106999996.728                                  
  23601762.963   126342143.975                                  
  23159617.253   121704688.553                                  
  19809693.488   106080037.459                                  
  19551160.301   104585579.492                                  
  22170069.676   116504623.771                                  
  20526338.458   107866673.099                                  
  21356743.191   112230458.817                                  
  25864843.715   135920671.225                                  
  24488739.228                                                  
 16  9 24 14  7 41.0000000  0 22R16G11R17G23G27R 1R 2G28G 8G17R22R24
                                G 1R 7G32R 8R23G14G22G 3G10R15
  24383374.824   130251596.967                                  
  20073740.362   105488279.727                                  
  24252493.705   129780055.340                                  
  25226845.222   132568007.487                                  
  24985803.690   131301213.661                                  
  19782201.961   105747283.223                                  
  23946019.308   127780452.578                                  
  23384543.754   122886651.985                                  
  21921066.725   115195988.827                                  
  24734052.993   129978340.148                                  
  23480896.202   125342565.247                                  
  20045239.482   107190992.118                                  
  20361397.988   106999884.192                                  
  23602603.435   126346643.156                                  
  23160048.344   121706954.592                                  
  19810129.464   106082371.701                                  
  19551468.926   104587231.479                                  
  22170133.683   116504960.290                                  
  20526252.045   107866220.108                                  
  21356413.312   112228724.169                                  
  25865561.792   135924428.085                                  
  24489225.670                                                  
 16  9 24 14  7 42.0000000  0 22R16G11R17G23G27R 1R 2G28G 8G17R22R24
                                G 1R 7G32R 8R23G14G22G 3G10R15
  24383322.787   130251321.134                                  
  20073903.906   105489139.798                                  
  24251806.376   129776374.592                                  
  25226244.795   132564852.049                                  
  24986591.357   131305351.169                                  
  19781891.278   105745622.283                                  
  23945300.359   127776618.788                                  
  23384719.653   122887575.465                                  
  21921689.209   115199259.491                                  
  24733480.277   129975331.034                                  
  23481676.156   125346731.382                                  
  20044865.140   107188991.383                                  
  20361376.978   106999772.034                                  
  23603443.838   126351142.425                                  
  23160479.608   121709221.183                                  
  19810565.475   106084706.612                                  
  19551777.830   104588884.179                                  
  22170197.865   116505297.449                                  
  20526165.980   107865767.567                                  
  21356083.434   112226989.962                                  
  25866274.982   135928184.911                                  
  24489712.252                                                  
 16  9 24 14  7 43.0000000  0 22R16G11R17G23G27R 1R 2G28G 8G17R22R24
                                G 1R 7G32R 8R23G14G22G 3G10R15
  24383271.554   130251046.021                                  
  20074067.694   105490000.350                                  
  24251110.426   129772693.755                                  
  25225644.264   132561696.540                                  
  24987379.235   131309488.700                                  
  19781580.664   105743962.000                                  
  23944581.620   127772785.119                                  
  23384895.202   122888499.457                                  
  21922312.077   115202530.517                                  
  24732907.386   129972322.004                                  
  23482456.530   125350897.714                                  
  20044491.112   107186991.106                                  
  20361355.898   106999660.198                                  
  23604284.240   126355641.695                                  
  23160911.013   121711488.304                                  
  19811001.871   106087042.145                                  
  19552086.978   104590537.506                                  
  22170262.151   116505635.198                                  
  20526079.951   107865315.417                                  
  21355753.485   112225256.117                                  
  25866988.452   135931941.657                                  
  24490202.184                                                  
 16  9 24 14  7 44.0000000  0 22R16G11R17G23G27R 1R 2G28G 8G17R22R24
                                G 1R 7G32R 8R23G14G22G 3G10R15
  24383220.180   130250771.708                                  
  20074231.900   105490861.457                                  
  24250431.404   129769012.895                                  
  25225043.453   132558540.931                                  
  24988166.589   131313626.281                                  
  19781269.841   105742302.410                                  
  23943862.880   127768951.572                                  
  23385071.170   122889423.998                                  
  21922934.631   115205801.946                                  
  24732334.496   129969313.102                                  
  23483236.939   125355064.247                                  
  20044117.084   107184991.305                                  
  20361334.923   106999548.698                                  
  23605124.468   126360141.084                                  
  23161342.626   121713755.959                                  
  19811438.161   106089378.306                                  
  19552396.545   104592191.527                                  
  22170326.613   116505973.566                                  
  20525994.061   107864863.703                                  
  21355423.571   112223522.659                                  
  25867703.910   135935698.341                                  
  24490693.513                                                  
 16  9 24 14  7 45.0000000  0 22R16G11R17G23G27R 1R 2G28G 8G17R22R24
                                G 1R 7G32R 8R23G14G22G 3G10R15
  24383169.051   130250498.187                                  
  20074395.967   105491723.070                                  
  24249742.923   129765331.901                                  
  25224442.991   132555385.284                                  
  24988954.117   131317763.889                                  
  19780959.366   105740643.511                                  
  23943144.001   127765118.182                                  
  23385247.103   122890349.052                                  
  21923557.220   115209073.743                                  
  24731762.163   129966304.308                                  
  23484017.592   125359230.999                                  
  20043743.230   107182991.948                                  
  20361313.948   106999437.528                                  
  23605964.836   126364640.497                                  
  23161774.624   121716024.155                                  
  19811874.975   106091715.098                                  
  19552705.797   104593846.219                                  
  22170391.667   116506312.542                                  
  20525908.031   107864412.403                                  
  21355093.867   112221789.600                                  
  25868418.322   135939454.995                                  
  24491182.049                                                  
 16  9 24 14  7 46.0000000  0 22R16G11R17G23G27R 1R 2G28G 8G17R22R24
                                G 1R 7G32R 8R23G14G22G 3G10R15
  24383118.131   130250225.503                                  
  20074560.209   105492585.303                                  
  24249056.675   129761650.948                                  
  25223842.459   132552229.643                                  
  24989741.610   131321901.625                                  
  19780649.032   105738985.406                                  
  23942425.366   127761285.010                                  
  23385423.350   122891274.756                                  
  21924179.670   115212346.018                                  
  24731189.482   129963295.729                                  
  23484798.105   125363398.061                                  
  20043369.481   107180993.166                                  
  20361292.903   106999326.785                                  
  23606805.064   126369140.090                                  
  23162206.412   121718292.986                                  
  19812311.789   106094052.615                                  
  19553014.911   104595501.672                                  
  22170456.407   116506652.219                                  
  20525822.106   107863961.614                                  
  21354764.616   112220057.001                                  
  25869135.561   135943211.709                                  
  24491669.573                                                  
 16  9 24 14  7 47.0000000  0 22R16G11R17G23G27R 1R 2G28G 8G17R22R24
                                G 1R 7G32R 8R23G14G22G 3G10R15
  24383067.456   130249953.612                                  
  20074724.345   105493448.101                                  
  24248367.217   129757969.970                                  
  25223241.752   132549073.952                                  
  24990529.418   131326039.425                                  
  19780338.871   105737328.018                                  
  23941706.417   127757452.047                                  
  23385599.737   122892201.020                                  
  21924802.293   115215618.681                                  
  24730616.522   129960287.290                                  
  23485578.618   125367565.356                                  
  20042995.837   107178994.868                                  
  20361271.858   106999216.406                                  
  23607645.536   126373639.776                                  
  23162638.096   121720562.360                                  
  19812748.637   106096390.764                                  
  19553324.477   104597157.801                                  
  22170520.764   116506992.533                                  
  20525736.286   107863511.277                                  
  21354435.575   112218324.848                                  
  25869848.507   135946968.360                                  
  24492158.459                                                  
 16  9 24 14  7 48.0000000  0 22R16G11R17G23G27R 1R 2G28G 8G17R22R24
                                G 1R 7G32R 8R23G14G22G 3G10R15
  24383016.745   130249682.317                                  
  20074888.971   105494311.286                                  
  24247674.479   129754288.758                                  
  25222641.639   132545918.082                                  
  24991316.283   131330177.151                                  
  19780028.851   105735671.197                                  
  23940987.817   127753619.121                                  
  23385776.054   122893127.688                                  
  21925425.266   115218891.633                                  
  24730044.154   129957278.837                                  
  23486359.062   125371732.729                                  
  20042622.333   107176996.957                                  
  20361250.987   106999106.237                                  
  23608485.939   126378139.412                                  
  23163069.988   121722832.169                                  
  19813184.963   106098729.404                                  
  19553634.324   104598814.467                                  
  22170585.609   116507333.337                                  
  20525650.780   107863061.246                                  
  21354106.219   112216592.963                                  
  25870562.989   135950724.796                                  
  24492645.459                                                  
 16  9 24 14  7 49.0000000  0 22R16G11R17G23G27R 1R 2G28G 8G17R22R24
                                G 1R 7G32R 8R23G14G22G 3G10R15
  24382966.070   130249411.699                                  
  20075053.561   105495174.928                                  
  24246987.254   129750607.359                                  
  25222041.247   132542762.065                                  
  24992103.462   131334314.841                                  
  19779718.481   105734014.967                                  
  23940269.461   127749786.212                                  
  23385952.545   122894054.785                                  
  21926048.239   115222164.864                                  
  24729472.101   129954270.439                                  
  23487139.820   125375900.220                                  
  20042248.933   107174999.448                                  
  20361230.222   106998996.331                                  
  23609326.446   126382639.053                                  
  23163501.846   121725102.410                                  
  19813621.742   106101068.582                                  
  19553944.519   104600471.683                                  
  22170650.803   116507674.665                                  
  20525565.100   107862611.547                                  
  21353776.759   112214861.376                                  
  25871278.029   135954481.092                                  
  24493133.856                                                  
 16  9 24 14  7 50.0000000  0 22R16G11R17G23G27R 1R 2G28G 8G17R22R24
                                G 1R 7G32R 8R23G14G22G 3G10R15
  24382915.360   130249141.953                                  
  20075218.012   105496039.123                                  
  24246306.067   129746925.986                                  
  25221440.715   132539606.044                                  
  24992890.712   131338452.601                                  
  19779408.600   105732359.468                                  
  23939551.036   127745953.468                                  
  23386128.723   122894982.478                                  
  21926671.421   115225438.528                                  
  24728899.176   129951262.185                                  
  23487920.542   125380067.990                                  
  20041875.359   107173002.447                                  
  20361209.561   106998886.798                                  
  23610167.302   126387138.759                                  
  23163934.123   121727373.232                                  
  19814058.835   106103408.439                                  
  19554254.679   104602129.620                                  
  22170716.171   116508016.646                                  
  20525479.559   107862162.309                                  
  21353447.578   112213130.230                                  
  25871992.720   135958237.385                                  
  24493624.765                                                  
 16  9 24 14  7 51.0000000  0 22R16G11R17G23G27R 1R 2G28G 8G17R22R24
                                G 1R 7G32R 8R23G14G22G 3G10R15
  24382865.068   130248873.064                                  
  20075382.533   105496903.957                                  
  24245620.937   129743244.642                                  
  25220840.184   132536450.072                                  
  24993677.786   131342590.497                                  
  19779098.684   105730704.776                                  
  23938832.680   127742120.927                                  
  23386305.145   122895910.806                                  
  21927294.638   115228712.645                                  
  24728326.704   129948254.161                                  
  23488701.370   125384236.081                                  
  20041501.889   107171006.007                                  
  20361189.074   106998777.719                                  
  23611007.635   126391638.617                                  
  23164366.260   121729644.723                                  
  19814495.928   106105749.058                                  
  19554564.979   104603788.338                                  
  22170781.156   116508359.337                                  
  20525394.297   107861713.597                                  
  21353118.013   112211399.556                                  
  25872707.551   135961993.757                                  
  24494117.804                                                  
 16  9 24 14  7 52.0000000  0 22R16G11R17G23G27R 1R 2G28G 8G17R22R24
                                G 1R 7G32R 8R23G14G22G 3G10R15
  24382815.195   130248605.012                                  
  20075547.228   105497769.433                                  
  24244933.119   129739563.371                                  
  25220239.966   132533294.110                                  
  24994465.070   131346728.552                                  
  19778788.978   105729050.894                                  
  23938114.359   127738288.665                                  
  23386482.090   122896839.788                                  
  21927917.995   115231987.285                                  
  24727754.232   129945246.359                                  
  23489482.058   125388404.506                                  
  20041128.734   107169010.166                                  
  20361168.134   106998669.078                                  
  23611848.875   126396138.630                                  
  23164798.258   121731916.839                                  
  19814933.335   106108090.435                                  
  19554875.697   104605447.835                                  
  22170846.245   116508702.759                                  
  20525308.930   107861265.425                                  
  21352788.937   112209669.411                                  
  25873422.661   135965750.138                                  
  24494609.446                                                  
 16  9 24 14  7 53.0000000  0 22R16G11R17G23G27R 1R 2G28G 8G17R22R24
                                G 1R 7G32R 8R23G14G22G 3G10R15
  24382764.799   130248337.656                                  
  20075712.132   105498635.339                                  
  24244241.951   129735881.841                                  
  25219639.399   132530137.992                                  
  24995252.599   131350866.545                                  
  19778479.306   105727397.611                                  
  23937396.039   127734456.444                                  
  23386658.860   122897769.189                                  
  21928541.142   115235262.182                                  
  24727181.656   129942238.571                                  
  23490263.409   125392573.049                                  
  20040755.613   107167014.704                                  
  20361147.612   106998560.680                                  
  23612689.312   126400638.547                                  
  23165230.779   121734189.406                                  
  19815370.742   106110432.339                                  
  19555186.067   104607107.888                                  
  22170911.823   116509046.689                                  
  20525223.634   107860817.572                                  
  21352459.721   112207939.550                                  
  25874137.841   135969506.341                                  
  24495099.065                                                  
